{
  "city": "台北市",
  "district": "北投區",
  "category": "transport",
  "updatedAt": "2026-06-11T02:26:48.142Z",
  "rev": 1,
  "count": 314,
  "items": [
    {
      "id": 269820830,
      "name": "新北投",
      "type": "metro",
      "city": "台北市",
      "district": "北投區",
      "lat": 25.1369644,
      "lng": 121.5031693,
      "lines": [
        "新北投支線"
      ],
      "lineCount": 1,
      "lineSource": "gtfs",
      "lineUpdatedAt": "2026-06-14T16:43:39.467Z",
      "lineConfidence": "high"
    },
    {
      "id": 864541438,
      "name": "捷運關渡站",
      "type": "bus",
      "city": "台北市",
      "district": "北投區",
      "lat": 25.1250201,
      "lng": 121.4669273,
      "routes": [
        "223",
        "223繞駛青年社宅",
        "302狗狗公車",
        "302區",
        "302區狗狗公車",
        "302路",
        "308",
        "550",
        "682",
        "821",
        "837副",
        "837副繞",
        "838",
        "864",
        "983",
        "小23",
        "小23假日區間",
        "紅13",
        "紅13延",
        "紅22",
        "紅22去(車機)",
        "紅22台北港去",
        "紅22台北港返",
        "紅35",
        "紅35區",
        "紅55",
        "紅55區"
      ],
      "routeCount": 27,
      "routeSource": "gtfs",
      "routeUpdatedAt": "2026-06-14T16:43:39.467Z",
      "routeConfidence": "high"
    },
    {
      "id": 1519034530,
      "name": "清天宮",
      "type": "bus",
      "city": "台北市",
      "district": "北投區",
      "lat": 25.1598657,
      "lng": 121.5007933,
      "routes": [
        "小6不經永春橋",
        "小6經永春橋"
      ],
      "routeCount": 2,
      "routeSource": "gtfs",
      "routeUpdatedAt": "2026-06-14T15:08:25.442Z",
      "routeConfidence": "high"
    },
    {
      "id": 1833784606,
      "name": "陽明大學校門口",
      "type": "bus",
      "city": "台北市",
      "district": "北投區",
      "lat": 25.1202876,
      "lng": 121.5131441
    },
    {
      "id": 2336797659,
      "name": "奇岩新村",
      "type": "bus",
      "city": "台北市",
      "district": "北投區",
      "lat": 25.1256469,
      "lng": 121.5083775,
      "routes": [
        "216",
        "602大南天母發半趟",
        "602大南北投發半趟",
        "602中興天母發半趟",
        "602中興北投發半趟",
        "小14",
        "小21",
        "小21經立農國小一"
      ],
      "routeCount": 8,
      "routeSource": "gtfs",
      "routeUpdatedAt": "2026-06-14T16:43:39.468Z",
      "routeConfidence": "high"
    },
    {
      "id": 2337241955,
      "name": "公館華廈",
      "type": "bus",
      "city": "台北市",
      "district": "北投區",
      "lat": 25.1243962,
      "lng": 121.5062335,
      "routes": [
        "216",
        "602大南天母發半趟",
        "602大南北投發半趟",
        "602中興天母發半趟",
        "602中興北投發半趟",
        "小14",
        "小21",
        "小21經立農國小一"
      ],
      "routeCount": 8,
      "routeSource": "gtfs",
      "routeUpdatedAt": "2026-06-14T16:43:39.468Z",
      "routeConfidence": "high"
    },
    {
      "id": 2363044647,
      "name": "崇仁路口",
      "type": "bus",
      "city": "台北市",
      "district": "北投區",
      "lat": 25.1224293,
      "lng": 121.5029061,
      "routes": [
        "216",
        "223",
        "223繞駛青年社宅",
        "602大南天母發半趟",
        "602大南北投發半趟",
        "602中興天母發半趟",
        "602中興北投發半趟",
        "小21",
        "小21經立農國小一",
        "內科16往內科",
        "內科16往北投"
      ],
      "routeCount": 11,
      "routeSource": "gtfs",
      "routeUpdatedAt": "2026-06-14T16:43:39.468Z",
      "routeConfidence": "high"
    },
    {
      "id": 2432586754,
      "name": "第二停車場",
      "type": "bus",
      "city": "台北市",
      "district": "北投區",
      "lat": 25.1538815,
      "lng": 121.5446895
    },
    {
      "id": 2459681635,
      "name": "保一總隊",
      "type": "bus",
      "city": "台北市",
      "district": "北投區",
      "lat": 25.1189207,
      "lng": 121.5172859,
      "routes": [
        "606",
        "敦化幹線"
      ],
      "routeCount": 2,
      "routeSource": "gtfs",
      "routeUpdatedAt": "2026-06-14T16:43:39.468Z",
      "routeConfidence": "high"
    },
    {
      "id": 2459681639,
      "name": "榮總",
      "type": "bus",
      "city": "台北市",
      "district": "北投區",
      "lat": 25.118628,
      "lng": 121.5196538,
      "routes": [
        "128",
        "216",
        "223",
        "223繞駛青年社宅",
        "224",
        "277",
        "508",
        "508區(三重)",
        "508區(三重一)",
        "508區(大)",
        "536",
        "536區",
        "583五林路口",
        "602大南天母發半趟",
        "602大南北投發半趟",
        "602中興天母發半趟",
        "602中興北投發半趟",
        "645",
        "645狗狗公車",
        "645副",
        "902",
        "小8",
        "小8區",
        "小36",
        "小36經中山",
        "內科13往內科",
        "內科13往天母",
        "內科15往內科",
        "內科15往天母",
        "南軟天母(往天母)",
        "南軟天母(往南軟)",
        "紅12",
        "紅19",
        "紅19經天母國中",
        "重慶幹線",
        "景美-榮總(快)",
        "F137三芝國中",
        "F317陽明醫院",
        "F317蘆洲區公所"
      ],
      "routeCount": 39,
      "routeSource": "gtfs",
      "routeUpdatedAt": "2026-06-14T16:43:39.469Z",
      "routeConfidence": "high"
    },
    {
      "id": 2459681640,
      "name": "榮總一",
      "type": "bus",
      "city": "台北市",
      "district": "北投區",
      "lat": 25.1188202,
      "lng": 121.5206434,
      "routes": [
        "224",
        "583榮總",
        "602大南天母發半趟",
        "602中興天母發半趟",
        "606",
        "645",
        "645狗狗公車",
        "645副",
        "902",
        "內科13往內科",
        "內科15往內科",
        "南軟天母(往南軟)",
        "紅12",
        "紅19",
        "紅19經天母國中",
        "重慶幹線",
        "敦化幹線",
        "F137士林新光醫院",
        "F317陽明醫院"
      ],
      "routeCount": 19,
      "routeSource": "gtfs",
      "routeUpdatedAt": "2026-06-14T16:43:39.469Z",
      "routeConfidence": "high"
    },
    {
      "id": 2459681645,
      "name": "振興公園",
      "type": "bus",
      "city": "台北市",
      "district": "北投區",
      "lat": 25.118673,
      "lng": 121.5235949
    },
    {
      "id": 2495743609,
      "name": "奇岩一站",
      "type": "bus",
      "city": "台北市",
      "district": "北投區",
      "lat": 25.1230144,
      "lng": 121.5045336,
      "routes": [
        "216",
        "602大南天母發半趟",
        "602大南北投發半趟",
        "602中興天母發半趟",
        "602中興北投發半趟",
        "小21",
        "小21經立農國小一"
      ],
      "routeCount": 7,
      "routeSource": "gtfs",
      "routeUpdatedAt": "2026-06-14T16:43:39.470Z",
      "routeConfidence": "high"
    },
    {
      "id": 2520691052,
      "name": "石門",
      "type": "bus",
      "city": "台北市",
      "district": "北投區",
      "lat": 25.1293789,
      "lng": 121.505604,
      "routes": [
        "216",
        "602大南天母發半趟",
        "602大南北投發半趟",
        "602中興天母發半趟",
        "602中興北投發半趟",
        "小14",
        "小21",
        "小21經立農國小一"
      ],
      "routeCount": 8,
      "routeSource": "gtfs",
      "routeUpdatedAt": "2026-06-14T16:43:39.470Z",
      "routeConfidence": "high"
    },
    {
      "id": 2618845281,
      "name": "福德里",
      "type": "bus",
      "city": "台北市",
      "district": "北投區",
      "lat": 25.1261247,
      "lng": 121.4652836
    },
    {
      "id": 2622759177,
      "name": "明山宮一",
      "type": "bus",
      "city": "台北市",
      "district": "北投區",
      "lat": 25.1287739,
      "lng": 121.5286932
    },
    {
      "id": 2622759178,
      "name": "明山宮",
      "type": "bus",
      "city": "台北市",
      "district": "北投區",
      "lat": 25.1278942,
      "lng": 121.5290998,
      "routes": [
        "128",
        "508",
        "508區(三重)",
        "508區(三重一)",
        "508區(大)",
        "536",
        "612",
        "小8",
        "小8區",
        "小36",
        "小36經中山",
        "通勤9"
      ],
      "routeCount": 12,
      "routeSource": "gtfs",
      "routeUpdatedAt": "2026-06-14T16:43:39.470Z",
      "routeConfidence": "high"
    },
    {
      "id": 2622761241,
      "name": "磺溪",
      "type": "bus",
      "city": "台北市",
      "district": "北投區",
      "lat": 25.1259031,
      "lng": 121.5276226,
      "routes": [
        "通勤9"
      ],
      "routeCount": 1,
      "routeSource": "gtfs",
      "routeUpdatedAt": "2026-06-14T15:08:25.444Z",
      "routeConfidence": "high"
    },
    {
      "id": 2622762478,
      "name": "福德廟(行義)",
      "type": "bus",
      "city": "台北市",
      "district": "北投區",
      "lat": 25.1247619,
      "lng": 121.5263873,
      "routes": [
        "128",
        "224",
        "268",
        "508",
        "508區(三重)",
        "508區(三重一)",
        "508區(大)",
        "536",
        "602大南天母發半趟",
        "602大南北投發半趟",
        "602中興天母發半趟",
        "602中興北投發半趟",
        "612",
        "小8",
        "小8區",
        "小36",
        "小36經中山",
        "重慶幹線",
        "通勤9"
      ],
      "routeCount": 19,
      "routeSource": "gtfs",
      "routeUpdatedAt": "2026-06-14T16:43:39.471Z",
      "routeConfidence": "high"
    },
    {
      "id": 2622762946,
      "name": "福德廟 (石牌)",
      "type": "bus",
      "city": "台北市",
      "district": "北投區",
      "lat": 25.1236131,
      "lng": 121.5253285,
      "routes": [
        "128",
        "224",
        "268",
        "508",
        "508區(三重)",
        "508區(三重一)",
        "508區(大)",
        "536",
        "602大南天母發半趟",
        "602大南北投發半趟",
        "602中興天母發半趟",
        "602中興北投發半趟",
        "612",
        "小8",
        "小8區",
        "小36",
        "小36經中山",
        "重慶幹線",
        "通勤9"
      ],
      "routeCount": 19,
      "routeSource": "gtfs",
      "routeUpdatedAt": "2026-06-14T16:43:39.471Z",
      "routeConfidence": "high"
    },
    {
      "id": 2626986710,
      "name": "製片廠",
      "type": "bus",
      "city": "台北市",
      "district": "北投區",
      "lat": 25.1384174,
      "lng": 121.4877821,
      "routes": [
        "223",
        "223繞駛青年社宅",
        "302狗狗公車",
        "302區",
        "302區狗狗公車",
        "302路",
        "308",
        "550",
        "682",
        "821",
        "864",
        "小23"
      ],
      "routeCount": 12,
      "routeSource": "gtfs",
      "routeUpdatedAt": "2026-06-14T16:43:39.471Z",
      "routeConfidence": "high"
    },
    {
      "id": 2686013807,
      "name": "聯勤陽明山招待所",
      "type": "bus",
      "city": "台北市",
      "district": "北投區",
      "lat": 25.1481148,
      "lng": 121.5491523,
      "routes": [
        "109",
        "111",
        "111去程半",
        "111返程半",
        "260往東園",
        "260往陽明山",
        "260區",
        "260區往陽明山",
        "303區經陽明山",
        "303經陽明山",
        "681往東湖",
        "681往東湖狗狗公車",
        "681往陽明山",
        "681往陽明山狗狗公車",
        "1717(金山郵局發不經捷運劍潭站不經小油坑服務站)",
        "1717(金山郵局發不經捷運劍潭站經小油坑服務站)",
        "1717(捷運台大醫院站發不經捷運劍潭站不經小油坑服務站)",
        "1717(捷運台大醫院站發不經捷運劍潭站經小油坑服務站)",
        "1717(捷運台大醫院站發經捷運劍潭站不經小油坑服務站)",
        "1717(捷運台大醫院站發經捷運劍潭站經小油坑服務站)",
        "紅5",
        "紅5往陽明山經文大",
        "紅5往劍潭經文大"
      ],
      "routeCount": 23,
      "routeSource": "gtfs",
      "routeUpdatedAt": "2026-06-14T16:43:39.472Z",
      "routeConfidence": "high"
    },
    {
      "id": 2686065529,
      "name": "教師中心",
      "type": "bus",
      "city": "台北市",
      "district": "北投區",
      "lat": 25.1497095,
      "lng": 121.5494413,
      "routes": [
        "109",
        "111",
        "111去程半",
        "111返程半",
        "128",
        "230",
        "260往東園",
        "260往陽明山",
        "260區",
        "260區往陽明山",
        "303區經陽明山",
        "303經陽明山",
        "681往東湖",
        "681往東湖狗狗公車",
        "681往陽明山",
        "681往陽明山狗狗公車",
        "1717(金山郵局發不經捷運劍潭站不經小油坑服務站)",
        "1717(金山郵局發不經捷運劍潭站經小油坑服務站)",
        "1717(捷運台大醫院站發不經捷運劍潭站不經小油坑服務站)",
        "1717(捷運台大醫院站發不經捷運劍潭站經小油坑服務站)",
        "1717(捷運台大醫院站發經捷運劍潭站不經小油坑服務站)",
        "1717(捷運台大醫院站發經捷運劍潭站經小油坑服務站)",
        "紅5",
        "紅5往陽明山經文大",
        "紅5往劍潭經文大"
      ],
      "routeCount": 25,
      "routeSource": "gtfs",
      "routeUpdatedAt": "2026-06-14T16:43:39.472Z",
      "routeConfidence": "high"
    },
    {
      "id": 2686067240,
      "name": "紗帽陽明路口",
      "type": "bus",
      "city": "台北市",
      "district": "北投區",
      "lat": 25.1491522,
      "lng": 121.5487953,
      "routes": [
        "303區經陽明山",
        "303經陽明山"
      ],
      "routeCount": 2,
      "routeSource": "gtfs",
      "routeUpdatedAt": "2026-06-14T16:43:39.472Z",
      "routeConfidence": "high"
    },
    {
      "id": 2686068390,
      "name": "教師中心",
      "type": "bus",
      "city": "台北市",
      "district": "北投區",
      "lat": 25.1501156,
      "lng": 121.5479162,
      "routes": [
        "111返程半",
        "230",
        "260往東園",
        "260區",
        "303區經陽明山",
        "303經陽明山",
        "681往東湖",
        "681往東湖狗狗公車",
        "1717(金山郵局發不經捷運劍潭站不經小油坑服務站)",
        "1717(金山郵局發不經捷運劍潭站經小油坑服務站)",
        "紅5",
        "紅5往劍潭經文大"
      ],
      "routeCount": 12,
      "routeSource": "gtfs",
      "routeUpdatedAt": "2026-06-14T16:43:39.473Z",
      "routeConfidence": "high"
    },
    {
      "id": 2686068392,
      "name": "陽明山",
      "type": "bus",
      "city": "台北市",
      "district": "北投區",
      "lat": 25.1523739,
      "lng": 121.5473764,
      "routes": [
        "109",
        "111",
        "111去程半",
        "111返程半",
        "128",
        "129",
        "230",
        "260往東園",
        "260往陽明山",
        "260區",
        "260區往陽明山",
        "303區經陽明山",
        "303經陽明山",
        "681往東湖",
        "681往東湖狗狗公車",
        "681往陽明山",
        "681往陽明山狗狗公車",
        "1717(金山郵局發不經捷運劍潭站不經小油坑服務站)",
        "1717(金山郵局發不經捷運劍潭站經小油坑服務站)",
        "1717(捷運台大醫院站發不經捷運劍潭站不經小油坑服務站)",
        "1717(捷運台大醫院站發不經捷運劍潭站經小油坑服務站)",
        "1717(捷運台大醫院站發經捷運劍潭站不經小油坑服務站)",
        "1717(捷運台大醫院站發經捷運劍潭站經小油坑服務站)",
        "小8",
        "小9",
        "小9區",
        "紅5",
        "紅5往陽明山經文大",
        "紅5往劍潭經文大"
      ],
      "routeCount": 29,
      "routeSource": "gtfs",
      "routeUpdatedAt": "2026-06-14T16:43:39.473Z",
      "routeConfidence": "high"
    },
    {
      "id": 2686069343,
      "name": "中山樓",
      "type": "bus",
      "city": "台北市",
      "district": "北投區",
      "lat": 25.1512455,
      "lng": 121.5496877,
      "routes": [
        "109",
        "111",
        "111去程半",
        "111返程半",
        "128",
        "230",
        "260往東園",
        "260往陽明山",
        "260區",
        "260區往陽明山",
        "303區經陽明山",
        "303經陽明山",
        "681往東湖",
        "681往東湖狗狗公車",
        "681往陽明山",
        "681往陽明山狗狗公車",
        "1717(金山郵局發不經捷運劍潭站不經小油坑服務站)",
        "1717(金山郵局發不經捷運劍潭站經小油坑服務站)",
        "1717(捷運台大醫院站發不經捷運劍潭站不經小油坑服務站)",
        "1717(捷運台大醫院站發不經捷運劍潭站經小油坑服務站)",
        "1717(捷運台大醫院站發經捷運劍潭站不經小油坑服務站)",
        "1717(捷運台大醫院站發經捷運劍潭站經小油坑服務站)",
        "紅5",
        "紅5往陽明山經文大",
        "紅5往劍潭經文大"
      ],
      "routeCount": 25,
      "routeSource": "gtfs",
      "routeUpdatedAt": "2026-06-14T16:43:39.474Z",
      "routeConfidence": "high"
    },
    {
      "id": 2686831922,
      "name": "陽明山國家公園管理處",
      "type": "bus",
      "city": "台北市",
      "district": "北投區",
      "lat": 25.1546412,
      "lng": 121.5449984
    },
    {
      "id": 2697539483,
      "name": "陽明山總站",
      "type": "bus",
      "city": "台北市",
      "district": "北投區",
      "lat": 25.1514058,
      "lng": 121.5460855,
      "routes": [
        "108",
        "108區",
        "260往東園",
        "260往陽明山",
        "260區",
        "260區往陽明山",
        "花季專車124",
        "花季專車131",
        "紅5",
        "紅5往陽明山經文大",
        "紅5往劍潭經文大"
      ],
      "routeCount": 11,
      "routeSource": "gtfs",
      "routeUpdatedAt": "2026-06-14T16:43:39.474Z",
      "routeConfidence": "high"
    },
    {
      "id": 2705314770,
      "name": "榮總",
      "type": "bus",
      "city": "台北市",
      "district": "北投區",
      "lat": 25.118425,
      "lng": 121.5179364,
      "routes": [
        "128",
        "216",
        "223",
        "223繞駛青年社宅",
        "224",
        "277",
        "508",
        "508區(三重)",
        "508區(三重一)",
        "508區(大)",
        "536",
        "536區",
        "583五林路口",
        "602大南天母發半趟",
        "602大南北投發半趟",
        "602中興天母發半趟",
        "602中興北投發半趟",
        "645",
        "645狗狗公車",
        "645副",
        "902",
        "小8",
        "小8區",
        "小36",
        "小36經中山",
        "內科13往內科",
        "內科13往天母",
        "內科15往內科",
        "內科15往天母",
        "南軟天母(往天母)",
        "南軟天母(往南軟)",
        "紅12",
        "紅19",
        "紅19經天母國中",
        "重慶幹線",
        "景美-榮總(快)",
        "F137三芝國中",
        "F317陽明醫院",
        "F317蘆洲區公所"
      ],
      "routeCount": 39,
      "routeSource": "gtfs",
      "routeUpdatedAt": "2026-06-14T16:43:39.475Z",
      "routeConfidence": "high"
    },
    {
      "id": 2705316086,
      "name": "永明派出所",
      "type": "bus",
      "city": "台北市",
      "district": "北投區",
      "lat": 25.1173803,
      "lng": 121.5165863,
      "routes": [
        "128",
        "216",
        "223",
        "223繞駛青年社宅",
        "224",
        "277",
        "508",
        "508區(三重)",
        "508區(三重一)",
        "508區(大)",
        "536",
        "536區",
        "602大南天母發半趟",
        "602大南北投發半趟",
        "602中興天母發半趟",
        "602中興北投發半趟",
        "645",
        "645狗狗公車",
        "645副",
        "902",
        "小8",
        "小8區",
        "小36",
        "小36經中山",
        "內科13往內科",
        "內科13往天母",
        "內科15往內科",
        "內科15往天母",
        "南軟天母(往天母)",
        "南軟天母(往南軟)",
        "紅12",
        "紅19",
        "紅19經天母國中",
        "重慶幹線"
      ],
      "routeCount": 34,
      "routeSource": "gtfs",
      "routeUpdatedAt": "2026-06-14T16:43:39.475Z",
      "routeConfidence": "high"
    },
    {
      "id": 2705324688,
      "name": "綜合市場",
      "type": "bus",
      "city": "台北市",
      "district": "北投區",
      "lat": 25.1159494,
      "lng": 121.5155418,
      "routes": [
        "216",
        "223",
        "223繞駛青年社宅",
        "224",
        "277",
        "508",
        "508區(三重)",
        "508區(三重一)",
        "508區(大)",
        "536",
        "536區",
        "559路",
        "559繞駛男女五舍",
        "602大南天母發半趟",
        "602大南北投發半趟",
        "602中興天母發半趟",
        "602中興北投發半趟",
        "645",
        "645狗狗公車",
        "645副",
        "902",
        "小8",
        "小8區",
        "小36",
        "小36經中山",
        "內科13往內科",
        "內科13往天母",
        "內科15往內科",
        "內科15往天母",
        "南軟天母(往天母)",
        "南軟天母(往南軟)",
        "紅12",
        "紅19",
        "紅19經天母國中",
        "重慶幹線",
        "景美-榮總(快)"
      ],
      "routeCount": 36,
      "routeSource": "gtfs",
      "routeUpdatedAt": "2026-06-14T16:43:39.476Z",
      "routeConfidence": "high"
    },
    {
      "id": 2705327511,
      "name": "捷運石牌站(東華)",
      "type": "bus",
      "city": "台北市",
      "district": "北投區",
      "lat": 25.1148675,
      "lng": 121.5156837,
      "routes": [
        "128",
        "224",
        "508",
        "508區(三重)",
        "508區(三重一)",
        "508區(大)",
        "536",
        "536區",
        "645",
        "645狗狗公車",
        "645副",
        "902",
        "小8",
        "小8區",
        "小36",
        "小36經中山",
        "內科16往內科",
        "內科16往北投",
        "紅12",
        "紅19",
        "紅19經天母國中",
        "重慶幹線"
      ],
      "routeCount": 22,
      "routeSource": "gtfs",
      "routeUpdatedAt": "2026-06-14T16:43:39.477Z",
      "routeConfidence": "high"
    },
    {
      "id": 2705368409,
      "name": "榮光新村(榮總東院)",
      "type": "bus",
      "city": "台北市",
      "district": "北投區",
      "lat": 25.1205266,
      "lng": 121.5228073,
      "routes": [
        "128",
        "224",
        "268",
        "508",
        "508區(三重)",
        "508區(三重一)",
        "508區(大)",
        "536",
        "602大南天母發半趟",
        "602大南北投發半趟",
        "602中興天母發半趟",
        "602中興北投發半趟",
        "小8",
        "小8區",
        "小36",
        "小36經中山",
        "重慶幹線"
      ],
      "routeCount": 17,
      "routeSource": "gtfs",
      "routeUpdatedAt": "2026-06-14T16:43:39.477Z",
      "routeConfidence": "high"
    },
    {
      "id": 2705372588,
      "name": "永欣里",
      "type": "bus",
      "city": "台北市",
      "district": "北投區",
      "lat": 25.1222264,
      "lng": 121.5239938,
      "routes": [
        "128",
        "224",
        "268",
        "508",
        "508區(三重)",
        "508區(三重一)",
        "508區(大)",
        "536",
        "602大南天母發半趟",
        "602大南北投發半趟",
        "602中興天母發半趟",
        "602中興北投發半趟",
        "小8",
        "小8區",
        "小36",
        "小36經中山",
        "重慶幹線"
      ],
      "routeCount": 17,
      "routeSource": "gtfs",
      "routeUpdatedAt": "2026-06-14T16:43:39.477Z",
      "routeConfidence": "high"
    },
    {
      "id": 2706257574,
      "name": "石牌國小",
      "type": "bus",
      "city": "台北市",
      "district": "北投區",
      "lat": 25.1143022,
      "lng": 121.5131743,
      "routes": [
        "277",
        "550",
        "682",
        "內科13往內科",
        "內科13往天母",
        "內科15往內科",
        "內科15往天母",
        "南軟天母(往天母)",
        "南軟天母(往南軟)",
        "重慶幹線"
      ],
      "routeCount": 10,
      "routeSource": "gtfs",
      "routeUpdatedAt": "2026-06-14T16:43:39.477Z",
      "routeConfidence": "high"
    },
    {
      "id": 2706266518,
      "name": "石牌路",
      "type": "bus",
      "city": "台北市",
      "district": "北投區",
      "lat": 25.1134184,
      "lng": 121.5110733,
      "routes": [
        "277",
        "550",
        "682",
        "內科13往內科",
        "內科13往天母",
        "內科15往內科",
        "內科15往天母",
        "南軟天母(往天母)",
        "南軟天母(往南軟)",
        "重慶幹線"
      ],
      "routeCount": 10,
      "routeSource": "gtfs",
      "routeUpdatedAt": "2026-06-14T16:43:39.478Z",
      "routeConfidence": "high"
    },
    {
      "id": 2706266521,
      "name": "石牌",
      "type": "bus",
      "city": "台北市",
      "district": "北投區",
      "lat": 25.109485,
      "lng": 121.5123751,
      "routes": [
        "218",
        "277",
        "302狗狗公車",
        "302區",
        "302區狗狗公車",
        "302路",
        "308",
        "821",
        "864",
        "內科13往內科",
        "內科13往天母",
        "內科15往內科",
        "內科15往天母",
        "承德幹線",
        "南軟天母(往天母)",
        "南軟天母(往南軟)",
        "南軟北投(往北投)",
        "南軟北投(往南軟)",
        "重慶幹線",
        "通勤27去程半",
        "通勤27返程半"
      ],
      "routeCount": 21,
      "routeSource": "gtfs",
      "routeUpdatedAt": "2026-06-14T16:43:39.478Z",
      "routeConfidence": "high"
    },
    {
      "id": 2706291116,
      "name": "文林國小",
      "type": "bus",
      "city": "台北市",
      "district": "北投區",
      "lat": 25.1070808,
      "lng": 121.5150915,
      "routes": [
        "218",
        "277",
        "302狗狗公車",
        "302區",
        "302區狗狗公車",
        "302路",
        "308",
        "821",
        "864",
        "內科13往內科",
        "內科13往天母",
        "內科15往內科",
        "內科15往天母",
        "承德幹線",
        "南軟天母(往天母)",
        "南軟天母(往南軟)",
        "南軟北投(往北投)",
        "南軟北投(往南軟)",
        "重慶幹線",
        "通勤27去程半",
        "通勤27返程半"
      ],
      "routeCount": 21,
      "routeSource": "gtfs",
      "routeUpdatedAt": "2026-06-14T16:43:39.478Z",
      "routeConfidence": "high"
    },
    {
      "id": 2706291118,
      "name": "中正高中",
      "type": "bus",
      "city": "台北市",
      "district": "北投區",
      "lat": 25.1049776,
      "lng": 121.517877,
      "routes": [
        "218",
        "223",
        "223繞駛青年社宅",
        "267路",
        "277",
        "302狗狗公車",
        "302區",
        "302區狗狗公車",
        "302路",
        "308",
        "508",
        "508區(三重)",
        "508區(三重一)",
        "508區(大)",
        "536",
        "536區",
        "821",
        "864",
        "內科13往內科",
        "內科13往天母",
        "內科15往內科",
        "內科15往天母",
        "內科16往內科",
        "內科16往北投",
        "承德幹線",
        "南軟天母(往天母)",
        "南軟天母(往南軟)",
        "南軟北投(往北投)",
        "南軟北投(往南軟)",
        "重慶幹線",
        "通勤27去程半",
        "通勤27返程半",
        "蘆洲-中正高中"
      ],
      "routeCount": 33,
      "routeSource": "gtfs",
      "routeUpdatedAt": "2026-06-14T16:43:39.479Z",
      "routeConfidence": "high"
    },
    {
      "id": 2711808350,
      "name": "義理街口",
      "type": "bus",
      "city": "台北市",
      "district": "北投區",
      "lat": 25.1160554,
      "lng": 121.514783,
      "routes": [
        "559路",
        "559繞駛男女五舍",
        "602大南天母發半趟",
        "602中興天母發半趟",
        "內科16往北投"
      ],
      "routeCount": 5,
      "routeSource": "gtfs",
      "routeUpdatedAt": "2026-06-14T16:43:39.479Z",
      "routeConfidence": "high"
    },
    {
      "id": 2711808351,
      "name": "石牌國中",
      "type": "bus",
      "city": "台北市",
      "district": "北投區",
      "lat": 25.1166803,
      "lng": 121.5136853,
      "routes": [
        "216",
        "223",
        "223繞駛青年社宅",
        "550",
        "602大南北投發半趟",
        "602中興北投發半趟",
        "682",
        "內科16往內科"
      ],
      "routeCount": 8,
      "routeSource": "gtfs",
      "routeUpdatedAt": "2026-06-14T16:43:39.479Z",
      "routeConfidence": "high"
    },
    {
      "id": 2711809315,
      "name": "陽明大學(東華)",
      "type": "bus",
      "city": "台北市",
      "district": "北投區",
      "lat": 25.1196679,
      "lng": 121.5119851
    },
    {
      "id": 2711812475,
      "name": "健行新村(東華)",
      "type": "bus",
      "city": "台北市",
      "district": "北投區",
      "lat": 25.1205289,
      "lng": 121.5091681,
      "routes": [
        "216",
        "223",
        "223繞駛青年社宅",
        "550",
        "602大南天母發半趟",
        "602大南北投發半趟",
        "602中興天母發半趟",
        "602中興北投發半趟",
        "682",
        "內科16往內科",
        "內科16往北投"
      ],
      "routeCount": 11,
      "routeSource": "gtfs",
      "routeUpdatedAt": "2026-06-14T16:43:39.480Z",
      "routeConfidence": "high"
    },
    {
      "id": 2711812483,
      "name": "捷運唭哩岸站一(東華)",
      "type": "bus",
      "city": "台北市",
      "district": "北投區",
      "lat": 25.1208509,
      "lng": 121.5074799,
      "routes": [
        "216",
        "223",
        "223繞駛青年社宅",
        "550",
        "602大南天母發半趟",
        "602大南北投發半趟",
        "602中興天母發半趟",
        "602中興北投發半趟",
        "682",
        "小21",
        "小21經立農國小一",
        "內科16往內科",
        "內科16往北投"
      ],
      "routeCount": 13,
      "routeSource": "gtfs",
      "routeUpdatedAt": "2026-06-14T16:43:39.480Z",
      "routeConfidence": "high"
    },
    {
      "id": 2711813160,
      "name": "捷運唭哩岸站二(西安)",
      "type": "bus",
      "city": "台北市",
      "district": "北投區",
      "lat": 25.1209038,
      "lng": 121.5042415,
      "routes": [
        "216",
        "223",
        "223繞駛青年社宅",
        "550",
        "602大南天母發半趟",
        "602大南北投發半趟",
        "602中興天母發半趟",
        "602中興北投發半趟",
        "682",
        "小21",
        "小21經立農國小一",
        "內科16往內科",
        "內科16往北投"
      ],
      "routeCount": 13,
      "routeSource": "gtfs",
      "routeUpdatedAt": "2026-06-14T16:43:39.480Z",
      "routeConfidence": "high"
    },
    {
      "id": 2711851620,
      "name": "清江國小",
      "type": "bus",
      "city": "台北市",
      "district": "北投區",
      "lat": 25.1272862,
      "lng": 121.507648,
      "routes": [
        "216",
        "602大南天母發半趟",
        "602大南北投發半趟",
        "602中興天母發半趟",
        "602中興北投發半趟",
        "小14",
        "小21",
        "小21經立農國小一"
      ],
      "routeCount": 8,
      "routeSource": "gtfs",
      "routeUpdatedAt": "2026-06-14T16:43:39.480Z",
      "routeConfidence": "high"
    },
    {
      "id": 2711851624,
      "name": "福安宮",
      "type": "bus",
      "city": "台北市",
      "district": "北投區",
      "lat": 25.1306571,
      "lng": 121.504592,
      "routes": [
        "216",
        "602大南天母發半趟",
        "602大南北投發半趟",
        "602中興天母發半趟",
        "602中興北投發半趟",
        "小14",
        "小21",
        "小21經立農國小一"
      ],
      "routeCount": 8,
      "routeSource": "gtfs",
      "routeUpdatedAt": "2026-06-14T16:43:39.480Z",
      "routeConfidence": "high"
    },
    {
      "id": 2711863045,
      "name": "北投市場(公館)",
      "type": "bus",
      "city": "台北市",
      "district": "北投區",
      "lat": 25.1326658,
      "lng": 121.5036822,
      "routes": [
        "216",
        "602大南天母發半趟",
        "602大南北投發半趟",
        "602中興天母發半趟",
        "602中興北投發半趟",
        "小14",
        "小21",
        "小21經立農國小一",
        "市民小巴2"
      ],
      "routeCount": 9,
      "routeSource": "gtfs",
      "routeUpdatedAt": "2026-06-14T16:43:39.480Z",
      "routeConfidence": "high"
    },
    {
      "id": 2711866854,
      "name": "第一銀行",
      "type": "bus",
      "city": "台北市",
      "district": "北投區",
      "lat": 25.1346444,
      "lng": 121.5023756,
      "routes": [
        "129",
        "216",
        "218",
        "218直",
        "218區",
        "223",
        "223繞駛青年社宅",
        "230",
        "602大南天母發半趟",
        "602大南北投發半趟",
        "602中興天母發半趟",
        "602中興北投發半趟",
        "小6不經永春橋",
        "小6經永春橋",
        "小7",
        "小7經惇敘工商",
        "小7經新民路",
        "小7經嶺腳珠海路",
        "小9",
        "小9區",
        "小22",
        "小25",
        "小25經馬場",
        "小26",
        "內科16往內科",
        "內科16往北投",
        "承德幹線",
        "南軟北投(往北投)",
        "南軟北投(往南軟)",
        "通勤27去程半",
        "通勤27返程半"
      ],
      "routeCount": 31,
      "routeSource": "gtfs",
      "routeUpdatedAt": "2026-06-14T16:43:39.481Z",
      "routeConfidence": "high"
    },
    {
      "id": 2711868648,
      "name": "北投公園",
      "type": "bus",
      "city": "台北市",
      "district": "北投區",
      "lat": 25.1363126,
      "lng": 121.5041104,
      "routes": [
        "129",
        "216",
        "218",
        "218直",
        "218區",
        "223",
        "223繞駛青年社宅",
        "230",
        "602大南天母發半趟",
        "602大南北投發半趟",
        "602中興天母發半趟",
        "602中興北投發半趟",
        "小6不經永春橋",
        "小6經永春橋",
        "小7",
        "小7經惇敘工商",
        "小7經新民路",
        "小7經嶺腳珠海路",
        "小9",
        "小9區",
        "小22",
        "小26",
        "內科16往內科",
        "內科16往北投",
        "承德幹線",
        "南軟北投(往北投)",
        "南軟北投(往南軟)",
        "通勤27去程半",
        "通勤27返程半"
      ],
      "routeCount": 29,
      "routeSource": "gtfs",
      "routeUpdatedAt": "2026-06-14T16:43:39.482Z",
      "routeConfidence": "high"
    },
    {
      "id": 2711876286,
      "name": "新北投",
      "type": "bus",
      "city": "台北市",
      "district": "北投區",
      "lat": 25.1378998,
      "lng": 121.5029969,
      "routes": [
        "129",
        "216",
        "218",
        "218直",
        "218區",
        "223",
        "223繞駛青年社宅",
        "230",
        "602大南天母發半趟",
        "602大南北投發半趟",
        "602中興天母發半趟",
        "602中興北投發半趟",
        "小6不經永春橋",
        "小6經永春橋",
        "小7",
        "小7經惇敘工商",
        "小7經新民路",
        "小7經嶺腳珠海路",
        "小9",
        "小9區",
        "小22",
        "小26",
        "小39",
        "內科16往內科",
        "內科16往北投",
        "承德幹線",
        "南軟北投(往北投)",
        "南軟北投(往南軟)",
        "通勤27去程半",
        "通勤27返程半"
      ],
      "routeCount": 30,
      "routeSource": "gtfs",
      "routeUpdatedAt": "2026-06-14T16:43:39.482Z",
      "routeConfidence": "high"
    },
    {
      "id": 2711876288,
      "name": "中和街",
      "type": "bus",
      "city": "台北市",
      "district": "北投區",
      "lat": 25.1391877,
      "lng": 121.5016756,
      "routes": [
        "216",
        "218",
        "218直",
        "218區",
        "223",
        "223繞駛青年社宅",
        "602大南天母發半趟",
        "602大南北投發半趟",
        "602中興天母發半趟",
        "602中興北投發半趟",
        "小6不經永春橋",
        "小6經永春橋",
        "內科16往內科",
        "內科16往北投",
        "承德幹線",
        "南軟北投(往北投)",
        "南軟北投(往南軟)",
        "通勤27去程半",
        "通勤27返程半"
      ],
      "routeCount": 19,
      "routeSource": "gtfs",
      "routeUpdatedAt": "2026-06-14T16:43:39.482Z",
      "routeConfidence": "high"
    },
    {
      "id": 2711886800,
      "name": "復興中學",
      "type": "bus",
      "city": "台北市",
      "district": "北投區",
      "lat": 25.1407838,
      "lng": 121.5000361,
      "routes": [
        "216",
        "218",
        "218直",
        "218區",
        "223",
        "223繞駛青年社宅",
        "602大南天母發半趟",
        "602大南北投發半趟",
        "602中興天母發半趟",
        "602中興北投發半趟",
        "小6不經永春橋",
        "小6經永春橋",
        "內科16往內科",
        "內科16往北投",
        "承德幹線",
        "南軟北投(往北投)",
        "南軟北投(往南軟)",
        "通勤27去程半",
        "通勤27返程半"
      ],
      "routeCount": 19,
      "routeSource": "gtfs",
      "routeUpdatedAt": "2026-06-14T16:43:39.483Z",
      "routeConfidence": "high"
    },
    {
      "id": 2711886802,
      "name": "中和里",
      "type": "bus",
      "city": "台北市",
      "district": "北投區",
      "lat": 25.1421965,
      "lng": 121.4988083,
      "routes": [
        "216",
        "218",
        "218直",
        "218區",
        "223",
        "223繞駛青年社宅",
        "602大南天母發半趟",
        "602大南北投發半趟",
        "602中興天母發半趟",
        "602中興北投發半趟",
        "內科16往內科",
        "內科16往北投",
        "承德幹線",
        "南軟北投(往北投)",
        "南軟北投(往南軟)",
        "通勤27去程半",
        "通勤27返程半"
      ],
      "routeCount": 17,
      "routeSource": "gtfs",
      "routeUpdatedAt": "2026-06-14T16:43:39.483Z",
      "routeConfidence": "high"
    },
    {
      "id": 2711894599,
      "name": "國泰新村",
      "type": "bus",
      "city": "台北市",
      "district": "北投區",
      "lat": 25.1435436,
      "lng": 121.4981397,
      "routes": [
        "216",
        "218",
        "218直",
        "218區",
        "223",
        "223繞駛青年社宅",
        "602大南天母發半趟",
        "602大南北投發半趟",
        "602中興天母發半趟",
        "602中興北投發半趟",
        "內科16往內科",
        "內科16往北投",
        "承德幹線",
        "南軟北投(往北投)",
        "南軟北投(往南軟)",
        "通勤27去程半",
        "通勤27返程半"
      ],
      "routeCount": 17,
      "routeSource": "gtfs",
      "routeUpdatedAt": "2026-06-14T16:43:39.483Z",
      "routeConfidence": "high"
    },
    {
      "id": 2711894605,
      "name": "慈航寺",
      "type": "bus",
      "city": "台北市",
      "district": "北投區",
      "lat": 25.1448015,
      "lng": 121.4964929,
      "routes": [
        "216",
        "218",
        "218直",
        "218區",
        "223",
        "223繞駛青年社宅",
        "602大南天母發半趟",
        "602大南北投發半趟",
        "602中興天母發半趟",
        "602中興北投發半趟",
        "內科16往內科",
        "內科16往北投",
        "承德幹線",
        "南軟北投(往北投)",
        "南軟北投(往南軟)",
        "通勤27去程半",
        "通勤27返程半"
      ],
      "routeCount": 17,
      "routeSource": "gtfs",
      "routeUpdatedAt": "2026-06-14T16:43:39.484Z",
      "routeConfidence": "high"
    },
    {
      "id": 2711897958,
      "name": "秀山里",
      "type": "bus",
      "city": "台北市",
      "district": "北投區",
      "lat": 25.1452977,
      "lng": 121.4940899,
      "routes": [
        "216",
        "218",
        "218直",
        "218區",
        "223",
        "223繞駛青年社宅",
        "602大南天母發半趟",
        "602大南北投發半趟",
        "602中興天母發半趟",
        "602中興北投發半趟",
        "內科16往內科",
        "內科16往北投",
        "承德幹線",
        "南軟北投(往北投)",
        "南軟北投(往南軟)",
        "通勤27去程半",
        "通勤27返程半"
      ],
      "routeCount": 17,
      "routeSource": "gtfs",
      "routeUpdatedAt": "2026-06-14T16:43:39.484Z",
      "routeConfidence": "high"
    },
    {
      "id": 2711903624,
      "name": "貴子坑水土保持園區",
      "type": "bus",
      "city": "台北市",
      "district": "北投區",
      "lat": 25.1452093,
      "lng": 121.4926124,
      "routes": [
        "216",
        "218",
        "218直",
        "218區",
        "223",
        "223繞駛青年社宅",
        "602大南天母發半趟",
        "602大南北投發半趟",
        "602中興天母發半趟",
        "602中興北投發半趟",
        "內科16往內科",
        "內科16往北投",
        "承德幹線",
        "南軟北投(往北投)",
        "南軟北投(往南軟)",
        "通勤27去程半",
        "通勤27返程半"
      ],
      "routeCount": 17,
      "routeSource": "gtfs",
      "routeUpdatedAt": "2026-06-14T16:43:39.484Z",
      "routeConfidence": "high"
    },
    {
      "id": 2713486628,
      "name": "大同之家",
      "type": "bus",
      "city": "台北市",
      "district": "北投區",
      "lat": 25.1459403,
      "lng": 121.5230727,
      "routes": [
        "129",
        "508",
        "508區(三重)",
        "508區(三重一)",
        "508區(大)",
        "536",
        "612",
        "小7",
        "小7經惇敘工商",
        "小7經新民路",
        "小7經嶺腳珠海路",
        "小8",
        "小8區",
        "小9",
        "小9區",
        "小26",
        "小39"
      ],
      "routeCount": 17,
      "routeSource": "gtfs",
      "routeUpdatedAt": "2026-06-14T16:43:39.485Z",
      "routeConfidence": "high"
    },
    {
      "id": 2713488559,
      "name": "惇敘工商(行義)",
      "type": "bus",
      "city": "台北市",
      "district": "北投區",
      "lat": 25.1434835,
      "lng": 121.5272803,
      "routes": [
        "128",
        "230",
        "508",
        "508區(三重)",
        "508區(三重一)",
        "508區(大)",
        "536",
        "612",
        "小7經惇敘工商",
        "小8",
        "小8區",
        "小25",
        "小25經馬場",
        "小36",
        "小36經中山",
        "通勤9"
      ],
      "routeCount": 16,
      "routeSource": "gtfs",
      "routeUpdatedAt": "2026-06-14T16:43:39.485Z",
      "routeConfidence": "high"
    },
    {
      "id": 2713489169,
      "name": "行義路四",
      "type": "bus",
      "city": "台北市",
      "district": "北投區",
      "lat": 25.1402996,
      "lng": 121.5277104,
      "routes": [
        "通勤9"
      ],
      "routeCount": 1,
      "routeSource": "gtfs",
      "routeUpdatedAt": "2026-06-14T15:08:25.449Z",
      "routeConfidence": "high"
    },
    {
      "id": 2713489538,
      "name": "行義路三",
      "type": "bus",
      "city": "台北市",
      "district": "北投區",
      "lat": 25.1379245,
      "lng": 121.5282672,
      "routes": [
        "128",
        "508",
        "508區(三重)",
        "508區(三重一)",
        "508區(大)",
        "536",
        "612",
        "小8",
        "小8區",
        "小36",
        "小36經中山",
        "通勤9"
      ],
      "routeCount": 12,
      "routeSource": "gtfs",
      "routeUpdatedAt": "2026-06-14T16:43:39.485Z",
      "routeConfidence": "high"
    },
    {
      "id": 2713489739,
      "name": "行義路二",
      "type": "bus",
      "city": "台北市",
      "district": "北投區",
      "lat": 25.1364689,
      "lng": 121.5288439,
      "routes": [
        "128",
        "508",
        "508區(三重)",
        "508區(三重一)",
        "508區(大)",
        "536",
        "612",
        "小8",
        "小8區",
        "小36",
        "小36經中山",
        "通勤9"
      ],
      "routeCount": 12,
      "routeSource": "gtfs",
      "routeUpdatedAt": "2026-06-14T16:43:39.485Z",
      "routeConfidence": "high"
    },
    {
      "id": 2713490188,
      "name": "行義路一",
      "type": "bus",
      "city": "台北市",
      "district": "北投區",
      "lat": 25.1333389,
      "lng": 121.5286456,
      "routes": [
        "128",
        "508",
        "508區(三重)",
        "508區(三重一)",
        "508區(大)",
        "536",
        "612",
        "小8",
        "小8區",
        "小36",
        "小36經中山",
        "通勤9"
      ],
      "routeCount": 12,
      "routeSource": "gtfs",
      "routeUpdatedAt": "2026-06-14T16:43:39.485Z",
      "routeConfidence": "high"
    },
    {
      "id": 2713490191,
      "name": "行義路",
      "type": "bus",
      "city": "台北市",
      "district": "北投區",
      "lat": 25.1304449,
      "lng": 121.5280997,
      "routes": [
        "128",
        "508",
        "508區(三重)",
        "508區(三重一)",
        "508區(大)",
        "536",
        "612",
        "小8",
        "小8區",
        "小36",
        "小36經中山",
        "通勤9"
      ],
      "routeCount": 12,
      "routeSource": "gtfs",
      "routeUpdatedAt": "2026-06-14T16:43:39.485Z",
      "routeConfidence": "high"
    },
    {
      "id": 2714941493,
      "name": "振興醫院",
      "type": "bus",
      "city": "台北市",
      "district": "北投區",
      "lat": 25.1179268,
      "lng": 121.5222743,
      "routes": [
        "223",
        "223繞駛青年社宅",
        "267路",
        "1801",
        "F137三芝國中",
        "F137士林新光醫院",
        "F317陽明醫院",
        "F317蘆洲區公所"
      ],
      "routeCount": 8,
      "routeSource": "gtfs",
      "routeUpdatedAt": "2026-06-14T16:43:39.486Z",
      "routeConfidence": "high"
    },
    {
      "id": 2714943512,
      "name": "宏國新村",
      "type": "bus",
      "city": "台北市",
      "district": "北投區",
      "lat": 25.115496,
      "lng": 121.5203395,
      "routes": [
        "267路"
      ],
      "routeCount": 1,
      "routeSource": "gtfs",
      "routeUpdatedAt": "2026-06-14T15:08:25.450Z",
      "routeConfidence": "high"
    },
    {
      "id": 2714943514,
      "name": "明德路267巷口",
      "type": "bus",
      "city": "台北市",
      "district": "北投區",
      "lat": 25.1145678,
      "lng": 121.5224363,
      "routes": [
        "223",
        "223繞駛青年社宅",
        "267路"
      ],
      "routeCount": 3,
      "routeSource": "gtfs",
      "routeUpdatedAt": "2026-06-14T16:43:39.486Z",
      "routeConfidence": "high"
    },
    {
      "id": 2714944814,
      "name": "奎山國中",
      "type": "bus",
      "city": "台北市",
      "district": "北投區",
      "lat": 25.1123563,
      "lng": 121.5216704,
      "routes": [
        "223",
        "223繞駛青年社宅",
        "267路",
        "1801"
      ],
      "routeCount": 4,
      "routeSource": "gtfs",
      "routeUpdatedAt": "2026-06-14T16:43:39.486Z",
      "routeConfidence": "high"
    },
    {
      "id": 2714944930,
      "name": "明德路",
      "type": "bus",
      "city": "台北市",
      "district": "北投區",
      "lat": 25.1104555,
      "lng": 121.5207154,
      "routes": [
        "223",
        "223繞駛青年社宅",
        "267路"
      ],
      "routeCount": 3,
      "routeSource": "gtfs",
      "routeUpdatedAt": "2026-06-14T16:43:39.486Z",
      "routeConfidence": "high"
    },
    {
      "id": 2714945927,
      "name": "明德國中",
      "type": "bus",
      "city": "台北市",
      "district": "北投區",
      "lat": 25.1076962,
      "lng": 121.5180512,
      "routes": [
        "223",
        "223繞駛青年社宅",
        "267路",
        "508",
        "508區(三重)",
        "508區(三重一)",
        "508區(大)",
        "536",
        "536區",
        "1801",
        "內科16往內科",
        "內科16往北投"
      ],
      "routeCount": 12,
      "routeSource": "gtfs",
      "routeUpdatedAt": "2026-06-14T16:43:39.486Z",
      "routeConfidence": "high"
    },
    {
      "id": 2949195311,
      "name": "百拉卡公路入口",
      "type": "bus",
      "city": "台北市",
      "district": "北投區",
      "lat": 25.17974,
      "lng": 121.5429703,
      "routes": [
        "108",
        "108區",
        "1717(金山郵局發不經捷運劍潭站不經小油坑服務站)",
        "1717(金山郵局發不經捷運劍潭站經小油坑服務站)",
        "1717(捷運台大醫院站發不經捷運劍潭站不經小油坑服務站)",
        "1717(捷運台大醫院站發不經捷運劍潭站經小油坑服務站)",
        "1717(捷運台大醫院站發經捷運劍潭站不經小油坑服務站)",
        "1717(捷運台大醫院站發經捷運劍潭站經小油坑服務站)",
        "花季專車124"
      ],
      "routeCount": 9,
      "routeSource": "gtfs",
      "routeUpdatedAt": "2026-06-14T16:43:39.486Z",
      "routeConfidence": "high"
    },
    {
      "id": 2949195313,
      "name": "夢幻湖",
      "type": "bus",
      "city": "台北市",
      "district": "北投區",
      "lat": 25.1717925,
      "lng": 121.5595996,
      "routes": [
        "108"
      ],
      "routeCount": 1,
      "routeSource": "gtfs",
      "routeUpdatedAt": "2026-06-14T15:08:25.450Z",
      "routeConfidence": "high"
    },
    {
      "id": 2949195314,
      "name": "夢幻湖停車場",
      "type": "bus",
      "city": "台北市",
      "district": "北投區",
      "lat": 25.1690931,
      "lng": 121.5624654,
      "routes": [
        "108"
      ],
      "routeCount": 1,
      "routeSource": "gtfs",
      "routeUpdatedAt": "2026-06-14T15:08:25.450Z",
      "routeConfidence": "high"
    },
    {
      "id": 2949195374,
      "name": "陽明山國家公園管理處",
      "type": "bus",
      "city": "台北市",
      "district": "北投區",
      "lat": 25.1553691,
      "lng": 121.5460265,
      "routes": [
        "108",
        "108區",
        "128",
        "129",
        "681往陽明山",
        "681往陽明山狗狗公車",
        "1717(金山郵局發不經捷運劍潭站不經小油坑服務站)",
        "1717(金山郵局發不經捷運劍潭站經小油坑服務站)",
        "1717(捷運台大醫院站發不經捷運劍潭站不經小油坑服務站)",
        "1717(捷運台大醫院站發不經捷運劍潭站經小油坑服務站)",
        "1717(捷運台大醫院站發經捷運劍潭站不經小油坑服務站)",
        "1717(捷運台大醫院站發經捷運劍潭站經小油坑服務站)",
        "小8",
        "小9",
        "花季專車124",
        "花季專車131"
      ],
      "routeCount": 16,
      "routeSource": "gtfs",
      "routeUpdatedAt": "2026-06-14T16:43:39.487Z",
      "routeConfidence": "high"
    },
    {
      "id": 2949195376,
      "name": "磺仔外",
      "type": "bus",
      "city": "台北市",
      "district": "北投區",
      "lat": 25.1606272,
      "lng": 121.5453801,
      "routes": [
        "108",
        "108區",
        "129",
        "小8",
        "小9",
        "花季專車124"
      ],
      "routeCount": 6,
      "routeSource": "gtfs",
      "routeUpdatedAt": "2026-06-14T16:43:39.487Z",
      "routeConfidence": "high"
    },
    {
      "id": 2949195377,
      "name": "陽明書屋",
      "type": "bus",
      "city": "台北市",
      "district": "北投區",
      "lat": 25.1630576,
      "lng": 121.544852,
      "routes": [
        "108",
        "108區",
        "129",
        "1717(金山郵局發不經捷運劍潭站不經小油坑服務站)",
        "1717(金山郵局發不經捷運劍潭站經小油坑服務站)",
        "1717(捷運台大醫院站發不經捷運劍潭站不經小油坑服務站)",
        "1717(捷運台大醫院站發不經捷運劍潭站經小油坑服務站)",
        "1717(捷運台大醫院站發經捷運劍潭站不經小油坑服務站)",
        "1717(捷運台大醫院站發經捷運劍潭站經小油坑服務站)",
        "小8",
        "小9",
        "花季專車124"
      ],
      "routeCount": 12,
      "routeSource": "gtfs",
      "routeUpdatedAt": "2026-06-14T16:43:39.487Z",
      "routeConfidence": "high"
    },
    {
      "id": 2949195379,
      "name": "竹子湖派出所",
      "type": "bus",
      "city": "台北市",
      "district": "北投區",
      "lat": 25.1672454,
      "lng": 121.5403759,
      "routes": [
        "108",
        "108區",
        "128",
        "129",
        "1717(金山郵局發不經捷運劍潭站不經小油坑服務站)",
        "1717(金山郵局發不經捷運劍潭站經小油坑服務站)",
        "1717(捷運台大醫院站發不經捷運劍潭站不經小油坑服務站)",
        "1717(捷運台大醫院站發不經捷運劍潭站經小油坑服務站)",
        "1717(捷運台大醫院站發經捷運劍潭站不經小油坑服務站)",
        "1717(捷運台大醫院站發經捷運劍潭站經小油坑服務站)",
        "小8",
        "小9",
        "花季專車124",
        "花季專車131"
      ],
      "routeCount": 14,
      "routeSource": "gtfs",
      "routeUpdatedAt": "2026-06-14T16:43:39.487Z",
      "routeConfidence": "high"
    },
    {
      "id": 2949195381,
      "name": "頂湖山",
      "type": "bus",
      "city": "台北市",
      "district": "北投區",
      "lat": 25.1734443,
      "lng": 121.5407159,
      "routes": [
        "108",
        "108區",
        "1717(金山郵局發不經捷運劍潭站不經小油坑服務站)",
        "1717(金山郵局發不經捷運劍潭站經小油坑服務站)",
        "1717(捷運台大醫院站發不經捷運劍潭站不經小油坑服務站)",
        "1717(捷運台大醫院站發不經捷運劍潭站經小油坑服務站)",
        "1717(捷運台大醫院站發經捷運劍潭站不經小油坑服務站)",
        "1717(捷運台大醫院站發經捷運劍潭站經小油坑服務站)",
        "花季專車124"
      ],
      "routeCount": 9,
      "routeSource": "gtfs",
      "routeUpdatedAt": "2026-06-14T16:43:39.487Z",
      "routeConfidence": "high"
    },
    {
      "id": 2949195384,
      "name": "鞍部",
      "type": "bus",
      "city": "台北市",
      "district": "北投區",
      "lat": 25.1828794,
      "lng": 121.5300553,
      "routes": [
        "108",
        "108區"
      ],
      "routeCount": 2,
      "routeSource": "gtfs",
      "routeUpdatedAt": "2026-06-14T16:43:39.487Z",
      "routeConfidence": "high"
    },
    {
      "id": 2949195388,
      "name": "中湖",
      "type": "bus",
      "city": "台北市",
      "district": "北投區",
      "lat": 25.1776864,
      "lng": 121.5567203,
      "routes": [
        "108",
        "1717(金山郵局發不經捷運劍潭站不經小油坑服務站)",
        "1717(金山郵局發不經捷運劍潭站經小油坑服務站)",
        "1717(捷運台大醫院站發不經捷運劍潭站不經小油坑服務站)",
        "1717(捷運台大醫院站發不經捷運劍潭站經小油坑服務站)",
        "1717(捷運台大醫院站發經捷運劍潭站不經小油坑服務站)",
        "1717(捷運台大醫院站發經捷運劍潭站經小油坑服務站)"
      ],
      "routeCount": 7,
      "routeSource": "gtfs",
      "routeUpdatedAt": "2026-06-14T16:43:39.487Z",
      "routeConfidence": "high"
    },
    {
      "id": 2956914586,
      "name": "承德路七段",
      "type": "bus",
      "city": "台北市",
      "district": "北投區",
      "lat": 25.1129033,
      "lng": 121.5090715,
      "routes": [
        "218",
        "218直",
        "302狗狗公車",
        "302區",
        "302區狗狗公車",
        "302路",
        "308",
        "756",
        "757狗狗公車",
        "757路",
        "821",
        "864",
        "承德幹線",
        "南軟北投(往北投)",
        "南軟北投(往南軟)",
        "通勤27去程半",
        "通勤27返程半"
      ],
      "routeCount": 17,
      "routeSource": "gtfs",
      "routeUpdatedAt": "2026-06-14T16:43:39.488Z",
      "routeConfidence": "high"
    },
    {
      "id": 2956914587,
      "name": "實踐街口",
      "type": "bus",
      "city": "台北市",
      "district": "北投區",
      "lat": 25.1141654,
      "lng": 121.5076974,
      "routes": [
        "218",
        "218直",
        "302狗狗公車",
        "302區",
        "302區狗狗公車",
        "302路",
        "308",
        "756",
        "757狗狗公車",
        "757路",
        "821",
        "864",
        "承德幹線",
        "南軟北投(往北投)",
        "南軟北投(往南軟)",
        "通勤27去程半",
        "通勤27返程半"
      ],
      "routeCount": 17,
      "routeSource": "gtfs",
      "routeUpdatedAt": "2026-06-14T16:43:39.488Z",
      "routeConfidence": "high"
    },
    {
      "id": 2958030555,
      "name": "實踐街口",
      "type": "bus",
      "city": "台北市",
      "district": "北投區",
      "lat": 25.1147249,
      "lng": 121.5064537,
      "routes": [
        "218",
        "218直",
        "302狗狗公車",
        "302區",
        "302區狗狗公車",
        "302路",
        "308",
        "756",
        "757狗狗公車",
        "757路",
        "821",
        "864",
        "承德幹線",
        "南軟北投(往北投)",
        "南軟北投(往南軟)",
        "通勤27去程半",
        "通勤27返程半"
      ],
      "routeCount": 17,
      "routeSource": "gtfs",
      "routeUpdatedAt": "2026-06-14T16:43:39.488Z",
      "routeConfidence": "high"
    },
    {
      "id": 3036995462,
      "name": "北投文物館",
      "type": "bus",
      "city": "台北市",
      "district": "北投區",
      "lat": 25.1385144,
      "lng": 121.514027
    },
    {
      "id": 3044157766,
      "name": "小油坑服務站",
      "type": "bus",
      "city": "台北市",
      "district": "北投區",
      "lat": 25.176929,
      "lng": 121.5475316,
      "routes": [
        "108",
        "1717(金山郵局發不經捷運劍潭站經小油坑服務站)",
        "1717(捷運台大醫院站發不經捷運劍潭站經小油坑服務站)",
        "1717(捷運台大醫院站發經捷運劍潭站經小油坑服務站)",
        "花季專車124"
      ],
      "routeCount": 5,
      "routeSource": "gtfs",
      "routeUpdatedAt": "2026-06-14T16:43:39.488Z",
      "routeConfidence": "high"
    },
    {
      "id": 3363612533,
      "name": "竹子湖",
      "type": "bus",
      "city": "台北市",
      "district": "北投區",
      "lat": 25.1726218,
      "lng": 121.533364,
      "routes": [
        "128",
        "129",
        "小8",
        "小9",
        "花季專車131"
      ],
      "routeCount": 5,
      "routeSource": "gtfs",
      "routeUpdatedAt": "2026-06-14T16:43:39.488Z",
      "routeConfidence": "high"
    },
    {
      "id": 3367854493,
      "name": "湖田區民活動中心",
      "type": "bus",
      "city": "台北市",
      "district": "北投區",
      "lat": 25.1776825,
      "lng": 121.5343409,
      "routes": [
        "129",
        "小8",
        "小9"
      ],
      "routeCount": 3,
      "routeSource": "gtfs",
      "routeUpdatedAt": "2026-06-14T16:43:39.488Z",
      "routeConfidence": "high"
    },
    {
      "id": 3368582100,
      "name": "十八份福德宮",
      "type": "bus",
      "city": "台北市",
      "district": "北投區",
      "lat": 25.1474919,
      "lng": 121.5221438,
      "routes": [
        "129",
        "小7",
        "小7經惇敘工商",
        "小7經新民路",
        "小7經嶺腳珠海路",
        "小8",
        "小8區",
        "小9",
        "小9區",
        "小26"
      ],
      "routeCount": 10,
      "routeSource": "gtfs",
      "routeUpdatedAt": "2026-06-14T16:43:39.488Z",
      "routeConfidence": "high"
    },
    {
      "id": 3368582102,
      "name": "華僑會館",
      "type": "bus",
      "city": "台北市",
      "district": "北投區",
      "lat": 25.1393657,
      "lng": 121.5058284,
      "routes": [
        "129",
        "230",
        "小7",
        "小7經惇敘工商",
        "小7經新民路",
        "小7經嶺腳珠海路",
        "小26"
      ],
      "routeCount": 7,
      "routeSource": "gtfs",
      "routeUpdatedAt": "2026-06-14T16:43:39.489Z",
      "routeConfidence": "high"
    },
    {
      "id": 3368582196,
      "name": "十八份",
      "type": "bus",
      "city": "台北市",
      "district": "北投區",
      "lat": 25.1505048,
      "lng": 121.5230909,
      "routes": [
        "129",
        "小8",
        "小8區",
        "小9",
        "小9區",
        "小26"
      ],
      "routeCount": 6,
      "routeSource": "gtfs",
      "routeUpdatedAt": "2026-06-14T16:43:39.489Z",
      "routeConfidence": "high"
    },
    {
      "id": 3368582197,
      "name": "雅敘園",
      "type": "bus",
      "city": "台北市",
      "district": "北投區",
      "lat": 25.1405014,
      "lng": 121.5063037,
      "routes": [
        "129",
        "230",
        "小7",
        "小7經惇敘工商",
        "小7經新民路",
        "小7經嶺腳珠海路",
        "小26"
      ],
      "routeCount": 7,
      "routeSource": "gtfs",
      "routeUpdatedAt": "2026-06-14T16:43:39.489Z",
      "routeConfidence": "high"
    },
    {
      "id": 3368582198,
      "name": "新北投",
      "type": "bus",
      "city": "台北市",
      "district": "北投區",
      "lat": 25.1376649,
      "lng": 121.5043335,
      "routes": [
        "129",
        "216",
        "218",
        "218直",
        "218區",
        "223",
        "223繞駛青年社宅",
        "230",
        "602大南天母發半趟",
        "602大南北投發半趟",
        "602中興天母發半趟",
        "602中興北投發半趟",
        "小6不經永春橋",
        "小6經永春橋",
        "小7",
        "小7經惇敘工商",
        "小7經新民路",
        "小7經嶺腳珠海路",
        "小9",
        "小9區",
        "小22",
        "小26",
        "小39",
        "內科16往內科",
        "內科16往北投",
        "承德幹線",
        "南軟北投(往北投)",
        "南軟北投(往南軟)",
        "通勤27去程半",
        "通勤27返程半"
      ],
      "routeCount": 30,
      "routeSource": "gtfs",
      "routeUpdatedAt": "2026-06-14T16:43:39.489Z",
      "routeConfidence": "high"
    },
    {
      "id": 3368582396,
      "name": "源之鄉",
      "type": "bus",
      "city": "台北市",
      "district": "北投區",
      "lat": 25.1413487,
      "lng": 121.5077679,
      "routes": [
        "129",
        "230",
        "小7",
        "小7經惇敘工商",
        "小7經新民路",
        "小7經嶺腳珠海路",
        "小26"
      ],
      "routeCount": 7,
      "routeSource": "gtfs",
      "routeUpdatedAt": "2026-06-14T16:43:39.490Z",
      "routeConfidence": "high"
    },
    {
      "id": 3368582598,
      "name": "上北投",
      "type": "bus",
      "city": "台北市",
      "district": "北投區",
      "lat": 25.1418622,
      "lng": 121.5140636,
      "routes": [
        "129",
        "230",
        "小7",
        "小7經惇敘工商",
        "小7經新民路",
        "小7經嶺腳珠海路",
        "小26"
      ],
      "routeCount": 7,
      "routeSource": "gtfs",
      "routeUpdatedAt": "2026-06-14T16:43:39.490Z",
      "routeConfidence": "high"
    },
    {
      "id": 3368582795,
      "name": "八勝園",
      "type": "bus",
      "city": "台北市",
      "district": "北投區",
      "lat": 25.1413544,
      "lng": 121.5117306,
      "routes": [
        "129",
        "230",
        "小7",
        "小7經惇敘工商",
        "小7經新民路",
        "小7經嶺腳珠海路",
        "小26"
      ],
      "routeCount": 7,
      "routeSource": "gtfs",
      "routeUpdatedAt": "2026-06-14T16:43:39.490Z",
      "routeConfidence": "high"
    },
    {
      "id": 3368582896,
      "name": "郵政訓練所",
      "type": "bus",
      "city": "台北市",
      "district": "北投區",
      "lat": 25.1411223,
      "lng": 121.5091032,
      "routes": [
        "129",
        "230",
        "小7",
        "小7經惇敘工商",
        "小7經新民路",
        "小7經嶺腳珠海路",
        "小26"
      ],
      "routeCount": 7,
      "routeSource": "gtfs",
      "routeUpdatedAt": "2026-06-14T16:43:39.490Z",
      "routeConfidence": "high"
    },
    {
      "id": 3368595494,
      "name": "彌陀寺(硫磺谷)",
      "type": "bus",
      "city": "台北市",
      "district": "北投區",
      "lat": 25.1436519,
      "lng": 121.5212907,
      "routes": [
        "129",
        "小7",
        "小7經惇敘工商",
        "小7經新民路",
        "小7經嶺腳珠海路",
        "小9",
        "小9區",
        "小26",
        "小39"
      ],
      "routeCount": 9,
      "routeSource": "gtfs",
      "routeUpdatedAt": "2026-06-14T16:43:39.490Z",
      "routeConfidence": "high"
    },
    {
      "id": 3368595495,
      "name": "泉源別墅",
      "type": "bus",
      "city": "台北市",
      "district": "北投區",
      "lat": 25.1428453,
      "lng": 121.5179067,
      "routes": [
        "129",
        "小7",
        "小7經惇敘工商",
        "小7經新民路",
        "小7經嶺腳珠海路",
        "小9",
        "小9區",
        "小26",
        "小39"
      ],
      "routeCount": 9,
      "routeSource": "gtfs",
      "routeUpdatedAt": "2026-06-14T16:43:39.490Z",
      "routeConfidence": "high"
    },
    {
      "id": 3368595793,
      "name": "中正山登山口",
      "type": "bus",
      "city": "台北市",
      "district": "北投區",
      "lat": 25.1500493,
      "lng": 121.5200668,
      "routes": [
        "小7",
        "小7經惇敘工商",
        "小7經新民路",
        "小7經嶺腳珠海路",
        "小8區"
      ],
      "routeCount": 5,
      "routeSource": "gtfs",
      "routeUpdatedAt": "2026-06-14T16:43:39.490Z",
      "routeConfidence": "high"
    },
    {
      "id": 3377340030,
      "name": "新薈芳",
      "type": "bus",
      "city": "台北市",
      "district": "北投區",
      "lat": 25.1474238,
      "lng": 121.5486945,
      "routes": [
        "128",
        "230"
      ],
      "routeCount": 2,
      "routeSource": "gtfs",
      "routeUpdatedAt": "2026-06-14T16:43:39.490Z",
      "routeConfidence": "high"
    },
    {
      "id": 3377419336,
      "name": "臺寶",
      "type": "bus",
      "city": "台北市",
      "district": "北投區",
      "lat": 25.1833048,
      "lng": 121.5563773,
      "routes": [
        "1717(金山郵局發不經捷運劍潭站不經小油坑服務站)",
        "1717(金山郵局發不經捷運劍潭站經小油坑服務站)",
        "1717(捷運台大醫院站發不經捷運劍潭站不經小油坑服務站)",
        "1717(捷運台大醫院站發不經捷運劍潭站經小油坑服務站)",
        "1717(捷運台大醫院站發經捷運劍潭站不經小油坑服務站)",
        "1717(捷運台大醫院站發經捷運劍潭站經小油坑服務站)"
      ],
      "routeCount": 6,
      "routeSource": "gtfs",
      "routeUpdatedAt": "2026-06-14T16:43:39.490Z",
      "routeConfidence": "high"
    },
    {
      "id": 3377419340,
      "name": "小觀音棧",
      "type": "bus",
      "city": "台北市",
      "district": "北投區",
      "lat": 25.180002,
      "lng": 121.5465456,
      "routes": [
        "108",
        "1717(金山郵局發不經捷運劍潭站不經小油坑服務站)",
        "1717(金山郵局發不經捷運劍潭站經小油坑服務站)",
        "1717(捷運台大醫院站發不經捷運劍潭站不經小油坑服務站)",
        "1717(捷運台大醫院站發不經捷運劍潭站經小油坑服務站)",
        "1717(捷運台大醫院站發經捷運劍潭站不經小油坑服務站)",
        "1717(捷運台大醫院站發經捷運劍潭站經小油坑服務站)",
        "花季專車124"
      ],
      "routeCount": 8,
      "routeSource": "gtfs",
      "routeUpdatedAt": "2026-06-14T16:43:39.490Z",
      "routeConfidence": "high"
    },
    {
      "id": 3377419342,
      "name": "後山",
      "type": "bus",
      "city": "台北市",
      "district": "北投區",
      "lat": 25.1839626,
      "lng": 121.5578148,
      "routes": [
        "1717(捷運台大醫院站發不經捷運劍潭站不經小油坑服務站)",
        "1717(捷運台大醫院站發不經捷運劍潭站經小油坑服務站)",
        "1717(捷運台大醫院站發經捷運劍潭站不經小油坑服務站)",
        "1717(捷運台大醫院站發經捷運劍潭站經小油坑服務站)"
      ],
      "routeCount": 4,
      "routeSource": "gtfs",
      "routeUpdatedAt": "2026-06-14T15:08:25.452Z",
      "routeConfidence": "high"
    },
    {
      "id": 3377419344,
      "name": "後山一",
      "type": "bus",
      "city": "台北市",
      "district": "北投區",
      "lat": 25.1825739,
      "lng": 121.558688,
      "routes": [
        "1717(金山郵局發不經捷運劍潭站不經小油坑服務站)",
        "1717(金山郵局發不經捷運劍潭站經小油坑服務站)",
        "1717(捷運台大醫院站發不經捷運劍潭站不經小油坑服務站)",
        "1717(捷運台大醫院站發不經捷運劍潭站經小油坑服務站)",
        "1717(捷運台大醫院站發經捷運劍潭站不經小油坑服務站)",
        "1717(捷運台大醫院站發經捷運劍潭站經小油坑服務站)"
      ],
      "routeCount": 6,
      "routeSource": "gtfs",
      "routeUpdatedAt": "2026-06-14T16:43:39.491Z",
      "routeConfidence": "high"
    },
    {
      "id": 3377419345,
      "name": "後山",
      "type": "bus",
      "city": "台北市",
      "district": "北投區",
      "lat": 25.1847485,
      "lng": 121.5583495,
      "routes": [
        "1717(金山郵局發不經捷運劍潭站不經小油坑服務站)",
        "1717(金山郵局發不經捷運劍潭站經小油坑服務站)"
      ],
      "routeCount": 2,
      "routeSource": "gtfs",
      "routeUpdatedAt": "2026-06-14T15:08:25.452Z",
      "routeConfidence": "high"
    },
    {
      "id": 3377428694,
      "name": "馬槽",
      "type": "bus",
      "city": "台北市",
      "district": "北投區",
      "lat": 25.1813967,
      "lng": 121.561074
    },
    {
      "id": 3377428695,
      "name": "馬槽溫泉",
      "type": "bus",
      "city": "台北市",
      "district": "北投區",
      "lat": 25.1787227,
      "lng": 121.5623956,
      "routes": [
        "1717(金山郵局發不經捷運劍潭站不經小油坑服務站)",
        "1717(金山郵局發不經捷運劍潭站經小油坑服務站)",
        "1717(捷運台大醫院站發不經捷運劍潭站不經小油坑服務站)",
        "1717(捷運台大醫院站發不經捷運劍潭站經小油坑服務站)",
        "1717(捷運台大醫院站發經捷運劍潭站不經小油坑服務站)",
        "1717(捷運台大醫院站發經捷運劍潭站經小油坑服務站)"
      ],
      "routeCount": 6,
      "routeSource": "gtfs",
      "routeUpdatedAt": "2026-06-14T16:43:39.491Z",
      "routeConfidence": "high"
    },
    {
      "id": 3389723299,
      "name": "中央南路",
      "type": "bus",
      "city": "台北市",
      "district": "北投區",
      "lat": 25.1321738,
      "lng": 121.501325,
      "routes": [
        "218",
        "218直",
        "218區",
        "223",
        "223繞駛青年社宅",
        "302狗狗公車",
        "302區",
        "302區狗狗公車",
        "302路",
        "308",
        "550",
        "631",
        "631繞",
        "682",
        "821",
        "864",
        "小28",
        "內科16往內科",
        "內科16往北投",
        "南軟北投(往南軟)"
      ],
      "routeCount": 20,
      "routeSource": "gtfs",
      "routeUpdatedAt": "2026-06-14T16:43:39.491Z",
      "routeConfidence": "high"
    },
    {
      "id": 3389723300,
      "name": "內埔",
      "type": "bus",
      "city": "台北市",
      "district": "北投區",
      "lat": 25.1578869,
      "lng": 121.5307295
    },
    {
      "id": 3389723301,
      "name": "國軍北投醫院",
      "type": "bus",
      "city": "台北市",
      "district": "北投區",
      "lat": 25.1398525,
      "lng": 121.5094969,
      "routes": [
        "小9",
        "小9區",
        "小22"
      ],
      "routeCount": 3,
      "routeSource": "gtfs",
      "routeUpdatedAt": "2026-06-14T16:43:39.491Z",
      "routeConfidence": "high"
    },
    {
      "id": 3389723302,
      "name": "國軍北投(衛戍)醫院",
      "type": "bus",
      "city": "台北市",
      "district": "北投區",
      "lat": 25.1399721,
      "lng": 121.509791,
      "routes": [
        "小9",
        "小9區",
        "小22"
      ],
      "routeCount": 3,
      "routeSource": "gtfs",
      "routeUpdatedAt": "2026-06-14T16:43:39.491Z",
      "routeConfidence": "high"
    },
    {
      "id": 3389723303,
      "name": "圳內",
      "type": "bus",
      "city": "台北市",
      "district": "北投區",
      "lat": 25.1598446,
      "lng": 121.531894,
      "routes": [
        "129",
        "小8",
        "小8區",
        "小9",
        "小9區"
      ],
      "routeCount": 5,
      "routeSource": "gtfs",
      "routeUpdatedAt": "2026-06-14T16:43:39.491Z",
      "routeConfidence": "high"
    },
    {
      "id": 3389723304,
      "name": "大坑廟",
      "type": "bus",
      "city": "台北市",
      "district": "北投區",
      "lat": 25.1587829,
      "lng": 121.5380297,
      "routes": [
        "129",
        "小8",
        "小8區",
        "小9",
        "小9區"
      ],
      "routeCount": 5,
      "routeSource": "gtfs",
      "routeUpdatedAt": "2026-06-14T16:43:39.491Z",
      "routeConfidence": "high"
    },
    {
      "id": 3389723305,
      "name": "大埔(明玄宮)",
      "type": "bus",
      "city": "台北市",
      "district": "北投區",
      "lat": 25.1432607,
      "lng": 121.5361365,
      "routes": [
        "128",
        "230"
      ],
      "routeCount": 2,
      "routeSource": "gtfs",
      "routeUpdatedAt": "2026-06-14T16:43:39.491Z",
      "routeConfidence": "high"
    },
    {
      "id": 3389723306,
      "name": "大興街口",
      "type": "bus",
      "city": "台北市",
      "district": "北投區",
      "lat": 25.1307847,
      "lng": 121.4992702,
      "routes": [
        "小22",
        "小25",
        "小25經馬場",
        "南軟北投(往北投)"
      ],
      "routeCount": 4,
      "routeSource": "gtfs",
      "routeUpdatedAt": "2026-06-14T16:43:39.492Z",
      "routeConfidence": "high"
    },
    {
      "id": 3389723308,
      "name": "捷運北投站(北投)",
      "type": "bus",
      "city": "台北市",
      "district": "北投區",
      "lat": 25.1323067,
      "lng": 121.4979571,
      "routes": [
        "129",
        "230",
        "小6不經永春橋",
        "小6經永春橋",
        "小7",
        "小7經惇敘工商",
        "小7經新民路",
        "小7經嶺腳珠海路",
        "小9",
        "小9區",
        "小22",
        "小25",
        "小25經馬場",
        "小26",
        "小28",
        "市民小巴2",
        "南軟北投(往北投)"
      ],
      "routeCount": 17,
      "routeSource": "gtfs",
      "routeUpdatedAt": "2026-06-14T16:43:39.492Z",
      "routeConfidence": "high"
    },
    {
      "id": 3389723309,
      "name": "新民國中(中心新村)",
      "type": "bus",
      "city": "台北市",
      "district": "北投區",
      "lat": 25.1394253,
      "lng": 121.5074106
    },
    {
      "id": 3389723310,
      "name": "新民路底",
      "type": "bus",
      "city": "台北市",
      "district": "北投區",
      "lat": 25.1415561,
      "lng": 121.5137777,
      "routes": [
        "小9",
        "小9區",
        "小22"
      ],
      "routeCount": 3,
      "routeSource": "gtfs",
      "routeUpdatedAt": "2026-06-14T16:43:39.492Z",
      "routeConfidence": "high"
    },
    {
      "id": 3389723311,
      "name": "林泉里",
      "type": "bus",
      "city": "台北市",
      "district": "北投區",
      "lat": 25.1408172,
      "lng": 121.5124825,
      "routes": [
        "小9",
        "小9區",
        "小22"
      ],
      "routeCount": 3,
      "routeSource": "gtfs",
      "routeUpdatedAt": "2026-06-14T16:43:39.492Z",
      "routeConfidence": "high"
    },
    {
      "id": 3389723312,
      "name": "氣象臺",
      "type": "bus",
      "city": "台北市",
      "district": "北投區",
      "lat": 25.1612103,
      "lng": 121.5441967,
      "routes": [
        "108",
        "108區",
        "129",
        "小8",
        "小9",
        "花季專車124"
      ],
      "routeCount": 6,
      "routeSource": "gtfs",
      "routeUpdatedAt": "2026-06-14T16:43:39.492Z",
      "routeConfidence": "high"
    },
    {
      "id": 3389723313,
      "name": "水井尾",
      "type": "bus",
      "city": "台北市",
      "district": "北投區",
      "lat": 25.1466346,
      "lng": 121.5321766,
      "routes": [
        "128",
        "230"
      ],
      "routeCount": 2,
      "routeSource": "gtfs",
      "routeUpdatedAt": "2026-06-14T16:43:39.492Z",
      "routeConfidence": "high"
    },
    {
      "id": 3389723314,
      "name": "水雲澗",
      "type": "bus",
      "city": "台北市",
      "district": "北投區",
      "lat": 25.1644197,
      "lng": 121.5440233
    },
    {
      "id": 3389723315,
      "name": "泉源國小",
      "type": "bus",
      "city": "台北市",
      "district": "北投區",
      "lat": 25.1492684,
      "lng": 121.5245283,
      "routes": [
        "129",
        "小8",
        "小8區",
        "小9",
        "小9區",
        "小26"
      ],
      "routeCount": 6,
      "routeSource": "gtfs",
      "routeUpdatedAt": "2026-06-14T16:43:39.493Z",
      "routeConfidence": "high"
    },
    {
      "id": 3389723317,
      "name": "湖山路二段",
      "type": "bus",
      "city": "台北市",
      "district": "北投區",
      "lat": 25.1579565,
      "lng": 121.5387031,
      "routes": [
        "129",
        "小8",
        "小8區",
        "小9",
        "小9區"
      ],
      "routeCount": 5,
      "routeSource": "gtfs",
      "routeUpdatedAt": "2026-06-14T16:43:39.493Z",
      "routeConfidence": "high"
    },
    {
      "id": 3389723318,
      "name": "湖田橋",
      "type": "bus",
      "city": "台北市",
      "district": "北投區",
      "lat": 25.1699066,
      "lng": 121.5384944,
      "routes": [
        "花季專車131"
      ],
      "routeCount": 1,
      "routeSource": "gtfs",
      "routeUpdatedAt": "2026-06-14T15:08:25.454Z",
      "routeConfidence": "high"
    },
    {
      "id": 3389723320,
      "name": "無尾崙",
      "type": "bus",
      "city": "台北市",
      "district": "北投區",
      "lat": 25.1521593,
      "lng": 121.5273698,
      "routes": [
        "小8",
        "小8區",
        "小9",
        "小9區",
        "小26"
      ],
      "routeCount": 5,
      "routeSource": "gtfs",
      "routeUpdatedAt": "2026-06-14T16:43:39.493Z",
      "routeConfidence": "high"
    },
    {
      "id": 3389723321,
      "name": "童軍站",
      "type": "bus",
      "city": "台北市",
      "district": "北投區",
      "lat": 25.1581332,
      "lng": 121.5467789,
      "routes": [
        "108",
        "108區",
        "129",
        "小8",
        "小9",
        "花季專車124"
      ],
      "routeCount": 6,
      "routeSource": "gtfs",
      "routeUpdatedAt": "2026-06-14T16:43:39.493Z",
      "routeConfidence": "high"
    },
    {
      "id": 3389723322,
      "name": "第一展望",
      "type": "bus",
      "city": "台北市",
      "district": "北投區",
      "lat": 25.1422848,
      "lng": 121.5442446,
      "routes": [
        "128",
        "230"
      ],
      "routeCount": 2,
      "routeSource": "gtfs",
      "routeUpdatedAt": "2026-06-14T16:43:39.493Z",
      "routeConfidence": "high"
    },
    {
      "id": 3389723323,
      "name": "第二展望",
      "type": "bus",
      "city": "台北市",
      "district": "北投區",
      "lat": 25.1438165,
      "lng": 121.531412,
      "routes": [
        "128",
        "230"
      ],
      "routeCount": 2,
      "routeSource": "gtfs",
      "routeUpdatedAt": "2026-06-14T16:43:39.493Z",
      "routeConfidence": "high"
    },
    {
      "id": 3389724580,
      "name": "紅柿下",
      "type": "bus",
      "city": "台北市",
      "district": "北投區",
      "lat": 25.1511235,
      "lng": 121.5268376,
      "routes": [
        "129",
        "小8",
        "小8區",
        "小9",
        "小9區",
        "小26"
      ],
      "routeCount": 6,
      "routeSource": "gtfs",
      "routeUpdatedAt": "2026-06-14T16:43:39.493Z",
      "routeConfidence": "high"
    },
    {
      "id": 3389724581,
      "name": "紗帽橋",
      "type": "bus",
      "city": "台北市",
      "district": "北投區",
      "lat": 25.1481135,
      "lng": 121.5334167,
      "routes": [
        "128",
        "230"
      ],
      "routeCount": 2,
      "routeSource": "gtfs",
      "routeUpdatedAt": "2026-06-14T16:43:39.493Z",
      "routeConfidence": "high"
    },
    {
      "id": 3389724582,
      "name": "陽明公園後門",
      "type": "bus",
      "city": "台北市",
      "district": "北投區",
      "lat": 25.1596644,
      "lng": 121.5349997,
      "routes": [
        "129",
        "小8",
        "小8區",
        "小9",
        "小9區"
      ],
      "routeCount": 5,
      "routeSource": "gtfs",
      "routeUpdatedAt": "2026-06-14T16:43:39.493Z",
      "routeConfidence": "high"
    },
    {
      "id": 3389724584,
      "name": "陽明公園服務中心",
      "type": "bus",
      "city": "台北市",
      "district": "北投區",
      "lat": 25.1566579,
      "lng": 121.5398045,
      "routes": [
        "128",
        "129",
        "小8",
        "小8區",
        "小9",
        "小9區"
      ],
      "routeCount": 6,
      "routeSource": "gtfs",
      "routeUpdatedAt": "2026-06-14T16:43:39.493Z",
      "routeConfidence": "high"
    },
    {
      "id": 3389724586,
      "name": "陽明山立體停車場(草山行館)",
      "type": "bus",
      "city": "台北市",
      "district": "北投區",
      "lat": 25.1546354,
      "lng": 121.5392649,
      "routes": [
        "128",
        "129",
        "260區往陽明山",
        "小8",
        "小8區",
        "小9",
        "小9區"
      ],
      "routeCount": 7,
      "routeSource": "gtfs",
      "routeUpdatedAt": "2026-06-14T16:43:39.493Z",
      "routeConfidence": "high"
    },
    {
      "id": 3389724588,
      "name": "陽明瀑布",
      "type": "bus",
      "city": "台北市",
      "district": "北投區",
      "lat": 25.1599579,
      "lng": 121.5363658,
      "routes": [
        "129",
        "小8",
        "小8區",
        "小9",
        "小9區"
      ],
      "routeCount": 5,
      "routeSource": "gtfs",
      "routeUpdatedAt": "2026-06-14T16:43:39.493Z",
      "routeConfidence": "high"
    },
    {
      "id": 3389724589,
      "name": "頂坪",
      "type": "bus",
      "city": "台北市",
      "district": "北投區",
      "lat": 25.1524556,
      "lng": 121.5395713,
      "routes": [
        "128",
        "129",
        "260區往陽明山",
        "小8",
        "小8區",
        "小9",
        "小9區"
      ],
      "routeCount": 7,
      "routeSource": "gtfs",
      "routeUpdatedAt": "2026-06-14T16:43:39.493Z",
      "routeConfidence": "high"
    },
    {
      "id": 3389724591,
      "name": "頂湖",
      "type": "bus",
      "city": "台北市",
      "district": "北投區",
      "lat": 25.1562252,
      "lng": 121.5300807,
      "routes": [
        "129",
        "小8",
        "小8區",
        "小9",
        "小9區",
        "小26"
      ],
      "routeCount": 6,
      "routeSource": "gtfs",
      "routeUpdatedAt": "2026-06-14T16:43:39.494Z",
      "routeConfidence": "high"
    },
    {
      "id": 3389724592,
      "name": "頂湖",
      "type": "bus",
      "city": "台北市",
      "district": "北投區",
      "lat": 25.1734617,
      "lng": 121.5384211,
      "routes": [
        "128",
        "129",
        "小8",
        "小9",
        "花季專車131"
      ],
      "routeCount": 5,
      "routeSource": "gtfs",
      "routeUpdatedAt": "2026-06-14T16:43:39.494Z",
      "routeConfidence": "high"
    },
    {
      "id": 3389724893,
      "name": "風尾",
      "type": "bus",
      "city": "台北市",
      "district": "北投區",
      "lat": 25.1544654,
      "lng": 121.5288025,
      "routes": [
        "129",
        "小8",
        "小8區",
        "小9",
        "小9區",
        "小26"
      ],
      "routeCount": 6,
      "routeSource": "gtfs",
      "routeUpdatedAt": "2026-06-14T16:43:39.494Z",
      "routeConfidence": "high"
    },
    {
      "id": 3389724894,
      "name": "風架口",
      "type": "bus",
      "city": "台北市",
      "district": "北投區",
      "lat": 25.1753868,
      "lng": 121.5370828,
      "routes": [
        "128",
        "129",
        "小8",
        "小9",
        "花季專車131"
      ],
      "routeCount": 5,
      "routeSource": "gtfs",
      "routeUpdatedAt": "2026-06-14T16:43:39.494Z",
      "routeConfidence": "high"
    },
    {
      "id": 3389724895,
      "name": "龍鳳谷",
      "type": "bus",
      "city": "台北市",
      "district": "北投區",
      "lat": 25.1477391,
      "lng": 121.5307109,
      "routes": [
        "128",
        "230",
        "小25",
        "小25經馬場",
        "小36",
        "小36經中山"
      ],
      "routeCount": 6,
      "routeSource": "gtfs",
      "routeUpdatedAt": "2026-06-14T16:43:39.494Z",
      "routeConfidence": "high"
    },
    {
      "id": 3398062994,
      "name": "關渡國小(臺北城市科技大學)",
      "type": "bus",
      "city": "台北市",
      "district": "北投區",
      "lat": 25.1268559,
      "lng": 121.4663737,
      "routes": [
        "223",
        "223繞駛青年社宅",
        "302狗狗公車",
        "302區",
        "302區狗狗公車",
        "302路",
        "308",
        "550",
        "682",
        "821",
        "864",
        "小23"
      ],
      "routeCount": 12,
      "routeSource": "gtfs",
      "routeUpdatedAt": "2026-06-14T16:43:39.494Z",
      "routeConfidence": "high"
    },
    {
      "id": 3398062995,
      "name": "學園路口",
      "type": "bus",
      "city": "台北市",
      "district": "北投區",
      "lat": 25.1283979,
      "lng": 121.4656959
    },
    {
      "id": 3398072393,
      "name": "臺北城市科技大學(後門)",
      "type": "bus",
      "city": "台北市",
      "district": "北投區",
      "lat": 25.1359338,
      "lng": 121.4710545,
      "routes": [
        "紅55"
      ],
      "routeCount": 1,
      "routeSource": "gtfs",
      "routeUpdatedAt": "2026-06-14T15:08:25.455Z",
      "routeConfidence": "high"
    },
    {
      "id": 3398072394,
      "name": "北藝大校門口",
      "type": "bus",
      "city": "台北市",
      "district": "北投區",
      "lat": 25.1291621,
      "lng": 121.4660488,
      "routes": [
        "紅35",
        "紅35區",
        "紅55",
        "紅55區"
      ],
      "routeCount": 4,
      "routeSource": "gtfs",
      "routeUpdatedAt": "2026-06-14T16:43:39.494Z",
      "routeConfidence": "high"
    },
    {
      "id": 3398072395,
      "name": "北藝大音樂廳",
      "type": "bus",
      "city": "台北市",
      "district": "北投區",
      "lat": 25.1320443,
      "lng": 121.4687036,
      "routes": [
        "紅35",
        "紅35區",
        "紅55"
      ],
      "routeCount": 3,
      "routeSource": "gtfs",
      "routeUpdatedAt": "2026-06-14T16:43:39.494Z",
      "routeConfidence": "high"
    },
    {
      "id": 3398072397,
      "name": "北藝大行政大樓",
      "type": "bus",
      "city": "台北市",
      "district": "北投區",
      "lat": 25.1339562,
      "lng": 121.4705721,
      "routes": [
        "紅35",
        "紅35區",
        "紅55"
      ],
      "routeCount": 3,
      "routeSource": "gtfs",
      "routeUpdatedAt": "2026-06-14T16:43:39.494Z",
      "routeConfidence": "high"
    },
    {
      "id": 3398072398,
      "name": "臺北城市科技大學(正門)",
      "type": "bus",
      "city": "台北市",
      "district": "北投區",
      "lat": 25.1328374,
      "lng": 121.4674967,
      "routes": [
        "紅55",
        "紅55區"
      ],
      "routeCount": 2,
      "routeSource": "gtfs",
      "routeUpdatedAt": "2026-06-14T16:43:39.494Z",
      "routeConfidence": "high"
    },
    {
      "id": 3398072493,
      "name": "鷺鷥草原",
      "type": "bus",
      "city": "台北市",
      "district": "北投區",
      "lat": 25.1312605,
      "lng": 121.4674607,
      "routes": [
        "紅55"
      ],
      "routeCount": 1,
      "routeSource": "gtfs",
      "routeUpdatedAt": "2026-06-14T15:08:25.455Z",
      "routeConfidence": "high"
    },
    {
      "id": 3398072494,
      "name": "北藝大游泳館",
      "type": "bus",
      "city": "台北市",
      "district": "北投區",
      "lat": 25.1360026,
      "lng": 121.4731366
    },
    {
      "id": 3398072495,
      "name": "荒山劇場",
      "type": "bus",
      "city": "台北市",
      "district": "北投區",
      "lat": 25.1397456,
      "lng": 121.4733215,
      "routes": [
        "紅55"
      ],
      "routeCount": 1,
      "routeSource": "gtfs",
      "routeUpdatedAt": "2026-06-14T15:08:25.455Z",
      "routeConfidence": "high"
    },
    {
      "id": 3398072893,
      "name": "北藝大圖書館",
      "type": "bus",
      "city": "台北市",
      "district": "北投區",
      "lat": 25.1348353,
      "lng": 121.4713267,
      "routes": [
        "紅35",
        "紅55"
      ],
      "routeCount": 2,
      "routeSource": "gtfs",
      "routeUpdatedAt": "2026-06-14T16:43:39.495Z",
      "routeConfidence": "high"
    },
    {
      "id": 3398072896,
      "name": "北藝大藝文生態館",
      "type": "bus",
      "city": "台北市",
      "district": "北投區",
      "lat": 25.1317237,
      "lng": 121.4661472,
      "routes": [
        "紅55",
        "紅55區"
      ],
      "routeCount": 2,
      "routeSource": "gtfs",
      "routeUpdatedAt": "2026-06-14T16:43:39.495Z",
      "routeConfidence": "high"
    },
    {
      "id": 3404124004,
      "name": "一德街口",
      "type": "bus",
      "city": "台北市",
      "district": "北投區",
      "lat": 25.1282579,
      "lng": 121.468671,
      "routes": [
        "223",
        "223繞駛青年社宅",
        "302狗狗公車",
        "302區",
        "302區狗狗公車",
        "302路",
        "308",
        "550",
        "682",
        "821",
        "864",
        "小23"
      ],
      "routeCount": 12,
      "routeSource": "gtfs",
      "routeUpdatedAt": "2026-06-14T16:43:39.495Z",
      "routeConfidence": "high"
    },
    {
      "id": 3404124006,
      "name": "中央北路",
      "type": "bus",
      "city": "台北市",
      "district": "北投區",
      "lat": 25.1326726,
      "lng": 121.4751467,
      "routes": [
        "223",
        "223繞駛青年社宅",
        "302狗狗公車",
        "302區",
        "302區狗狗公車",
        "302路",
        "308",
        "550",
        "682",
        "821",
        "864",
        "小23"
      ],
      "routeCount": 12,
      "routeSource": "gtfs",
      "routeUpdatedAt": "2026-06-14T16:43:39.495Z",
      "routeConfidence": "high"
    },
    {
      "id": 3404124008,
      "name": "中央北路三段",
      "type": "bus",
      "city": "台北市",
      "district": "北投區",
      "lat": 25.1368261,
      "lng": 121.4818047,
      "routes": [
        "223",
        "223繞駛青年社宅",
        "302狗狗公車",
        "302區",
        "302區狗狗公車",
        "302路",
        "308",
        "550",
        "682",
        "821",
        "864",
        "小23"
      ],
      "routeCount": 12,
      "routeSource": "gtfs",
      "routeUpdatedAt": "2026-06-14T16:43:39.495Z",
      "routeConfidence": "high"
    },
    {
      "id": 3404124010,
      "name": "北投國小",
      "type": "bus",
      "city": "台北市",
      "district": "北投區",
      "lat": 25.1336176,
      "lng": 121.5013436,
      "routes": [
        "129",
        "230",
        "302狗狗公車",
        "302區",
        "302區狗狗公車",
        "302路",
        "308",
        "550",
        "631",
        "631繞",
        "682",
        "821",
        "864",
        "小6不經永春橋",
        "小6經永春橋",
        "小7",
        "小7經惇敘工商",
        "小7經新民路",
        "小7經嶺腳珠海路",
        "小9",
        "小9區",
        "小14",
        "小21",
        "小21經立農國小一",
        "小22",
        "小23",
        "小25",
        "小25經馬場",
        "小26",
        "小28",
        "承德幹線",
        "南軟北投(往北投)",
        "通勤27去程半",
        "通勤27返程半"
      ],
      "routeCount": 34,
      "routeSource": "gtfs",
      "routeUpdatedAt": "2026-06-14T16:43:39.496Z",
      "routeConfidence": "high"
    },
    {
      "id": 3404124012,
      "name": "和信醫院",
      "type": "bus",
      "city": "台北市",
      "district": "北投區",
      "lat": 25.1297565,
      "lng": 121.4715093,
      "routes": [
        "223",
        "223繞駛青年社宅",
        "302狗狗公車",
        "302區",
        "302區狗狗公車",
        "302路",
        "308",
        "550",
        "682",
        "821",
        "864",
        "小23"
      ],
      "routeCount": 12,
      "routeSource": "gtfs",
      "routeUpdatedAt": "2026-06-14T16:43:39.496Z",
      "routeConfidence": "high"
    },
    {
      "id": 3404124015,
      "name": "大業中央北路口",
      "type": "bus",
      "city": "台北市",
      "district": "北投區",
      "lat": 25.135605,
      "lng": 121.498029,
      "routes": [
        "230",
        "302狗狗公車",
        "302區",
        "302區狗狗公車",
        "302路",
        "308",
        "550",
        "631",
        "631繞",
        "682",
        "821",
        "864",
        "小6不經永春橋",
        "小6經永春橋",
        "小7",
        "小7經惇敘工商",
        "小7經新民路",
        "小7經嶺腳珠海路",
        "小9",
        "小9區",
        "小14",
        "小21",
        "小21經立農國小一",
        "小22",
        "小23",
        "小25",
        "小25經馬場",
        "小26",
        "小28",
        "承德幹線",
        "南軟北投(往北投)",
        "通勤27去程半",
        "通勤27返程半"
      ],
      "routeCount": 33,
      "routeSource": "gtfs",
      "routeUpdatedAt": "2026-06-14T16:43:39.497Z",
      "routeConfidence": "high"
    },
    {
      "id": 3404124017,
      "name": "大業路(農禪寺)",
      "type": "bus",
      "city": "台北市",
      "district": "北投區",
      "lat": 25.1224924,
      "lng": 121.4995683,
      "routes": [
        "218",
        "218直",
        "302狗狗公車",
        "302區",
        "302區狗狗公車",
        "302路",
        "308",
        "821",
        "864",
        "承德幹線",
        "南軟北投(往北投)",
        "南軟北投(往南軟)",
        "通勤27去程半",
        "通勤27返程半"
      ],
      "routeCount": 14,
      "routeSource": "gtfs",
      "routeUpdatedAt": "2026-06-14T16:43:39.497Z",
      "routeConfidence": "high"
    },
    {
      "id": 3404124019,
      "name": "文化國小",
      "type": "bus",
      "city": "台北市",
      "district": "北投區",
      "lat": 25.1368624,
      "lng": 121.4955818,
      "routes": [
        "302狗狗公車",
        "302區",
        "302區狗狗公車",
        "302路",
        "308",
        "550",
        "631",
        "631繞",
        "682",
        "821",
        "864",
        "小6不經永春橋",
        "小6經永春橋",
        "小7",
        "小7經惇敘工商",
        "小7經新民路",
        "小7經嶺腳珠海路",
        "小9",
        "小9區",
        "小14",
        "小21",
        "小21經立農國小一",
        "小23",
        "小26"
      ],
      "routeCount": 24,
      "routeSource": "gtfs",
      "routeUpdatedAt": "2026-06-14T16:43:39.497Z",
      "routeConfidence": "high"
    },
    {
      "id": 3404124020,
      "name": "復興崗",
      "type": "bus",
      "city": "台北市",
      "district": "北投區",
      "lat": 25.1380858,
      "lng": 121.4925533,
      "routes": [
        "302狗狗公車",
        "302區",
        "302區狗狗公車",
        "302路",
        "308",
        "550",
        "631",
        "631繞",
        "682",
        "821",
        "864",
        "小6不經永春橋",
        "小6經永春橋",
        "小7",
        "小7經惇敘工商",
        "小7經新民路",
        "小7經嶺腳珠海路",
        "小9",
        "小9區",
        "小14",
        "小21",
        "小21經立農國小一",
        "小23",
        "小26"
      ],
      "routeCount": 24,
      "routeSource": "gtfs",
      "routeUpdatedAt": "2026-06-14T16:43:39.498Z",
      "routeConfidence": "high"
    },
    {
      "id": 3404124022,
      "name": "行天宮北投分宮忠義站",
      "type": "bus",
      "city": "台北市",
      "district": "北投區",
      "lat": 25.1351871,
      "lng": 121.4784714,
      "routes": [
        "223",
        "223繞駛青年社宅",
        "302狗狗公車",
        "302區",
        "302區狗狗公車",
        "302路",
        "308",
        "550",
        "682",
        "821",
        "864",
        "小23"
      ],
      "routeCount": 12,
      "routeSource": "gtfs",
      "routeUpdatedAt": "2026-06-14T16:43:39.498Z",
      "routeConfidence": "high"
    },
    {
      "id": 3404124023,
      "name": "慈后宮",
      "type": "bus",
      "city": "台北市",
      "district": "北投區",
      "lat": 25.1279058,
      "lng": 121.5012151,
      "routes": [
        "218",
        "218直",
        "218區",
        "223",
        "223繞駛青年社宅",
        "302狗狗公車",
        "302區",
        "302區狗狗公車",
        "302路",
        "308",
        "550",
        "631",
        "631繞",
        "682",
        "821",
        "864",
        "內科16往內科",
        "內科16往北投",
        "南軟北投(往南軟)"
      ],
      "routeCount": 19,
      "routeSource": "gtfs",
      "routeUpdatedAt": "2026-06-14T16:43:39.498Z",
      "routeConfidence": "high"
    },
    {
      "id": 3404124024,
      "name": "承德公館路口",
      "type": "bus",
      "city": "台北市",
      "district": "北投區",
      "lat": 25.1188497,
      "lng": 121.5025335,
      "routes": [
        "通勤27返程半"
      ],
      "routeCount": 1,
      "routeSource": "gtfs",
      "routeUpdatedAt": "2026-06-14T15:08:25.456Z",
      "routeConfidence": "high"
    },
    {
      "id": 3404124027,
      "name": "清江里",
      "type": "bus",
      "city": "台北市",
      "district": "北投區",
      "lat": 25.1287315,
      "lng": 121.5012136,
      "routes": [
        "內科16往北投"
      ],
      "routeCount": 1,
      "routeSource": "gtfs",
      "routeUpdatedAt": "2026-06-14T15:08:25.457Z",
      "routeConfidence": "high"
    },
    {
      "id": 3404124028,
      "name": "捷運北投站(大興)",
      "type": "bus",
      "city": "台北市",
      "district": "北投區",
      "lat": 25.1304663,
      "lng": 121.5006099
    },
    {
      "id": 3404124029,
      "name": "中央南大興街口",
      "type": "bus",
      "city": "台北市",
      "district": "北投區",
      "lat": 25.1300336,
      "lng": 121.500985,
      "routes": [
        "218",
        "218直",
        "218區",
        "223",
        "223繞駛青年社宅",
        "302狗狗公車",
        "302區",
        "302區狗狗公車",
        "302路",
        "308",
        "550",
        "631",
        "631繞",
        "682",
        "821",
        "864",
        "內科16往內科",
        "南軟北投(往南軟)"
      ],
      "routeCount": 18,
      "routeSource": "gtfs",
      "routeUpdatedAt": "2026-06-14T16:43:39.499Z",
      "routeConfidence": "high"
    },
    {
      "id": 3404124030,
      "name": "捷運奇岩站",
      "type": "bus",
      "city": "台北市",
      "district": "北投區",
      "lat": 25.1260372,
      "lng": 121.4998072,
      "routes": [
        "218",
        "218直",
        "218區",
        "302狗狗公車",
        "302區",
        "302區狗狗公車",
        "302路",
        "308",
        "550",
        "631",
        "631繞",
        "682",
        "821",
        "864",
        "南軟北投(往南軟)"
      ],
      "routeCount": 15,
      "routeSource": "gtfs",
      "routeUpdatedAt": "2026-06-14T16:43:39.499Z",
      "routeConfidence": "high"
    },
    {
      "id": 3404124031,
      "name": "捷運復興崗站",
      "type": "bus",
      "city": "台北市",
      "district": "北投區",
      "lat": 25.1378881,
      "lng": 121.4846814,
      "routes": [
        "223",
        "223繞駛青年社宅",
        "302狗狗公車",
        "302區",
        "302區狗狗公車",
        "302路",
        "308",
        "550",
        "682",
        "821",
        "864",
        "小23"
      ],
      "routeCount": 12,
      "routeSource": "gtfs",
      "routeUpdatedAt": "2026-06-14T16:43:39.499Z",
      "routeConfidence": "high"
    },
    {
      "id": 3404124033,
      "name": "捷運忠義站",
      "type": "bus",
      "city": "台北市",
      "district": "北投區",
      "lat": 25.1310219,
      "lng": 121.4727928,
      "routes": [
        "223",
        "223繞駛青年社宅",
        "302狗狗公車",
        "302區",
        "302區狗狗公車",
        "302路",
        "308",
        "550",
        "682",
        "821",
        "864",
        "小23"
      ],
      "routeCount": 12,
      "routeSource": "gtfs",
      "routeUpdatedAt": "2026-06-14T16:43:39.499Z",
      "routeConfidence": "high"
    },
    {
      "id": 3404124036,
      "name": "桃源國中",
      "type": "bus",
      "city": "台北市",
      "district": "北投區",
      "lat": 25.1341523,
      "lng": 121.4769256,
      "routes": [
        "223",
        "223繞駛青年社宅",
        "302狗狗公車",
        "302區",
        "302區狗狗公車",
        "302路",
        "308",
        "550",
        "682",
        "821",
        "864",
        "小23"
      ],
      "routeCount": 12,
      "routeSource": "gtfs",
      "routeUpdatedAt": "2026-06-14T16:43:39.500Z",
      "routeConfidence": "high"
    },
    {
      "id": 3404124039,
      "name": "立農國小",
      "type": "bus",
      "city": "台北市",
      "district": "北投區",
      "lat": 25.1171497,
      "lng": 121.5044322,
      "routes": [
        "218",
        "218直",
        "302狗狗公車",
        "302區",
        "302區狗狗公車",
        "302路",
        "308",
        "756",
        "757狗狗公車",
        "757路",
        "821",
        "864",
        "承德幹線",
        "南軟北投(往北投)",
        "南軟北投(往南軟)",
        "通勤27去程半",
        "通勤27返程半"
      ],
      "routeCount": 17,
      "routeSource": "gtfs",
      "routeUpdatedAt": "2026-06-14T16:43:39.500Z",
      "routeConfidence": "high"
    },
    {
      "id": 3404124040,
      "name": "立農國小",
      "type": "bus",
      "city": "台北市",
      "district": "北投區",
      "lat": 25.1174741,
      "lng": 121.5034867,
      "routes": [
        "218",
        "218直",
        "302狗狗公車",
        "302區",
        "302區狗狗公車",
        "302路",
        "308",
        "756",
        "757狗狗公車",
        "757路",
        "821",
        "864",
        "承德幹線",
        "南軟北投(往北投)",
        "南軟北投(往南軟)",
        "通勤27去程半",
        "通勤27返程半"
      ],
      "routeCount": 17,
      "routeSource": "gtfs",
      "routeUpdatedAt": "2026-06-14T16:43:39.500Z",
      "routeConfidence": "high"
    },
    {
      "id": 3404124298,
      "name": "關渡",
      "type": "bus",
      "city": "台北市",
      "district": "北投區",
      "lat": 25.1246262,
      "lng": 121.4649865,
      "routes": [
        "837副",
        "837副繞"
      ],
      "routeCount": 2,
      "routeSource": "gtfs",
      "routeUpdatedAt": "2026-06-14T15:08:25.457Z",
      "routeConfidence": "high"
    },
    {
      "id": 3404124301,
      "name": "關渡里",
      "type": "bus",
      "city": "台北市",
      "district": "北投區",
      "lat": 25.1225531,
      "lng": 121.4669817,
      "routes": [
        "223",
        "223繞駛青年社宅",
        "302狗狗公車",
        "302區",
        "302區狗狗公車",
        "302路",
        "550",
        "小23",
        "紅13",
        "紅13延",
        "紅22",
        "紅22去(車機)",
        "紅22台北港去",
        "紅22台北港返",
        "紅35"
      ],
      "routeCount": 15,
      "routeSource": "gtfs",
      "routeUpdatedAt": "2026-06-14T16:43:39.500Z",
      "routeConfidence": "high"
    },
    {
      "id": 3404155757,
      "name": "敬老院",
      "type": "bus",
      "city": "台北市",
      "district": "北投區",
      "lat": 25.1188017,
      "lng": 121.4660077,
      "routes": [
        "223",
        "223繞駛青年社宅",
        "302狗狗公車",
        "302區",
        "302區狗狗公車",
        "302路",
        "550",
        "小23",
        "紅35"
      ],
      "routeCount": 9,
      "routeSource": "gtfs",
      "routeUpdatedAt": "2026-06-14T16:43:39.500Z",
      "routeConfidence": "high"
    },
    {
      "id": 3404155762,
      "name": "關渡醫院",
      "type": "bus",
      "city": "台北市",
      "district": "北投區",
      "lat": 25.1208167,
      "lng": 121.4672506
    },
    {
      "id": 3404155763,
      "name": "關渡宮",
      "type": "bus",
      "city": "台北市",
      "district": "北投區",
      "lat": 25.1178745,
      "lng": 121.4651003,
      "routes": [
        "223",
        "223繞駛青年社宅",
        "302狗狗公車",
        "302區",
        "302區狗狗公車",
        "302路",
        "550",
        "小23",
        "紅35"
      ],
      "routeCount": 9,
      "routeSource": "gtfs",
      "routeUpdatedAt": "2026-06-14T16:43:39.501Z",
      "routeConfidence": "high"
    },
    {
      "id": 3404155764,
      "name": "關渡自然大樓",
      "type": "bus",
      "city": "台北市",
      "district": "北投區",
      "lat": 25.1209001,
      "lng": 121.4687867
    },
    {
      "id": 3413902378,
      "name": "稻香圖書館",
      "type": "bus",
      "city": "台北市",
      "district": "北投區",
      "lat": 25.14056,
      "lng": 121.48966,
      "routes": [
        "223",
        "223繞駛青年社宅"
      ],
      "routeCount": 2,
      "routeSource": "gtfs",
      "routeUpdatedAt": "2026-06-14T15:08:25.458Z",
      "routeConfidence": "high"
    },
    {
      "id": 3413902380,
      "name": "致遠新村",
      "type": "bus",
      "city": "台北市",
      "district": "北投區",
      "lat": 25.14299,
      "lng": 121.490757,
      "routes": [
        "223",
        "223繞駛青年社宅",
        "小6不經永春橋",
        "小6經永春橋",
        "小7",
        "小7經惇敘工商",
        "小7經新民路",
        "小7經嶺腳珠海路",
        "小9",
        "小9區",
        "小14",
        "小21",
        "小21經立農國小一",
        "小26"
      ],
      "routeCount": 14,
      "routeSource": "gtfs",
      "routeUpdatedAt": "2026-06-14T16:43:39.501Z",
      "routeConfidence": "high"
    },
    {
      "id": 3414335203,
      "name": "忠義新村",
      "type": "bus",
      "city": "台北市",
      "district": "北投區",
      "lat": 25.1258189,
      "lng": 121.5015974,
      "routes": [
        "223",
        "223繞駛青年社宅",
        "內科16往內科",
        "內科16往北投"
      ],
      "routeCount": 4,
      "routeSource": "gtfs",
      "routeUpdatedAt": "2026-06-14T16:43:39.501Z",
      "routeConfidence": "high"
    },
    {
      "id": 3417776221,
      "name": "幼華高中(北投)",
      "type": "bus",
      "city": "台北市",
      "district": "北投區",
      "lat": 25.1334516,
      "lng": 121.4956253,
      "routes": [
        "通勤27返程半"
      ],
      "routeCount": 1,
      "routeSource": "gtfs",
      "routeUpdatedAt": "2026-06-14T15:08:25.458Z",
      "routeConfidence": "high"
    },
    {
      "id": 3417776223,
      "name": "大業路(捷運北投站)",
      "type": "bus",
      "city": "台北市",
      "district": "北投區",
      "lat": 25.1316764,
      "lng": 121.4959275,
      "routes": [
        "承德幹線",
        "通勤27去程半",
        "通勤27返程半"
      ],
      "routeCount": 3,
      "routeSource": "gtfs",
      "routeUpdatedAt": "2026-06-14T16:43:39.501Z",
      "routeConfidence": "high"
    },
    {
      "id": 3417776225,
      "name": "大業路(大興街口)",
      "type": "bus",
      "city": "台北市",
      "district": "北投區",
      "lat": 25.1290728,
      "lng": 121.4974321,
      "routes": [
        "631",
        "631繞",
        "承德幹線",
        "南軟北投(往北投)",
        "通勤27去程半",
        "通勤27返程半"
      ],
      "routeCount": 6,
      "routeSource": "gtfs",
      "routeUpdatedAt": "2026-06-14T16:43:39.502Z",
      "routeConfidence": "high"
    },
    {
      "id": 3417776227,
      "name": "鳳甲美術館",
      "type": "bus",
      "city": "台北市",
      "district": "北投區",
      "lat": 25.126414,
      "lng": 121.4985091,
      "routes": [
        "631",
        "631繞",
        "承德幹線",
        "南軟北投(往北投)",
        "通勤27去程半",
        "通勤27返程半"
      ],
      "routeCount": 6,
      "routeSource": "gtfs",
      "routeUpdatedAt": "2026-06-14T16:43:39.502Z",
      "routeConfidence": "high"
    },
    {
      "id": 3417776228,
      "name": "鳳甲美術館",
      "type": "bus",
      "city": "台北市",
      "district": "北投區",
      "lat": 25.127562,
      "lng": 121.4977699,
      "routes": [
        "631",
        "631繞",
        "承德幹線",
        "南軟北投(往北投)",
        "通勤27去程半",
        "通勤27返程半"
      ],
      "routeCount": 6,
      "routeSource": "gtfs",
      "routeUpdatedAt": "2026-06-14T16:43:39.502Z",
      "routeConfidence": "high"
    },
    {
      "id": 3424980709,
      "name": "關渡碼頭",
      "type": "bus",
      "city": "台北市",
      "district": "北投區",
      "lat": 25.1206909,
      "lng": 121.4622153,
      "routes": [
        "小23",
        "小23假日區間",
        "紅35"
      ],
      "routeCount": 3,
      "routeSource": "gtfs",
      "routeUpdatedAt": "2026-06-14T16:43:39.502Z",
      "routeConfidence": "high"
    },
    {
      "id": 3495094878,
      "name": "明德",
      "type": "metro",
      "city": "台北市",
      "district": "北投區",
      "lat": 25.1098593,
      "lng": 121.5187693,
      "lines": [
        "淡水信義線"
      ],
      "lineCount": 1,
      "lineSource": "gtfs",
      "lineUpdatedAt": "2026-06-14T16:43:39.502Z",
      "lineConfidence": "high"
    },
    {
      "id": 3495094879,
      "name": "石牌",
      "type": "metro",
      "city": "台北市",
      "district": "北投區",
      "lat": 25.1146071,
      "lng": 121.5155232,
      "lines": [
        "淡水信義線"
      ],
      "lineCount": 1,
      "lineSource": "gtfs",
      "lineUpdatedAt": "2026-06-14T16:43:39.502Z",
      "lineConfidence": "high"
    },
    {
      "id": 3495094880,
      "name": "唭哩岸",
      "type": "metro",
      "city": "台北市",
      "district": "北投區",
      "lat": 25.1209048,
      "lng": 121.5061304,
      "lines": [
        "淡水信義線"
      ],
      "lineCount": 1,
      "lineSource": "gtfs",
      "lineUpdatedAt": "2026-06-14T16:43:39.502Z",
      "lineConfidence": "high"
    },
    {
      "id": 3495094881,
      "name": "奇岩",
      "type": "metro",
      "city": "台北市",
      "district": "北投區",
      "lat": 25.1256031,
      "lng": 121.5011369,
      "lines": [
        "淡水信義線"
      ],
      "lineCount": 1,
      "lineSource": "gtfs",
      "lineUpdatedAt": "2026-06-14T16:43:39.502Z",
      "lineConfidence": "high"
    },
    {
      "id": 3495094882,
      "name": "北投",
      "type": "metro",
      "city": "台北市",
      "district": "北投區",
      "lat": 25.1319307,
      "lng": 121.4985934
    },
    {
      "id": 3495094883,
      "name": "復興崗",
      "type": "metro",
      "city": "台北市",
      "district": "北投區",
      "lat": 25.1374895,
      "lng": 121.4854979,
      "lines": [
        "淡水信義線"
      ],
      "lineCount": 1,
      "lineSource": "gtfs",
      "lineUpdatedAt": "2026-06-14T16:43:39.503Z",
      "lineConfidence": "high"
    },
    {
      "id": 3495094884,
      "name": "忠義",
      "type": "metro",
      "city": "台北市",
      "district": "北投區",
      "lat": 25.1309506,
      "lng": 121.473374,
      "lines": [
        "淡水信義線"
      ],
      "lineCount": 1,
      "lineSource": "gtfs",
      "lineUpdatedAt": "2026-06-14T16:43:39.503Z",
      "lineConfidence": "high"
    },
    {
      "id": 3495094885,
      "name": "關渡",
      "type": "metro",
      "city": "台北市",
      "district": "北投區",
      "lat": 25.1257006,
      "lng": 121.4671419,
      "lines": [
        "淡水信義線"
      ],
      "lineCount": 1,
      "lineSource": "gtfs",
      "lineUpdatedAt": "2026-06-14T16:43:39.503Z",
      "lineConfidence": "high"
    },
    {
      "id": 3659562793,
      "name": "捷運接駁車候車處",
      "type": "bus",
      "city": "台北市",
      "district": "北投區",
      "lat": 25.11645,
      "lng": 121.5236559
    },
    {
      "id": 3673618207,
      "name": "大度立德路口",
      "type": "bus",
      "city": "台北市",
      "district": "北投區",
      "lat": 25.1227545,
      "lng": 121.4704306,
      "routes": [
        "756",
        "757狗狗公車",
        "757路",
        "957",
        "淡水-國道1號-南港車站"
      ],
      "routeCount": 5,
      "routeSource": "gtfs",
      "routeUpdatedAt": "2026-06-14T16:43:39.503Z",
      "routeConfidence": "high"
    },
    {
      "id": 3673618209,
      "name": "建民里",
      "type": "bus",
      "city": "台北市",
      "district": "北投區",
      "lat": 25.1020441,
      "lng": 121.5124907,
      "routes": [
        "北環幹線繞駛士科路返程半"
      ],
      "routeCount": 1,
      "routeSource": "gtfs",
      "routeUpdatedAt": "2026-06-14T15:08:25.460Z",
      "routeConfidence": "high"
    },