{"city":"桃園市","district":"龜山區","category":"medical","updatedAt":"2026-06-10T15:41:05.166Z","rev":1,"count":81,"items":[{"id":1933346980,"name":"康是美","lat":25.0559348,"lng":121.3650151,"address":"333桃園市龜山區文化三路258號","hasBabyChanging":false,"hasAccessible":false,"source":"OpenStreetMap","updatedAt":"2026-06-10T15:41:05.166Z","facilityType":"pharmacy","facilityLabel":"💊 藥妝","phone":"+886 3 3278821","website":null,"wheelchair":false,"needsAddr":false},{"id":3423121541,"name":"屈臣氏","lat":25.0595879,"lng":121.3684977,"address":"桃園市龜山區復興一路80號","hasBabyChanging":false,"hasAccessible":false,"source":"OpenStreetMap","updatedAt":"2026-06-10T15:41:05.166Z","facilityType":"pharmacy","facilityLabel":"💊 藥妝","phone":null,"website":null,"wheelchair":false,"needsAddr":false},{"id":3423121542,"name":"長青藥局","lat":25.0595542,"lng":121.3684477,"address":"桃園市龜山區復興一路82號","hasBabyChanging":false,"hasAccessible":true,"source":"OpenStreetMap","updatedAt":"2026-06-10T15:41:05.166Z","facilityType":"pharmacy","facilityLabel":"💊 藥局","phone":null,"website":null,"wheelchair":true,"needsAddr":false},{"id":3423121548,"name":"康是美","lat":25.0596216,"lng":121.3685477,"address":"桃園市龜山區復興一路78號","hasBabyChanging":false,"hasAccessible":false,"source":"OpenStreetMap","updatedAt":"2026-06-10T15:41:05.166Z","facilityType":"pharmacy","facilityLabel":"💊 藥妝","phone":null,"website":null,"wheelchair":false,"needsAddr":false},{"id":3684910629,"name":"寶雅","lat":25.0594146,"lng":121.3651574,"address":"桃園市龜山區文化二路36號","hasBabyChanging":false,"hasAccessible":false,"source":"OpenStreetMap","updatedAt":"2026-06-10T15:41:05.166Z","facilityType":"pharmacy","facilityLabel":"💊 藥局","phone":null,"website":null,"wheelchair":false,"needsAddr":false},{"id":4153900224,"name":"屈臣氏","lat":25.0175213,"lng":121.4029656,"address":"333027桃園市龜山區萬壽路一段298號","hasBabyChanging":false,"hasAccessible":false,"source":"OpenStreetMap","updatedAt":"2026-06-10T15:41:05.166Z","facilityType":"pharmacy","facilityLabel":"💊 藥妝","phone":null,"website":null,"wheelchair":false,"needsAddr":false},{"id":4724187694,"name":"保健中心","lat":25.0324177,"lng":121.3911096,"address":null,"hasBabyChanging":false,"hasAccessible":false,"source":"OpenStreetMap","updatedAt":"2026-06-10T15:41:05.166Z","facilityType":"clinic","facilityLabel":"🩺 診所","phone":null,"website":null,"wheelchair":false,"needsAddr":true},{"id":5005108272,"name":"杏一","lat":25.0587488,"lng":121.3679264,"address":"桃園市龜山區復興一路108巷1號","hasBabyChanging":false,"hasAccessible":true,"source":"OpenStreetMap","updatedAt":"2026-06-10T15:41:05.166Z","facilityType":"pharmacy","facilityLabel":"💊 藥局","phone":null,"website":null,"wheelchair":true,"needsAddr":false},{"id":5314324317,"name":"泓泰牙醫診所","lat":24.9932343,"lng":121.3290882,"address":"桃園市龜山區萬壽路二段1242號","hasBabyChanging":false,"hasAccessible":false,"source":"OpenStreetMap","updatedAt":"2026-06-10T15:41:05.166Z","facilityType":"dentist","facilityLabel":"🦷 牙醫","phone":"+886-3-3192900","website":null,"wheelchair":false,"needsAddr":false},{"id":5342705782,"name":"樂誠診所","lat":25.0390733,"lng":121.388031,"address":"333613桃園市龜山區文青二路13號一樓","hasBabyChanging":false,"hasAccessible":false,"source":"OpenStreetMap","updatedAt":"2026-06-10T15:41:05.166Z","facilityType":"clinic","facilityLabel":"🩺 診所","phone":"+886 3 327 2703","website":"https://www.a7clinic.com/","wheelchair":false,"needsAddr":false},{"id":5352061874,"name":"新資生藥局","lat":24.9940328,"lng":121.3413639,"address":"桃園市龜山區自強東路1號","hasBabyChanging":false,"hasAccessible":false,"source":"OpenStreetMap","updatedAt":"2026-06-10T15:41:05.166Z","facilityType":"pharmacy","facilityLabel":"💊 藥局","phone":null,"website":null,"wheelchair":false,"needsAddr":false},{"id":5451036095,"name":"凱悅藥局","lat":25.0588658,"lng":121.3674391,"address":null,"hasBabyChanging":false,"hasAccessible":false,"source":"OpenStreetMap","updatedAt":"2026-06-10T15:41:05.166Z","facilityType":"pharmacy","facilityLabel":"💊 藥局","phone":null,"website":null,"wheelchair":false,"needsAddr":true},{"id":5542942109,"name":"德馨診所","lat":25.0547093,"lng":121.375995,"address":null,"hasBabyChanging":false,"hasAccessible":false,"source":"OpenStreetMap","updatedAt":"2026-06-10T15:41:05.166Z","facilityType":"clinic","facilityLabel":"🩺 診所","phone":null,"website":null,"wheelchair":false,"needsAddr":true},{"id":5709118734,"name":"蒲公英牙醫診所","lat":25.0588616,"lng":121.3694712,"address":null,"hasBabyChanging":false,"hasAccessible":false,"source":"OpenStreetMap","updatedAt":"2026-06-10T15:41:05.166Z","facilityType":"dentist","facilityLabel":"🦷 牙醫","phone":null,"website":null,"wheelchair":false,"needsAddr":true},{"id":5916558935,"name":"日安親子診所","lat":25.058973,"lng":121.3700135,"address":null,"hasBabyChanging":false,"hasAccessible":false,"source":"OpenStreetMap","updatedAt":"2026-06-10T15:41:05.166Z","facilityType":"clinic","facilityLabel":"🩺 診所","phone":null,"website":null,"wheelchair":false,"needsAddr":true},{"id":5916559200,"name":"悅兒親子中醫診所","lat":25.059221,"lng":121.3703533,"address":null,"hasBabyChanging":false,"hasAccessible":false,"source":"OpenStreetMap","updatedAt":"2026-06-10T15:41:05.166Z","facilityType":"clinic","facilityLabel":"🩺 診所","phone":null,"website":null,"wheelchair":false,"needsAddr":true},{"id":5961009103,"name":"長春藤牙醫診所","lat":25.0602898,"lng":121.364165,"address":null,"hasBabyChanging":false,"hasAccessible":false,"source":"OpenStreetMap","updatedAt":"2026-06-10T15:41:05.166Z","facilityType":"dentist","facilityLabel":"🦷 牙醫","phone":null,"website":null,"wheelchair":false,"needsAddr":true},{"id":6303089842,"name":"大樹藥局","lat":25.0592067,"lng":121.3679457,"address":null,"hasBabyChanging":false,"hasAccessible":false,"source":"OpenStreetMap","updatedAt":"2026-06-10T15:41:05.166Z","facilityType":"pharmacy","facilityLabel":"💊 藥局","phone":null,"website":"https://www.greattree.com.tw","wheelchair":false,"needsAddr":true},{"id":6478561428,"name":"樂心牙醫","lat":25.0186913,"lng":121.4052415,"address":"333026桃園市龜山區龍鳳街21號一樓","hasBabyChanging":false,"hasAccessible":false,"source":"OpenStreetMap","updatedAt":"2026-06-10T15:41:05.166Z","facilityType":"dentist","facilityLabel":"🦷 牙醫","phone":"+886 2 8200 8696","website":null,"wheelchair":false,"needsAddr":false},{"id":6682350577,"name":"育康連鎖藥局","lat":24.9938168,"lng":121.3378111,"address":"333桃園市龜山區中興路一段22號","hasBabyChanging":false,"hasAccessible":false,"source":"OpenStreetMap","updatedAt":"2026-06-10T15:41:05.166Z","facilityType":"pharmacy","facilityLabel":"💊 藥局","phone":null,"website":null,"wheelchair":false,"needsAddr":false},{"id":6682376790,"name":"康是美","lat":24.9937895,"lng":121.3377314,"address":"333桃園市龜山區中興路一段14;16號","hasBabyChanging":false,"hasAccessible":false,"source":"OpenStreetMap","updatedAt":"2026-06-10T15:41:05.166Z","facilityType":"pharmacy","facilityLabel":"💊 藥妝","phone":null,"website":null,"wheelchair":false,"needsAddr":false},{"id":7108404363,"name":"安博氏藥師藥局","lat":25.0403411,"lng":121.3881441,"address":"桃園市龜山區文青路185號","hasBabyChanging":false,"hasAccessible":false,"source":"OpenStreetMap","updatedAt":"2026-06-10T15:41:05.166Z","facilityType":"pharmacy","facilityLabel":"💊 藥局","phone":null,"website":null,"wheelchair":false,"needsAddr":false},{"id":7314808935,"name":"安得福藥局","lat":25.0172814,"lng":121.4034403,"address":"333027桃園市龜山區萬壽路一段281號一樓","hasBabyChanging":false,"hasAccessible":false,"source":"OpenStreetMap","updatedAt":"2026-06-10T15:41:05.166Z","facilityType":"pharmacy","facilityLabel":"💊 藥局","phone":"+886 2 8200 1467","website":null,"wheelchair":false,"needsAddr":false},{"id":8000247921,"name":"劉建宏診所","lat":25.0534259,"lng":121.3611012,"address":"333桃園市龜山區文化七路31號一樓","hasBabyChanging":false,"hasAccessible":false,"source":"OpenStreetMap","updatedAt":"2026-06-10T15:41:05.166Z","facilityType":"clinic","facilityLabel":"🩺 診所","phone":null,"website":null,"wheelchair":false,"needsAddr":false},{"id":8561295974,"name":"卓越耳鼻喉科聯合診所","lat":25.0190265,"lng":121.409093,"address":"333027桃園市龜山區萬壽路一段107號一樓","hasBabyChanging":false,"hasAccessible":true,"source":"OpenStreetMap","updatedAt":"2026-06-10T15:41:05.166Z","facilityType":"clinic","facilityLabel":"👂 耳鼻喉科","phone":"+886 2 8200 0580","website":"https://www.facebook.com/excellENTclinic/","wheelchair":true,"needsAddr":false},{"id":8561295975,"name":"樂樂聯合藥局","lat":25.0189633,"lng":121.4090921,"address":"333027桃園市龜山區萬壽路一段109號二樓","hasBabyChanging":false,"hasAccessible":false,"source":"OpenStreetMap","updatedAt":"2026-06-10T15:41:05.166Z","facilityType":"pharmacy","facilityLabel":"💊 藥局","phone":"+886 8200 0560","website":null,"wheelchair":false,"needsAddr":false},{"id":8711737997,"name":"維康醫療用品","lat":25.0592649,"lng":121.3680449,"address":null,"hasBabyChanging":false,"hasAccessible":false,"source":"OpenStreetMap","updatedAt":"2026-06-10T15:41:05.166Z","facilityType":"pharmacy","facilityLabel":"💊 藥局","phone":null,"website":null,"wheelchair":false,"needsAddr":true},{"id":8711737998,"name":"杏一藥局","lat":25.0593518,"lng":121.3681478,"address":null,"hasBabyChanging":false,"hasAccessible":false,"source":"OpenStreetMap","updatedAt":"2026-06-10T15:41:05.166Z","facilityType":"pharmacy","facilityLabel":"💊 藥局","phone":null,"website":null,"wheelchair":false,"needsAddr":true},{"id":8711737999,"name":"維康藥局","lat":25.059453,"lng":121.3682977,"address":null,"hasBabyChanging":false,"hasAccessible":false,"source":"OpenStreetMap","updatedAt":"2026-06-10T15:41:05.166Z","facilityType":"pharmacy","facilityLabel":"💊 藥局","phone":null,"website":null,"wheelchair":false,"needsAddr":true},{"id":8711951158,"name":"杏一藥局","lat":25.0624062,"lng":121.3684654,"address":null,"hasBabyChanging":false,"hasAccessible":false,"source":"OpenStreetMap","updatedAt":"2026-06-10T15:41:05.166Z","facilityType":"pharmacy","facilityLabel":"💊 藥局","phone":null,"website":null,"wheelchair":false,"needsAddr":true},{"id":9442788088,"name":"顏福順診所","lat":24.9914977,"lng":121.323038,"address":null,"hasBabyChanging":false,"hasAccessible":false,"source":"OpenStreetMap","updatedAt":"2026-06-10T15:41:05.166Z","facilityType":"clinic","facilityLabel":"🩺 診所","phone":null,"website":null,"wheelchair":false,"needsAddr":true},{"id":9481371987,"name":"德恩診所","lat":24.9956957,"lng":121.3401635,"address":null,"hasBabyChanging":false,"hasAccessible":false,"source":"OpenStreetMap","updatedAt":"2026-06-10T15:41:05.166Z","facilityType":"clinic","facilityLabel":"🩺 診所","phone":null,"website":null,"wheelchair":false,"needsAddr":true},{"id":9481371988,"name":"蕭大章小兒科診所","lat":24.9951593,"lng":121.337126,"address":null,"hasBabyChanging":false,"hasAccessible":false,"source":"OpenStreetMap","updatedAt":"2026-06-10T15:41:05.166Z","facilityType":"clinic","facilityLabel":"👶 小兒科","phone":null,"website":null,"wheelchair":false,"needsAddr":true},{"id":9481371989,"name":"黃博駿耳鼻喉科診所","lat":24.9951789,"lng":121.3371924,"address":null,"hasBabyChanging":false,"hasAccessible":false,"source":"OpenStreetMap","updatedAt":"2026-06-10T15:41:05.166Z","facilityType":"clinic","facilityLabel":"👂 耳鼻喉科","phone":null,"website":null,"wheelchair":false,"needsAddr":true},{"id":9481371990,"name":"遠東耳鼻喉科診所","lat":24.9947195,"lng":121.3367708,"address":null,"hasBabyChanging":false,"hasAccessible":false,"source":"OpenStreetMap","updatedAt":"2026-06-10T15:41:05.166Z","facilityType":"clinic","facilityLabel":"👂 耳鼻喉科","phone":null,"website":null,"wheelchair":false,"needsAddr":true},{"id":9481371991,"name":"連淑芳小兒科診所","lat":24.9951226,"lng":121.3377747,"address":null,"hasBabyChanging":false,"hasAccessible":false,"source":"OpenStreetMap","updatedAt":"2026-06-10T15:41:05.166Z","facilityType":"clinic","facilityLabel":"👶 小兒科","phone":null,"website":null,"wheelchair":false,"needsAddr":true},{"id":9481371993,"name":"長春動物醫院","lat":24.9953952,"lng":121.3378184,"address":null,"hasBabyChanging":false,"hasAccessible":false,"source":"OpenStreetMap","updatedAt":"2026-06-10T15:41:05.166Z","facilityType":"vet","facilityLabel":"🐾 動物醫院","phone":null,"website":null,"wheelchair":false,"needsAddr":true},{"id":9481371994,"name":"大明醫院","lat":24.9953755,"lng":121.3377438,"address":"桃園市龜山區龜山里9鄰萬壽路二段964號","hasBabyChanging":false,"hasAccessible":false,"source":"OpenStreetMap","updatedAt":"2026-06-10T15:41:05.166Z","facilityType":"hospital","facilityLabel":"🏥 醫院","phone":null,"website":null,"wheelchair":false,"needsAddr":false},{"id":9481371995,"name":"許忠信小兒科診所","lat":24.9938544,"lng":121.3342437,"address":null,"hasBabyChanging":false,"hasAccessible":false,"source":"OpenStreetMap","updatedAt":"2026-06-10T15:41:05.166Z","facilityType":"clinic","facilityLabel":"👶 小兒科","phone":null,"website":null,"wheelchair":false,"needsAddr":true},{"id":9481371998,"name":"周光偉診所","lat":24.9940145,"lng":121.3344087,"address":null,"hasBabyChanging":false,"hasAccessible":false,"source":"OpenStreetMap","updatedAt":"2026-06-10T15:41:05.166Z","facilityType":"clinic","facilityLabel":"🩺 診所","phone":null,"website":null,"wheelchair":false,"needsAddr":true},{"id":9481372000,"name":"新資生藥局","lat":24.9916895,"lng":121.3352376,"address":null,"hasBabyChanging":false,"hasAccessible":false,"source":"OpenStreetMap","updatedAt":"2026-06-10T15:41:05.166Z","facilityType":"pharmacy","facilityLabel":"💊 藥局","phone":null,"website":null,"wheelchair":false,"needsAddr":true},{"id":9481372001,"name":"朱永恆小兒科診所","lat":24.9919546,"lng":121.335024,"address":null,"hasBabyChanging":false,"hasAccessible":false,"source":"OpenStreetMap","updatedAt":"2026-06-10T15:41:05.166Z","facilityType":"clinic","facilityLabel":"👶 小兒科","phone":null,"website":null,"wheelchair":false,"needsAddr":true},{"id":9481372002,"name":"吳奕宏診所","lat":24.9907984,"lng":121.3345333,"address":null,"hasBabyChanging":false,"hasAccessible":false,"source":"OpenStreetMap","updatedAt":"2026-06-10T15:41:05.166Z","facilityType":"clinic","facilityLabel":"🩺 診所","phone":null,"website":null,"wheelchair":false,"needsAddr":true},{"id":9481372004,"name":"吳天聰診所","lat":24.9908775,"lng":121.3338281,"address":null,"hasBabyChanging":false,"hasAccessible":false,"source":"OpenStreetMap","updatedAt":"2026-06-10T15:41:05.166Z","facilityType":"clinic","facilityLabel":"🩺 診所","phone":null,"website":null,"wheelchair":false,"needsAddr":true},{"id":9481372005,"name":"陳皮膚科診所","lat":24.9907352,"lng":121.3341245,"address":null,"hasBabyChanging":false,"hasAccessible":false,"source":"OpenStreetMap","updatedAt":"2026-06-10T15:41:05.166Z","facilityType":"clinic","facilityLabel":"🩺 診所","phone":null,"website":null,"wheelchair":false,"needsAddr":true},{"id":9553906590,"name":"潔白牙醫診所","lat":25.0168362,"lng":121.4003249,"address":"333026桃園市龜山區萬壽路一段394號","hasBabyChanging":false,"hasAccessible":false,"source":"OpenStreetMap","updatedAt":"2026-06-10T15:41:05.166Z","facilityType":"dentist","facilityLabel":"🦷 牙醫","phone":null,"website":null,"wheelchair":false,"needsAddr":false},{"id":9596383881,"name":"梵谷美學牙醫診所","lat":25.0475897,"lng":121.2995708,"address":null,"hasBabyChanging":false,"hasAccessible":false,"source":"OpenStreetMap","updatedAt":"2026-06-10T15:41:05.166Z","facilityType":"dentist","facilityLabel":"🦷 牙醫","phone":null,"website":null,"wheelchair":false,"needsAddr":true},{"id":9669905881,"name":"現代聯合診所","lat":25.046313,"lng":121.2973694,"address":"桃園市龜山區南祥路40號","hasBabyChanging":false,"hasAccessible":false,"source":"OpenStreetMap","updatedAt":"2026-06-10T15:41:05.166Z","facilityType":"clinic","facilityLabel":"🩺 診所","phone":null,"website":null,"wheelchair":false,"needsAddr":false},{"id":9669905882,"name":"現代皮膚科診所","lat":25.0461578,"lng":121.2970848,"address":"桃園市龜山區南祥路38號","hasBabyChanging":false,"hasAccessible":false,"source":"OpenStreetMap","updatedAt":"2026-06-10T15:41:05.166Z","facilityType":"clinic","facilityLabel":"🩺 診所","phone":null,"website":null,"wheelchair":false,"needsAddr":false},{"id":9669905883,"name":"維格皮膚科診所","lat":25.0464969,"lng":121.2977408,"address":"桃園市龜山區南祥路54號","hasBabyChanging":false,"hasAccessible":false,"source":"OpenStreetMap","updatedAt":"2026-06-10T15:41:05.166Z","facilityType":"clinic","facilityLabel":"🩺 診所","phone":null,"website":null,"wheelchair":false,"needsAddr":false},{"id":9669905884,"name":"正光牙醫診所","lat":25.0466521,"lng":121.297488,"address":"桃園市龜山區南祥路55號","hasBabyChanging":false,"hasAccessible":false,"source":"OpenStreetMap","updatedAt":"2026-06-10T15:41:05.166Z","facilityType":"dentist","facilityLabel":"🦷 牙醫","phone":null,"website":null,"wheelchair":false,"needsAddr":false},{"id":9669905885,"name":"瑞安眼科診所","lat":25.0464192,"lng":121.2976275,"address":"桃園市龜山區南祥路55號","hasBabyChanging":false,"hasAccessible":false,"source":"OpenStreetMap","updatedAt":"2026-06-10T15:41:05.166Z","facilityType":"clinic","facilityLabel":"🩺 診所","phone":null,"website":null,"wheelchair":false,"needsAddr":false},{"id":9669905886,"name":"安庚聯合診所","lat":25.046335,"lng":121.2977756,"address":"桃園市龜山區南祥路50號","hasBabyChanging":false,"hasAccessible":false,"source":"OpenStreetMap","updatedAt":"2026-06-10T15:41:05.166Z","facilityType":"clinic","facilityLabel":"🩺 診所","phone":null,"website":null,"wheelchair":false,"needsAddr":false},{"id":9669905887,"name":"大樹藥局","lat":25.0463969,"lng":121.2975098,"address":"333015桃園市龜山區南祥路46號","hasBabyChanging":false,"hasAccessible":false,"source":"OpenStreetMap","updatedAt":"2026-06-10T15:41:05.166Z","facilityType":"pharmacy","facilityLabel":"💊 藥局","phone":"+886 3 222 7733","website":"https://www.greattree.com.tw","wheelchair":false,"needsAddr":false},{"id":9734578192,"name":"卓越內科診所","lat":25.0189947,"lng":121.4090578,"address":"333027桃園市龜山區萬壽路一段109號","hasBabyChanging":false,"hasAccessible":true,"source":"OpenStreetMap","updatedAt":"2026-06-10T15:41:05.166Z","facilityType":"clinic","facilityLabel":"🩺 診所","phone":"+886 2 8200 0151","website":"https://www.facebook.com/GI109/","wheelchair":true,"needsAddr":false},{"id":10074178837,"name":"康是美","lat":25.0395781,"lng":121.3909163,"address":"333桃園市龜山區文青里文青路335號二樓","hasBabyChanging":false,"hasAccessible":false,"source":"OpenStreetMap","updatedAt":"2026-06-10T15:41:05.166Z","facilityType":"pharmacy","facilityLabel":"💊 藥妝","phone":null,"website":null,"wheelchair":false,"needsAddr":false},{"id":10076733742,"name":"聚英眼科","lat":25.0567292,"lng":121.3641127,"address":null,"hasBabyChanging":false,"hasAccessible":false,"source":"OpenStreetMap","updatedAt":"2026-06-10T15:41:05.166Z","facilityType":"clinic","facilityLabel":"🩺 診所","phone":null,"website":null,"wheelchair":false,"needsAddr":true},{"id":10080250280,"name":"牙醫診所","lat":25.0565622,"lng":121.3650148,"address":"桃園市龜山區文化三路 11","hasBabyChanging":false,"hasAccessible":false,"source":"OpenStreetMap","updatedAt":"2026-06-10T15:41:05.166Z","facilityType":"dentist","facilityLabel":"🦷 牙醫","phone":null,"website":null,"wheelchair":false,"needsAddr":false},{"id":10094986711,"name":"左外野藥局","lat":25.0547748,"lng":121.3803616,"address":null,"hasBabyChanging":false,"hasAccessible":false,"source":"OpenStreetMap","updatedAt":"2026-06-10T15:41:05.166Z","facilityType":"pharmacy","facilityLabel":"💊 藥局","phone":null,"website":null,"wheelchair":false,"needsAddr":true},{"id":10271571679,"name":"藥局","lat":25.063072,"lng":121.3668975,"address":null,"hasBabyChanging":false,"hasAccessible":false,"source":"OpenStreetMap","updatedAt":"2026-06-10T15:41:05.166Z","facilityType":"pharmacy","facilityLabel":"💊 藥局","phone":null,"website":null,"wheelchair":false,"needsAddr":true},{"id":10271633614,"name":"MAICO","lat":25.0632105,"lng":121.3667366,"address":null,"hasBabyChanging":false,"hasAccessible":false,"source":"OpenStreetMap","updatedAt":"2026-06-10T15:41:05.166Z","facilityType":"pharmacy","facilityLabel":"💊 藥局","phone":null,"website":null,"wheelchair":false,"needsAddr":true},{"id":10271658883,"name":"阿原","lat":25.0630167,"lng":121.3668177,"address":null,"hasBabyChanging":false,"hasAccessible":false,"source":"OpenStreetMap","updatedAt":"2026-06-10T15:41:05.166Z","facilityType":"pharmacy","facilityLabel":"💊 藥局","phone":null,"website":null,"wheelchair":false,"needsAddr":true},{"id":10271658884,"name":"MEKO","lat":25.0630987,"lng":121.3667352,"address":null,"hasBabyChanging":false,"hasAccessible":false,"source":"OpenStreetMap","updatedAt":"2026-06-10T15:41:05.166Z","facilityType":"pharmacy","facilityLabel":"💊 藥局","phone":null,"website":null,"wheelchair":false,"needsAddr":true},{"id":10875231921,"name":"合群骨科診所","lat":24.9933019,"lng":121.3315843,"address":"桃園市龜山區萬壽路二段1191-3號","hasBabyChanging":false,"hasAccessible":false,"source":"OpenStreetMap","updatedAt":"2026-06-10T15:41:05.166Z","facilityType":"clinic","facilityLabel":"🩺 診所","phone":null,"website":null,"wheelchair":false,"needsAddr":false},{"id":11144353977,"name":"家佑藥師藥局","lat":25.0603991,"lng":121.3644038,"address":null,"hasBabyChanging":false,"hasAccessible":false,"source":"OpenStreetMap","updatedAt":"2026-06-10T15:41:05.166Z","facilityType":"pharmacy","facilityLabel":"💊 藥局","phone":null,"website":null,"wheelchair":false,"needsAddr":true},{"id":11629370522,"name":"唯新婦嬰藥妝","lat":25.0586031,"lng":121.3638227,"address":null,"hasBabyChanging":false,"hasAccessible":false,"source":"OpenStreetMap","updatedAt":"2026-06-10T15:41:05.166Z","facilityType":"pharmacy","facilityLabel":"💊 藥局","phone":null,"website":null,"wheelchair":false,"needsAddr":true},{"id":11633946406,"name":"廣欣中醫診所","lat":25.0585824,"lng":121.3628551,"address":"桃園市龜山區文化三路68號","hasBabyChanging":false,"hasAccessible":false,"source":"OpenStreetMap","updatedAt":"2026-06-10T15:41:05.166Z","facilityType":"clinic","facilityLabel":"🩺 診所","phone":null,"website":"https://gxcapp.tcm.tw","wheelchair":false,"needsAddr":false},{"id":12181719803,"name":"無尾熊診所","lat":25.0410825,"lng":121.3897195,"address":"桃園市龜山區文青里30鄰文學路259號","hasBabyChanging":false,"hasAccessible":false,"source":"OpenStreetMap","updatedAt":"2026-06-10T15:41:05.166Z","facilityType":"clinic","facilityLabel":"👂 耳鼻喉科","phone":"+886 3 327 8068","website":null,"wheelchair":false,"needsAddr":false},{"id":12553393588,"name":"大樹藥局","lat":25.0172024,"lng":121.4031997,"address":"333027桃園市龜山區萬壽路一段287號一樓","hasBabyChanging":false,"hasAccessible":false,"source":"OpenStreetMap","updatedAt":"2026-06-10T15:41:05.166Z","facilityType":"pharmacy","facilityLabel":"💊 藥局","phone":"+886 2 8200 0212","website":null,"wheelchair":false,"needsAddr":false},{"id":12603212045,"name":"新資生連鎖藥局","lat":25.0403927,"lng":121.3889829,"address":"333613桃園市龜山區文青路209號","hasBabyChanging":false,"hasAccessible":false,"source":"OpenStreetMap","updatedAt":"2026-06-10T15:41:05.166Z","facilityType":"pharmacy","facilityLabel":"💊 藥局","phone":null,"website":null,"wheelchair":false,"needsAddr":false},{"id":12603212080,"name":"盛民藥局","lat":25.040412,"lng":121.3863057,"address":"333613桃園市龜山區文青路131號一樓","hasBabyChanging":false,"hasAccessible":false,"source":"OpenStreetMap","updatedAt":"2026-06-10T15:41:05.166Z","facilityType":"pharmacy","facilityLabel":"💊 藥局","phone":null,"website":null,"wheelchair":false,"needsAddr":false},{"id":13325931898,"name":"星野牙醫診所","lat":25.0175719,"lng":121.4046132,"address":"333027桃園市龜山區萬壽路一段249號一樓","hasBabyChanging":false,"hasAccessible":false,"source":"OpenStreetMap","updatedAt":"2026-06-10T15:41:05.166Z","facilityType":"dentist","facilityLabel":"🦷 牙醫","phone":null,"website":null,"wheelchair":false,"needsAddr":false},{"id":13713614001,"name":"鴻興診所","lat":24.9923706,"lng":121.3355489,"address":"桃園市龜山區中興路377號","hasBabyChanging":false,"hasAccessible":false,"source":"OpenStreetMap","updatedAt":"2026-06-10T15:41:05.166Z","facilityType":"clinic","facilityLabel":"🩺 診所","phone":null,"website":null,"wheelchair":false,"needsAddr":false},{"id":182680760,"name":"林口長庚紀念醫院","lat":25.0607996,"lng":121.3672792,"address":"333桃園市龜山區復興街5號","hasBabyChanging":false,"hasAccessible":true,"source":"OpenStreetMap","updatedAt":"2026-06-10T15:41:05.166Z","facilityType":"hospital","facilityLabel":"🏥 醫院","phone":null,"website":null,"wheelchair":true,"needsAddr":false},{"id":241490134,"name":"樂生療養院迴龍院區","lat":25.0205038,"lng":121.4081529,"address":"333027桃園市龜山區迴龍里萬壽路一段50巷2號","hasBabyChanging":false,"hasAccessible":true,"source":"OpenStreetMap","updatedAt":"2026-06-10T15:41:05.166Z","facilityType":"hospital","facilityLabel":"🏥 醫院","phone":null,"website":"http://www.lslp.mohw.gov.tw/","wheelchair":true,"needsAddr":false},{"id":405635610,"name":"桃園長庚紀念醫院","lat":25.0295436,"lng":121.3664407,"address":"333桃園市龜山區頂湖路123號","hasBabyChanging":false,"hasAccessible":false,"source":"OpenStreetMap","updatedAt":"2026-06-10T15:41:05.166Z","facilityType":"hospital","facilityLabel":"🏥 醫院","phone":"+886 3 319 6200","website":null,"wheelchair":false,"needsAddr":false},{"id":447950993,"name":"永慶尖端醫療園區","lat":25.0630194,"lng":121.3707653,"address":null,"hasBabyChanging":false,"hasAccessible":false,"source":"OpenStreetMap","updatedAt":"2026-06-10T15:41:05.166Z","facilityType":"hospital","facilityLabel":"🏥 醫院","phone":null,"website":"https://www1.cgmh.org.tw/intr/intr2/c33e0/shouxie.html","wheelchair":false,"needsAddr":true},{"id":448595331,"name":"桃園長庚醫院護理之家","lat":25.0160257,"lng":121.3672254,"address":null,"hasBabyChanging":false,"hasAccessible":false,"source":"OpenStreetMap","updatedAt":"2026-06-10T15:41:05.166Z","facilityType":"hospital","facilityLabel":"🏥 醫院","phone":null,"website":null,"wheelchair":false,"needsAddr":true},{"id":554581837,"name":"龜山區衛生所","lat":24.9914694,"lng":121.3384565,"address":null,"hasBabyChanging":false,"hasAccessible":false,"source":"OpenStreetMap","updatedAt":"2026-06-10T15:41:05.166Z","facilityType":"health_center","facilityLabel":"🏥 衛生所","phone":null,"website":null,"wheelchair":false,"needsAddr":true},{"id":1028414665,"name":"寶雅","lat":24.9968318,"lng":121.3427524,"address":"桃園市龜山區萬壽路二段769巷1號","hasBabyChanging":false,"hasAccessible":false,"source":"OpenStreetMap","updatedAt":"2026-06-10T15:41:05.166Z","facilityType":"pharmacy","facilityLabel":"💊 藥局","phone":null,"website":null,"wheelchair":false,"needsAddr":false},{"id":1052219678,"name":"寶雅","lat":25.0464715,"lng":121.2967929,"address":"桃園市龜山區南祥路29號","hasBabyChanging":false,"hasAccessible":false,"source":"OpenStreetMap","updatedAt":"2026-06-10T15:41:05.166Z","facilityType":"pharmacy","facilityLabel":"💊 藥局","phone":null,"website":null,"wheelchair":false,"needsAddr":false}]}