{
  "city": "彰化縣",
  "district": "二林鎮",
  "category": "transport",
  "updatedAt": "2026-06-11T16:04:46.906Z",
  "rev": 1,
  "count": 48,
  "items": [
    {
      "id": 4002704372,
      "name": "代馬",
      "type": "bus",
      "city": "彰化縣",
      "district": "二林鎮",
      "lat": 23.9545692,
      "lng": 120.4441757,
      "routes": [
        "19路",
        "20路",
        "20路延－B",
        "6713",
        "6714",
        "6736",
        "6736A",
        "6737",
        "6737B",
        "6738",
        "6738A",
        "6738B",
        "6738C",
        "6738D",
        "6738E"
      ],
      "routeCount": 15,
      "routeSource": "gtfs",
      "routeUpdatedAt": "2026-06-14T16:43:40.857Z",
      "routeConfidence": "high"
    },
    {
      "id": 4003559875,
      "name": "消防隊",
      "type": "bus",
      "city": "彰化縣",
      "district": "二林鎮",
      "lat": 23.9027694,
      "lng": 120.3772598,
      "routes": [
        "6713",
        "6714",
        "6736",
        "6736A",
        "6737",
        "6737B",
        "6738",
        "6738A",
        "6738B",
        "6738C",
        "6738D",
        "6738E"
      ],
      "routeCount": 12,
      "routeSource": "gtfs",
      "routeUpdatedAt": "2026-06-14T16:43:40.858Z",
      "routeConfidence": "high"
    },
    {
      "id": 4659692618,
      "name": "公車站",
      "type": "bus",
      "city": "彰化縣",
      "district": "二林鎮",
      "lat": 23.9524332,
      "lng": 120.440039
    },
    {
      "id": 4659692619,
      "name": "新宏昇",
      "type": "bus",
      "city": "彰化縣",
      "district": "二林鎮",
      "lat": 23.9531147,
      "lng": 120.4347075,
      "routes": [
        "6713",
        "6714",
        "6736",
        "6736A",
        "6737",
        "6737B",
        "6738",
        "6738A",
        "6738B",
        "6738C",
        "6738D",
        "6738E"
      ],
      "routeCount": 12,
      "routeSource": "gtfs",
      "routeUpdatedAt": "2026-06-14T16:43:40.858Z",
      "routeConfidence": "high"
    },
    {
      "id": 4659692621,
      "name": "挖仔",
      "type": "bus",
      "city": "彰化縣",
      "district": "二林鎮",
      "lat": 23.9522408,
      "lng": 120.4388132,
      "routes": [
        "19路",
        "20路",
        "20路延－B",
        "1630",
        "1630A",
        "6713",
        "6714",
        "6736",
        "6736A",
        "6737",
        "6737B",
        "6738",
        "6738A",
        "6738B",
        "6738C",
        "6738D",
        "6738E"
      ],
      "routeCount": 17,
      "routeSource": "gtfs",
      "routeUpdatedAt": "2026-06-14T16:43:40.859Z",
      "routeConfidence": "high"
    },
    {
      "id": 4659692680,
      "name": "竹寮",
      "type": "bus",
      "city": "彰化縣",
      "district": "二林鎮",
      "lat": 23.9578157,
      "lng": 120.4043435,
      "routes": [
        "6713",
        "6714",
        "6736",
        "6736A",
        "6737",
        "6737B",
        "6738",
        "6738A",
        "6738B",
        "6738C",
        "6738D",
        "6738E"
      ],
      "routeCount": 12,
      "routeSource": "gtfs",
      "routeUpdatedAt": "2026-06-14T16:43:40.859Z",
      "routeConfidence": "high"
    },
    {
      "id": 4736355295,
      "name": "原斗",
      "type": "bus",
      "city": "彰化縣",
      "district": "二林鎮",
      "lat": 23.897001,
      "lng": 120.4255634
    },
    {
      "id": 4736355297,
      "name": "公車站",
      "type": "bus",
      "city": "彰化縣",
      "district": "二林鎮",
      "lat": 23.8965166,
      "lng": 120.4296973
    },
    {
      "id": 4736355300,
      "name": "清水橋",
      "type": "bus",
      "city": "彰化縣",
      "district": "二林鎮",
      "lat": 23.8958938,
      "lng": 120.4339567,
      "routes": [
        "6709"
      ],
      "routeCount": 1,
      "routeSource": "gtfs",
      "routeUpdatedAt": "2026-06-14T16:43:40.859Z",
      "routeConfidence": "high"
    },
    {
      "id": 4736379252,
      "name": "舊丈八斗",
      "type": "bus",
      "city": "彰化縣",
      "district": "二林鎮",
      "lat": 23.8978173,
      "lng": 120.4111612,
      "routes": [
        "6709"
      ],
      "routeCount": 1,
      "routeSource": "gtfs",
      "routeUpdatedAt": "2026-06-14T16:43:40.859Z",
      "routeConfidence": "high"
    },
    {
      "id": 4736411479,
      "name": "衛生所",
      "type": "bus",
      "city": "彰化縣",
      "district": "二林鎮",
      "lat": 23.8994954,
      "lng": 120.3731502,
      "routes": [
        "6707",
        "6709",
        "6713",
        "6714",
        "6736",
        "6736A",
        "6737",
        "6737B",
        "6738",
        "6738A",
        "6738B",
        "6738C",
        "6738D",
        "6738E"
      ],
      "routeCount": 14,
      "routeSource": "gtfs",
      "routeUpdatedAt": "2026-06-14T16:43:40.859Z",
      "routeConfidence": "high"
    },
    {
      "id": 4736411481,
      "name": "二林工商",
      "type": "bus",
      "city": "彰化縣",
      "district": "二林鎮",
      "lat": 23.8993749,
      "lng": 120.3773969,
      "routes": [
        "6707",
        "6709",
        "6713",
        "6714",
        "6736",
        "6736A",
        "6737",
        "6737B",
        "6738",
        "6738A",
        "6738C",
        "6738D",
        "6738E"
      ],
      "routeCount": 13,
      "routeSource": "gtfs",
      "routeUpdatedAt": "2026-06-14T15:08:26.207Z",
      "routeConfidence": "high"
    },
    {
      "id": 4736411482,
      "name": "二林工商",
      "type": "bus",
      "city": "彰化縣",
      "district": "二林鎮",
      "lat": 23.8995907,
      "lng": 120.3763321,
      "routes": [
        "19路",
        "20路",
        "20路延－B",
        "6707",
        "6709",
        "6713",
        "6714",
        "6736",
        "6736A",
        "6737",
        "6737B",
        "6738",
        "6738A",
        "6738B",
        "6738C",
        "6738D",
        "6738E"
      ],
      "routeCount": 17,
      "routeSource": "gtfs",
      "routeUpdatedAt": "2026-06-14T16:43:40.860Z",
      "routeConfidence": "high"
    },
    {
      "id": 4736411508,
      "name": "金瓜寮",
      "type": "bus",
      "city": "彰化縣",
      "district": "二林鎮",
      "lat": 23.8992277,
      "lng": 120.3814627,
      "routes": [
        "6707",
        "6709"
      ],
      "routeCount": 2,
      "routeSource": "gtfs",
      "routeUpdatedAt": "2026-06-14T15:08:26.208Z",
      "routeConfidence": "high"
    },
    {
      "id": 4736411516,
      "name": "下後厝",
      "type": "bus",
      "city": "彰化縣",
      "district": "二林鎮",
      "lat": 23.898771,
      "lng": 120.3872479,
      "routes": [
        "6709"
      ],
      "routeCount": 1,
      "routeSource": "gtfs",
      "routeUpdatedAt": "2026-06-14T16:43:40.860Z",
      "routeConfidence": "high"
    },
    {
      "id": 4736412321,
      "name": "後厝里",
      "type": "bus",
      "city": "彰化縣",
      "district": "二林鎮",
      "lat": 23.8980408,
      "lng": 120.3957316,
      "routes": [
        "6709"
      ],
      "routeCount": 1,
      "routeSource": "gtfs",
      "routeUpdatedAt": "2026-06-14T16:43:40.860Z",
      "routeConfidence": "high"
    },
    {
      "id": 4736412323,
      "name": "塗人厝",
      "type": "bus",
      "city": "彰化縣",
      "district": "二林鎮",
      "lat": 23.8980318,
      "lng": 120.4024159,
      "routes": [
        "6709"
      ],
      "routeCount": 1,
      "routeSource": "gtfs",
      "routeUpdatedAt": "2026-06-14T16:43:40.860Z",
      "routeConfidence": "high"
    },
    {
      "id": 4738232485,
      "name": "中正國小",
      "type": "bus",
      "city": "彰化縣",
      "district": "二林鎮",
      "lat": 23.8974521,
      "lng": 120.3703128,
      "routes": [
        "6710",
        "6712",
        "6712A",
        "6714",
        "6737",
        "6737B",
        "6738",
        "6738A",
        "6738B",
        "6738C",
        "6738D",
        "6738E"
      ],
      "routeCount": 12,
      "routeSource": "gtfs",
      "routeUpdatedAt": "2026-06-14T16:43:40.860Z",
      "routeConfidence": "high"
    },
    {
      "id": 4745577294,
      "name": "中中西",
      "type": "bus",
      "city": "彰化縣",
      "district": "二林鎮",
      "lat": 23.8773291,
      "lng": 120.3449912,
      "routes": [
        "6712",
        "6712A",
        "6714",
        "6737",
        "6737B"
      ],
      "routeCount": 5,
      "routeSource": "gtfs",
      "routeUpdatedAt": "2026-06-14T16:43:40.861Z",
      "routeConfidence": "high"
    },
    {
      "id": 4745577296,
      "name": "中西",
      "type": "bus",
      "city": "彰化縣",
      "district": "二林鎮",
      "lat": 23.8797505,
      "lng": 120.3479081,
      "routes": [
        "1630",
        "1630A",
        "6712",
        "6712A",
        "6714",
        "6737",
        "6737B"
      ],
      "routeCount": 7,
      "routeSource": "gtfs",
      "routeUpdatedAt": "2026-06-14T16:43:40.861Z",
      "routeConfidence": "high"
    },
    {
      "id": 4745591343,
      "name": "南光里",
      "type": "bus",
      "city": "彰化縣",
      "district": "二林鎮",
      "lat": 23.895298,
      "lng": 120.3673487,
      "routes": [
        "6710",
        "6712",
        "6712A",
        "6714",
        "6737",
        "6737B",
        "6738",
        "6738A",
        "6738B",
        "6738C",
        "6738D",
        "6738E"
      ],
      "routeCount": 12,
      "routeSource": "gtfs",
      "routeUpdatedAt": "2026-06-14T16:43:40.861Z",
      "routeConfidence": "high"
    },
    {
      "id": 4745591356,
      "name": "基督教醫院",
      "type": "bus",
      "city": "彰化縣",
      "district": "二林鎮",
      "lat": 23.8932573,
      "lng": 120.3635262,
      "routes": [
        "1630",
        "1630A",
        "6712",
        "6712A",
        "6714",
        "6737",
        "6737B"
      ],
      "routeCount": 7,
      "routeSource": "gtfs",
      "routeUpdatedAt": "2026-06-14T16:43:40.861Z",
      "routeConfidence": "high"
    },
    {
      "id": 4745591358,
      "name": "基督教醫院",
      "type": "bus",
      "city": "彰化縣",
      "district": "二林鎮",
      "lat": 23.8923818,
      "lng": 120.3624747,
      "routes": [
        "1630",
        "1630A"
      ],
      "routeCount": 2,
      "routeSource": "gtfs",
      "routeUpdatedAt": "2026-06-14T15:08:26.208Z",
      "routeConfidence": "high"
    },
    {
      "id": 4745591359,
      "name": "二林國中",
      "type": "bus",
      "city": "彰化縣",
      "district": "二林鎮",
      "lat": 23.889884,
      "lng": 120.3601412
    },
    {
      "id": 5405309551,
      "name": "犁頭厝",
      "type": "bus",
      "city": "彰化縣",
      "district": "二林鎮",
      "lat": 23.8914194,
      "lng": 120.3957662,
      "routes": [
        "6707"
      ],
      "routeCount": 1,
      "routeSource": "gtfs",
      "routeUpdatedAt": "2026-06-14T16:43:40.861Z",
      "routeConfidence": "high"
    },
    {
      "id": 5405309553,
      "name": "塗人厝",
      "type": "bus",
      "city": "彰化縣",
      "district": "二林鎮",
      "lat": 23.8867059,
      "lng": 120.402343,
      "routes": [
        "6707"
      ],
      "routeCount": 1,
      "routeSource": "gtfs",
      "routeUpdatedAt": "2026-06-14T16:43:40.861Z",
      "routeConfidence": "high"
    },
    {
      "id": 5522669942,
      "name": "萬興國中",
      "type": "bus",
      "city": "彰化縣",
      "district": "二林鎮",
      "lat": 23.9551465,
      "lng": 120.4166762,
      "routes": [
        "6713",
        "6714",
        "6736",
        "6736A",
        "6737",
        "6737B",
        "6738",
        "6738A",
        "6738C",
        "6738D",
        "6738E"
      ],
      "routeCount": 11,
      "routeSource": "gtfs",
      "routeUpdatedAt": "2026-06-14T15:08:26.209Z",
      "routeConfidence": "high"
    },
    {
      "id": 5522669943,
      "name": "萬興國中",
      "type": "bus",
      "city": "彰化縣",
      "district": "二林鎮",
      "lat": 23.9556018,
      "lng": 120.415358,
      "routes": [
        "6713",
        "6714",
        "6736",
        "6736A",
        "6737",
        "6737B",
        "6738",
        "6738A",
        "6738B",
        "6738C",
        "6738D"
      ],
      "routeCount": 11,
      "routeSource": "gtfs",
      "routeUpdatedAt": "2026-06-14T15:08:26.209Z",
      "routeConfidence": "high"
    },
    {
      "id": 5522669944,
      "name": "萬興",
      "type": "bus",
      "city": "彰化縣",
      "district": "二林鎮",
      "lat": 23.954656,
      "lng": 120.4197681,
      "routes": [
        "1630",
        "1630A",
        "6713",
        "6714",
        "6736",
        "6736A",
        "6737",
        "6737B",
        "6738",
        "6738A",
        "6738B",
        "6738C",
        "6738D",
        "6738E"
      ],
      "routeCount": 14,
      "routeSource": "gtfs",
      "routeUpdatedAt": "2026-06-14T16:43:40.862Z",
      "routeConfidence": "high"
    },
    {
      "id": 5522669946,
      "name": "萬興派出所",
      "type": "bus",
      "city": "彰化縣",
      "district": "二林鎮",
      "lat": 23.9542306,
      "lng": 120.4215276,
      "routes": [
        "6713",
        "6714",
        "6736",
        "6736A",
        "6737",
        "6737B",
        "6738",
        "6738A",
        "6738B",
        "6738C",
        "6738D",
        "6738E"
      ],
      "routeCount": 12,
      "routeSource": "gtfs",
      "routeUpdatedAt": "2026-06-14T16:43:40.862Z",
      "routeConfidence": "high"
    },
    {
      "id": 5522669950,
      "name": "五戶存",
      "type": "bus",
      "city": "彰化縣",
      "district": "二林鎮",
      "lat": 23.9542592,
      "lng": 120.4239334
    },
    {
      "id": 5522669952,
      "name": "柳仔溝",
      "type": "bus",
      "city": "彰化縣",
      "district": "二林鎮",
      "lat": 23.9542228,
      "lng": 120.4288503,
      "routes": [
        "6713",
        "6714",
        "6736",
        "6736A",
        "6737",
        "6737B",
        "6738",
        "6738A",
        "6738B",
        "6738C",
        "6738D",
        "6738E"
      ],
      "routeCount": 12,
      "routeSource": "gtfs",
      "routeUpdatedAt": "2026-06-14T16:43:40.863Z",
      "routeConfidence": "high"
    },
    {
      "id": 5522692285,
      "name": "頂後厝",
      "type": "bus",
      "city": "彰化縣",
      "district": "二林鎮",
      "lat": 23.9457675,
      "lng": 120.3836641,
      "routes": [
        "6713",
        "6714",
        "6736",
        "6736A",
        "6737",
        "6737B",
        "6738",
        "6738A",
        "6738B",
        "6738C",
        "6738D",
        "6738E"
      ],
      "routeCount": 12,
      "routeSource": "gtfs",
      "routeUpdatedAt": "2026-06-14T16:43:40.863Z",
      "routeConfidence": "high"
    },
    {
      "id": 5522732912,
      "name": "十三戶",
      "type": "bus",
      "city": "彰化縣",
      "district": "二林鎮",
      "lat": 23.9150975,
      "lng": 120.3796408,
      "routes": [
        "6713",
        "6714",
        "6736",
        "6736A",
        "6737",
        "6737B",
        "6738",
        "6738A",
        "6738B",
        "6738C",
        "6738D",
        "6738E"
      ],
      "routeCount": 12,
      "routeSource": "gtfs",
      "routeUpdatedAt": "2026-06-14T16:43:40.863Z",
      "routeConfidence": "high"
    },
    {
      "id": 5522732913,
      "name": "理想新村",
      "type": "bus",
      "city": "彰化縣",
      "district": "二林鎮",
      "lat": 23.9184272,
      "lng": 120.3804401,
      "routes": [
        "6713",
        "6714",
        "6736",
        "6736A",
        "6737",
        "6737B",
        "6738",
        "6738A",
        "6738B",
        "6738C",
        "6738D",
        "6738E"
      ],
      "routeCount": 12,
      "routeSource": "gtfs",
      "routeUpdatedAt": "2026-06-14T16:43:40.864Z",
      "routeConfidence": "high"
    },
    {
      "id": 5522732917,
      "name": "洪宗鄰護理之家",
      "type": "bus",
      "city": "彰化縣",
      "district": "二林鎮",
      "lat": 23.920217,
      "lng": 120.3805554,
      "routes": [
        "6713",
        "6714",
        "6736",
        "6736A",
        "6737",
        "6737B",
        "6738",
        "6738A",
        "6738B",
        "6738C",
        "6738D",
        "6738E"
      ],
      "routeCount": 12,
      "routeSource": "gtfs",
      "routeUpdatedAt": "2026-06-14T16:43:40.864Z",
      "routeConfidence": "high"
    },
    {
      "id": 5522734747,
      "name": "王功寮",
      "type": "bus",
      "city": "彰化縣",
      "district": "二林鎮",
      "lat": 23.9222937,
      "lng": 120.3808826,
      "routes": [
        "6713",
        "6714",
        "6736",
        "6736A",
        "6737",
        "6737B",
        "6738",
        "6738A",
        "6738B",
        "6738C",
        "6738D",
        "6738E"
      ],
      "routeCount": 12,
      "routeSource": "gtfs",
      "routeUpdatedAt": "2026-06-14T16:43:40.865Z",
      "routeConfidence": "high"
    },
    {
      "id": 5522734748,
      "name": "北王功寮",
      "type": "bus",
      "city": "彰化縣",
      "district": "二林鎮",
      "lat": 23.9256686,
      "lng": 120.3814526,
      "routes": [
        "6713",
        "6714",
        "6736",
        "6736A",
        "6737",
        "6737B",
        "6738",
        "6738A",
        "6738B",
        "6738C",
        "6738D",
        "6738E"
      ],
      "routeCount": 12,
      "routeSource": "gtfs",
      "routeUpdatedAt": "2026-06-14T16:43:40.865Z",
      "routeConfidence": "high"
    },
    {
      "id": 5522734750,
      "name": "舊趙甲",
      "type": "bus",
      "city": "彰化縣",
      "district": "二林鎮",
      "lat": 23.9334416,
      "lng": 120.3827575,
      "routes": [
        "6713",
        "6714",
        "6736",
        "6736A",
        "6737",
        "6737B",
        "6738",
        "6738A",
        "6738B",
        "6738C",
        "6738D",
        "6738E"
      ],
      "routeCount": 12,
      "routeSource": "gtfs",
      "routeUpdatedAt": "2026-06-14T16:43:40.865Z",
      "routeConfidence": "high"
    },
    {
      "id": 5522734752,
      "name": "彰化監獄",
      "type": "bus",
      "city": "彰化縣",
      "district": "二林鎮",
      "lat": 23.9379401,
      "lng": 120.382567,
      "routes": [
        "1630",
        "1630A",
        "6713",
        "6714",
        "6736",
        "6736A",
        "6737",
        "6737B",
        "6738",
        "6738A",
        "6738B",
        "6738C",
        "6738D",
        "6738E"
      ],
      "routeCount": 14,
      "routeSource": "gtfs",
      "routeUpdatedAt": "2026-06-14T16:43:40.865Z",
      "routeConfidence": "high"
    },
    {
      "id": 5522734759,
      "name": "頂厝社區",
      "type": "bus",
      "city": "彰化縣",
      "district": "二林鎮",
      "lat": 23.9421787,
      "lng": 120.3831089,
      "routes": [
        "6713",
        "6714",
        "6736",
        "6736A",
        "6737",
        "6737B",
        "6738",
        "6738A",
        "6738B",
        "6738C",
        "6738D",
        "6738E"
      ],
      "routeCount": 12,
      "routeSource": "gtfs",
      "routeUpdatedAt": "2026-06-14T16:43:40.866Z",
      "routeConfidence": "high"
    },
    {
      "id": 5523844949,
      "name": "太平路",
      "type": "bus",
      "city": "彰化縣",
      "district": "二林鎮",
      "lat": 23.9000246,
      "lng": 120.3790399,
      "routes": [
        "6713",
        "6714",
        "6736",
        "6736A",
        "6737",
        "6737B",
        "6738",
        "6738A",
        "6738C",
        "6738D",
        "6738E"
      ],
      "routeCount": 11,
      "routeSource": "gtfs",
      "routeUpdatedAt": "2026-06-14T15:08:26.213Z",
      "routeConfidence": "high"
    },
    {
      "id": 5523844957,
      "name": "加油站",
      "type": "bus",
      "city": "彰化縣",
      "district": "二林鎮",
      "lat": 23.9038475,
      "lng": 120.3738646,
      "routes": [
        "6713",
        "6714",
        "6736",
        "6736A",
        "6737",
        "6737B",
        "6738",
        "6738A",
        "6738B",
        "6738C",
        "6738D",
        "6738E"
      ],
      "routeCount": 12,
      "routeSource": "gtfs",
      "routeUpdatedAt": "2026-06-14T16:43:40.866Z",
      "routeConfidence": "high"
    },
    {
      "id": 5535777359,
      "name": "舊社",
      "type": "bus",
      "city": "彰化縣",
      "district": "二林鎮",
      "lat": 23.8938926,
      "lng": 120.3533176,
      "routes": [
        "6710",
        "6738",
        "6738A",
        "6738B",
        "6738C",
        "6738D",
        "6738E"
      ],
      "routeCount": 7,
      "routeSource": "gtfs",
      "routeUpdatedAt": "2026-06-14T16:43:40.866Z",
      "routeConfidence": "high"
    },
    {
      "id": 8267246637,
      "name": "台灣酒窖",
      "type": "bus",
      "city": "彰化縣",
      "district": "二林鎮",
      "lat": 23.8978592,
      "lng": 120.4082653,
      "routes": [
        "6709"
      ],
      "routeCount": 1,
      "routeSource": "gtfs",
      "routeUpdatedAt": "2026-06-14T15:08:26.213Z",
      "routeConfidence": "high"
    },
    {
      "id": 9592313555,
      "name": "喜樂萬合院區",
      "type": "bus",
      "city": "彰化縣",
      "district": "二林鎮",
      "lat": 23.9170762,
      "lng": 120.4084343,
      "routes": [
        "19路",
        "20路",
        "20路延－B"
      ],
      "routeCount": 3,
      "routeSource": "gtfs",
      "routeUpdatedAt": "2026-06-14T16:43:40.866Z",
      "routeConfidence": "high"
    },
    {
      "id": 12241468842,
      "name": "二林站",
      "type": "bus",
      "city": "彰化縣",
      "district": "二林鎮",
      "lat": 23.8999093,
      "lng": 120.3697193
    },
    {
      "id": 384676592,
      "name": "二林公車站",
      "type": "bus_station",
      "city": "彰化縣",
      "district": "二林鎮",
      "lat": 23.8998792,
      "lng": 120.3697795
    }
  ]
}
