{
  "city": "台東縣",
  "category": "family",
  "updatedAt": "2026-06-12T23:31:59.069Z",
  "items": [
    {
      "id": 995092692,
      "name": "原生植物園",
      "facilityType": "science",
      "facilityLabel": "🔬 博物館",
      "lat": 22.8531215,
      "lng": 121.104379,
      "source": "OpenStreetMap",
      "updatedAt": "2026-06-12T23:31:59.036Z"
    },
    {
      "id": 3616677675,
      "name": "初鹿牧場 (奶製品店)",
      "facilityType": "farm",
      "facilityLabel": "🌾 農場",
      "lat": 22.8650754,
      "lng": 121.1091069,
      "source": "OpenStreetMap",
      "updatedAt": "2026-06-12T23:31:59.039Z"
    },
    {
      "id": 3904005745,
      "name": "杉原海岸",
      "facilityType": "tourist_attraction",
      "facilityLabel": "🧭 旅遊景點",
      "lat": 22.8328711,
      "lng": 121.1857663,
      "source": "OpenStreetMap",
      "updatedAt": "2026-06-12T23:31:59.041Z"
    },
    {
      "id": 3945277477,
      "name": "知本林道瀑布",
      "facilityType": "tourist_attraction",
      "facilityLabel": "🧭 旅遊景點",
      "lat": 22.7047114,
      "lng": 121.014408,
      "source": "OpenStreetMap",
      "updatedAt": "2026-06-12T23:31:59.043Z"
    },
    {
      "id": 4260141003,
      "name": "利吉月世界",
      "facilityType": "tourist_attraction",
      "facilityLabel": "🧭 旅遊景點",
      "lat": 22.8145115,
      "lng": 121.1386923,
      "source": "OpenStreetMap",
      "updatedAt": "2026-06-12T23:31:59.044Z"
    },
    {
      "id": 4846780721,
      "name": "遠眺都蘭山",
      "facilityType": "tourist_attraction",
      "facilityLabel": "🧭 旅遊景點",
      "lat": 22.8168914,
      "lng": 121.1187477,
      "source": "OpenStreetMap",
      "updatedAt": "2026-06-12T23:31:59.046Z"
    },
    {
      "id": 4846780821,
      "name": "觀景亭",
      "facilityType": "tourist_attraction",
      "facilityLabel": "🧭 旅遊景點",
      "lat": 22.8181002,
      "lng": 121.1162448,
      "source": "OpenStreetMap",
      "updatedAt": "2026-06-12T23:31:59.047Z"
    },
    {
      "id": 6102803085,
      "name": "小黃山觀景",
      "facilityType": "tourist_attraction",
      "facilityLabel": "🧭 旅遊景點",
      "lat": 22.8332576,
      "lng": 121.1332841,
      "source": "OpenStreetMap",
      "updatedAt": "2026-06-12T23:31:59.048Z"
    },
    {
      "id": 6797072074,
      "name": "利吉惡地地質公園",
      "facilityType": "tourist_attraction",
      "facilityLabel": "🧭 旅遊景點",
      "lat": 22.8157769,
      "lng": 121.1386067,
      "source": "OpenStreetMap",
      "updatedAt": "2026-06-12T23:31:59.049Z"
    },
    {
      "id": 7836849285,
      "name": "林業及自然保育署",
      "facilityType": "visitor_center",
      "facilityLabel": "🛎 旅客中心",
      "lat": 22.6905904,
      "lng": 120.989418,
      "source": "OpenStreetMap",
      "updatedAt": "2026-06-12T23:31:59.050Z"
    },
    {
      "id": 7836849286,
      "name": "林業及自然保育署",
      "facilityType": "visitor_center",
      "facilityLabel": "🛎 旅客中心",
      "lat": 22.6851988,
      "lng": 120.989166,
      "source": "OpenStreetMap",
      "updatedAt": "2026-06-12T23:31:59.050Z"
    },
    {
      "id": 7836849288,
      "name": "林業及自然保育署",
      "facilityType": "visitor_center",
      "facilityLabel": "🛎 旅客中心",
      "lat": 22.6881246,
      "lng": 120.985291,
      "source": "OpenStreetMap",
      "updatedAt": "2026-06-12T23:31:59.051Z"
    },
    {
      "id": 7836849289,
      "name": "林業及自然保育署",
      "facilityType": "visitor_center",
      "facilityLabel": "🛎 旅客中心",
      "lat": 22.693381,
      "lng": 120.988968,
      "source": "OpenStreetMap",
      "updatedAt": "2026-06-12T23:31:59.052Z"
    },
    {
      "id": 7836849290,
      "name": "林業及自然保育署",
      "facilityType": "visitor_center",
      "facilityLabel": "🛎 旅客中心",
      "lat": 22.6906628,
      "lng": 120.991173,
      "source": "OpenStreetMap",
      "updatedAt": "2026-06-12T23:31:59.052Z"
    },
    {
      "id": 7836849291,
      "name": "林業及自然保育署",
      "facilityType": "visitor_center",
      "facilityLabel": "🛎 旅客中心",
      "lat": 22.6876916,
      "lng": 120.991203,
      "source": "OpenStreetMap",
      "updatedAt": "2026-06-12T23:31:59.053Z"
    },
    {
      "id": 9821362269,
      "name": "頂岩灣四格山步道導覽圖",
      "facilityType": "visitor_center",
      "facilityLabel": "🛎 旅客中心",
      "lat": 22.8106007,
      "lng": 121.1087276,
      "source": "OpenStreetMap",
      "updatedAt": "2026-06-12T23:31:59.054Z"
    },
    {
      "id": 10112554317,
      "name": "2k",
      "facilityType": "visitor_center",
      "facilityLabel": "🛎 旅客中心",
      "lat": 22.6915166,
      "lng": 120.9910353,
      "source": "OpenStreetMap",
      "updatedAt": "2026-06-12T23:31:59.054Z"
    },
    {
      "id": 10112558017,
      "name": "1.75k",
      "facilityType": "visitor_center",
      "facilityLabel": "🛎 旅客中心",
      "lat": 22.6921758,
      "lng": 120.9906777,
      "source": "OpenStreetMap",
      "updatedAt": "2026-06-12T23:31:59.055Z"
    },
    {
      "id": 10112561717,
      "name": "1.5k",
      "facilityType": "visitor_center",
      "facilityLabel": "🛎 旅客中心",
      "lat": 22.6933429,
      "lng": 120.9903218,
      "source": "OpenStreetMap",
      "updatedAt": "2026-06-12T23:31:59.056Z"
    },
    {
      "id": 10112781917,
      "name": "1k",
      "facilityType": "visitor_center",
      "facilityLabel": "🛎 旅客中心",
      "lat": 22.6938621,
      "lng": 120.9886579,
      "source": "OpenStreetMap",
      "updatedAt": "2026-06-12T23:31:59.056Z"
    },
    {
      "id": 10112785917,
      "name": "0.75k",
      "facilityType": "visitor_center",
      "facilityLabel": "🛎 旅客中心",
      "lat": 22.6933616,
      "lng": 120.9873816,
      "source": "OpenStreetMap",
      "updatedAt": "2026-06-12T23:31:59.057Z"
    },
    {
      "id": 10112820917,
      "name": "好漢坡0k+750",
      "facilityType": "tourist_attraction",
      "facilityLabel": "🧭 旅遊景點",
      "lat": 22.6872082,
      "lng": 120.9857788,
      "source": "OpenStreetMap",
      "updatedAt": "2026-06-12T23:31:59.057Z"
    },
    {
      "id": 10112830517,
      "name": "1.082k",
      "facilityType": "visitor_center",
      "facilityLabel": "🛎 旅客中心",
      "lat": 22.6866454,
      "lng": 120.9861628,
      "source": "OpenStreetMap",
      "updatedAt": "2026-06-12T23:31:59.058Z"
    },
    {
      "id": 10112831317,
      "name": "1k",
      "facilityType": "visitor_center",
      "facilityLabel": "🛎 旅客中心",
      "lat": 22.6854806,
      "lng": 120.9862509,
      "source": "OpenStreetMap",
      "updatedAt": "2026-06-12T23:31:59.058Z"
    },
    {
      "id": 10112852918,
      "name": "0.25k",
      "facilityType": "visitor_center",
      "facilityLabel": "🛎 旅客中心",
      "lat": 22.6829134,
      "lng": 120.9880524,
      "source": "OpenStreetMap",
      "updatedAt": "2026-06-12T23:31:59.059Z"
    },
    {
      "id": 10112854717,
      "name": "0.75k",
      "facilityType": "visitor_center",
      "facilityLabel": "🛎 旅客中心",
      "lat": 22.6837002,
      "lng": 120.9866764,
      "source": "OpenStreetMap",
      "updatedAt": "2026-06-12T23:31:59.059Z"
    },
    {
      "id": 10112854718,
      "name": "0.5k",
      "facilityType": "visitor_center",
      "facilityLabel": "🛎 旅客中心",
      "lat": 22.6824751,
      "lng": 120.9868339,
      "source": "OpenStreetMap",
      "updatedAt": "2026-06-12T23:31:59.060Z"
    },
    {
      "id": 10112904718,
      "name": "1.5k",
      "facilityType": "visitor_center",
      "facilityLabel": "🛎 旅客中心",
      "lat": 22.6908198,
      "lng": 120.9896378,
      "source": "OpenStreetMap",
      "updatedAt": "2026-06-12T23:31:59.060Z"
    },
    {
      "id": 10112906318,
      "name": "1.25k",
      "facilityType": "visitor_center",
      "facilityLabel": "🛎 旅客中心",
      "lat": 22.6894021,
      "lng": 120.9887585,
      "source": "OpenStreetMap",
      "updatedAt": "2026-06-12T23:31:59.061Z"
    },
    {
      "id": 11596716574,
      "name": "0k",
      "facilityType": "visitor_center",
      "facilityLabel": "🛎 旅客中心",
      "lat": 22.6843861,
      "lng": 120.9887082,
      "source": "OpenStreetMap",
      "updatedAt": "2026-06-12T23:31:59.062Z"
    },
    {
      "id": 310823561,
      "name": "知本自然教育中心",
      "facilityType": "eco_center",
      "facilityLabel": "🌱 生態館",
      "lat": 22.6868524,
      "lng": 120.9921849,
      "source": "OpenStreetMap",
      "updatedAt": "2026-06-12T23:31:59.062Z"
    },
    {
      "id": 310823562,
      "name": "知本森林國家遊樂區遊客中心",
      "facilityType": "visitor_center",
      "facilityLabel": "🛎 旅客中心",
      "lat": 22.687278,
      "lng": 120.9912678,
      "source": "OpenStreetMap",
      "updatedAt": "2026-06-12T23:31:59.063Z"
    },
    {
      "id": 477684821,
      "name": "溫泉休憩小棧",
      "facilityType": "tourist_attraction",
      "facilityLabel": "🧭 旅遊景點",
      "lat": 22.6886539,
      "lng": 120.9917899,
      "source": "OpenStreetMap",
      "updatedAt": "2026-06-12T23:31:59.063Z"
    },
    {
      "id": 520236308,
      "name": "服務處",
      "facilityType": "visitor_center",
      "facilityLabel": "🛎 旅客中心",
      "lat": 22.8652034,
      "lng": 121.1088753,
      "source": "OpenStreetMap",
      "updatedAt": "2026-06-12T23:31:59.064Z"
    },
    {
      "id": 520236310,
      "name": "初鹿牧場收費亭",
      "facilityType": "farm",
      "facilityLabel": "🌾 農場",
      "lat": 22.86583,
      "lng": 121.1080623,
      "source": "OpenStreetMap",
      "updatedAt": "2026-06-12T23:31:59.065Z"
    },
    {
      "id": 723348897,
      "name": "卑南遊客中心",
      "facilityType": "visitor_center",
      "facilityLabel": "🛎 旅客中心",
      "lat": 22.8014239,
      "lng": 121.0947312,
      "source": "OpenStreetMap",
      "updatedAt": "2026-06-12T23:31:59.065Z",
      "address": "台東縣卑南鄉賓朗路286號"
    },
    {
      "id": 1189293057,
      "name": "遊客中心-森林浴步道捷徑",
      "facilityType": "visitor_center",
      "facilityLabel": "🛎 旅客中心",
      "lat": 22.6868116,
      "lng": 120.9908938,
      "source": "OpenStreetMap",
      "updatedAt": "2026-06-12T23:31:59.066Z"
    },
    {
      "id": 7001875,
      "name": "大武山自然保留區",
      "facilityType": "spot",
      "facilityLabel": "📍 親子景點",
      "lat": 22.6080799,
      "lng": 120.85725,
      "source": "OpenStreetMap",
      "updatedAt": "2026-06-12T23:31:59.066Z"
    },
    {
      "id": 7011235,
      "name": "知本國家森林遊樂區",
      "facilityType": "spot",
      "facilityLabel": "📍 親子景點",
      "lat": 22.6973179,
      "lng": 120.983346,
      "source": "OpenStreetMap",
      "updatedAt": "2026-06-12T23:31:59.067Z"
    },
    {
      "id": 7022687,
      "name": "利嘉野生動物重要棲息環境",
      "facilityType": "spot",
      "facilityLabel": "📍 親子景點",
      "lat": 22.8159436,
      "lng": 121.0116335,
      "source": "OpenStreetMap",
      "updatedAt": "2026-06-12T23:31:59.067Z"
    },
    {
      "id": 7033434,
      "name": "雙鬼湖野生動物重要棲息環境",
      "facilityType": "spot",
      "facilityLabel": "📍 親子景點",
      "lat": 22.7965797,
      "lng": 120.850848,
      "source": "OpenStreetMap",
      "updatedAt": "2026-06-12T23:31:59.068Z"
    },
    {
      "id": 7075261,
      "name": "花東沿海保護區",
      "facilityType": "spot",
      "facilityLabel": "📍 親子景點",
      "lat": 23.3605493,
      "lng": 121.3802612,
      "source": "OpenStreetMap",
      "updatedAt": "2026-06-12T23:31:59.069Z"
    }
  ]
}
