{
  "city": "台東縣",
  "category": "family",
  "updatedAt": "2026-06-12T23:28:46.356Z",
  "items": [
    {
      "id": 995092654,
      "name": "小野柳 -東部海岸富岡地質公園",
      "facilityType": "tourist_attraction",
      "facilityLabel": "🧭 旅遊景點",
      "lat": 22.7941416,
      "lng": 121.1976762,
      "source": "OpenStreetMap",
      "updatedAt": "2026-06-12T23:28:46.318Z"
    },
    {
      "id": 2592792622,
      "name": "東糖文物館",
      "facilityType": "culture",
      "facilityLabel": "🎨 藝文場館",
      "lat": 22.7675465,
      "lng": 121.1279318,
      "source": "OpenStreetMap",
      "updatedAt": "2026-06-12T23:28:46.323Z",
      "address": "台東縣台東市光明里2鄰中興路二段191號"
    },
    {
      "id": 2605882920,
      "name": "Villa School",
      "facilityType": "tourist_attraction",
      "facilityLabel": "🧭 旅遊景點",
      "lat": 22.7300619,
      "lng": 121.108235,
      "source": "OpenStreetMap",
      "updatedAt": "2026-06-12T23:28:46.325Z"
    },
    {
      "id": 3902575160,
      "name": "遊客服務中心",
      "facilityType": "visitor_center",
      "facilityLabel": "🛎 旅客中心",
      "lat": 22.7934428,
      "lng": 121.1231813,
      "source": "OpenStreetMap",
      "updatedAt": "2026-06-12T23:28:46.326Z"
    },
    {
      "id": 4288761589,
      "name": "林務監工房",
      "facilityType": "tourist_attraction",
      "facilityLabel": "🧭 旅遊景點",
      "lat": 22.7642382,
      "lng": 121.1664499,
      "source": "OpenStreetMap",
      "updatedAt": "2026-06-12T23:28:46.329Z"
    },
    {
      "id": 4288761594,
      "name": "花架隧道",
      "facilityType": "tourist_attraction",
      "facilityLabel": "🧭 旅遊景點",
      "lat": 22.7634506,
      "lng": 121.1622147,
      "source": "OpenStreetMap",
      "updatedAt": "2026-06-12T23:28:46.331Z"
    },
    {
      "id": 4288761599,
      "name": "觀景區",
      "facilityType": "tourist_attraction",
      "facilityLabel": "🧭 旅遊景點",
      "lat": 22.7755999,
      "lng": 121.1480617,
      "source": "OpenStreetMap",
      "updatedAt": "2026-06-12T23:28:46.332Z"
    },
    {
      "id": 4288761600,
      "name": "鷺鷥橋",
      "facilityType": "tourist_attraction",
      "facilityLabel": "🧭 旅遊景點",
      "lat": 22.7762699,
      "lng": 121.1476531,
      "source": "OpenStreetMap",
      "updatedAt": "2026-06-12T23:28:46.333Z"
    },
    {
      "id": 4288761601,
      "name": "苗圃區",
      "facilityType": "tourist_attraction",
      "facilityLabel": "🧭 旅遊景點",
      "lat": 22.777105,
      "lng": 121.1466707,
      "source": "OpenStreetMap",
      "updatedAt": "2026-06-12T23:28:46.334Z"
    },
    {
      "id": 4288761606,
      "name": "賞湖區橋",
      "facilityType": "tourist_attraction",
      "facilityLabel": "🧭 旅遊景點",
      "lat": 22.7783918,
      "lng": 121.146721,
      "source": "OpenStreetMap",
      "updatedAt": "2026-06-12T23:28:46.335Z"
    },
    {
      "id": 4288761631,
      "name": "海洋劇場",
      "facilityType": "tourist_attraction",
      "facilityLabel": "🧭 旅遊景點",
      "lat": 22.755467,
      "lng": 121.168981,
      "source": "OpenStreetMap",
      "updatedAt": "2026-06-12T23:28:46.336Z"
    },
    {
      "id": 4288761706,
      "name": "觀景丘",
      "facilityType": "tourist_attraction",
      "facilityLabel": "🧭 旅遊景點",
      "lat": 22.7623081,
      "lng": 121.1700586,
      "source": "OpenStreetMap",
      "updatedAt": "2026-06-12T23:28:46.336Z"
    },
    {
      "id": 4627947169,
      "name": "鯉首觀景平台",
      "facilityType": "tourist_attraction",
      "facilityLabel": "🧭 旅遊景點",
      "lat": 22.756332,
      "lng": 121.1411353,
      "source": "OpenStreetMap",
      "updatedAt": "2026-06-12T23:28:46.337Z"
    },
    {
      "id": 4627947170,
      "name": "鯉眼觀景平台",
      "facilityType": "tourist_attraction",
      "facilityLabel": "🧭 旅遊景點",
      "lat": 22.7556746,
      "lng": 121.1413879,
      "source": "OpenStreetMap",
      "updatedAt": "2026-06-12T23:28:46.338Z"
    },
    {
      "id": 4631787894,
      "name": "觀景平台",
      "facilityType": "tourist_attraction",
      "facilityLabel": "🧭 旅遊景點",
      "lat": 22.7955131,
      "lng": 121.1978191,
      "source": "OpenStreetMap",
      "updatedAt": "2026-06-12T23:28:46.338Z"
    },
    {
      "id": 4769029137,
      "name": "中華會館臺東分社",
      "facilityType": "tourist_attraction",
      "facilityLabel": "🧭 旅遊景點",
      "lat": 22.7536776,
      "lng": 121.1557933,
      "source": "OpenStreetMap",
      "updatedAt": "2026-06-12T23:28:46.339Z",
      "address": "950006臺東縣臺東市中正路143號"
    },
    {
      "id": 5261436600,
      "name": "卑南遣址",
      "facilityType": "visitor_center",
      "facilityLabel": "🛎 旅客中心",
      "lat": 22.791655,
      "lng": 121.1194867,
      "source": "OpenStreetMap",
      "updatedAt": "2026-06-12T23:28:46.340Z"
    },
    {
      "id": 5261440256,
      "name": "卑南遣址",
      "facilityType": "visitor_center",
      "facilityLabel": "🛎 旅客中心",
      "lat": 22.791705,
      "lng": 121.11894,
      "source": "OpenStreetMap",
      "updatedAt": "2026-06-12T23:28:46.340Z"
    },
    {
      "id": 7836849297,
      "name": "林業及自然保育署",
      "facilityType": "visitor_center",
      "facilityLabel": "🛎 旅客中心",
      "lat": 22.7516852,
      "lng": 121.142868,
      "source": "OpenStreetMap",
      "updatedAt": "2026-06-12T23:28:46.341Z"
    },
    {
      "id": 7836849299,
      "name": "林業及自然保育署",
      "facilityType": "visitor_center",
      "facilityLabel": "🛎 旅客中心",
      "lat": 22.7563377,
      "lng": 121.141159,
      "source": "OpenStreetMap",
      "updatedAt": "2026-06-12T23:28:46.342Z"
    },
    {
      "id": 7836849300,
      "name": "林業及自然保育署",
      "facilityType": "visitor_center",
      "facilityLabel": "🛎 旅客中心",
      "lat": 22.7546389,
      "lng": 121.142212,
      "source": "OpenStreetMap",
      "updatedAt": "2026-06-12T23:28:46.342Z"
    },
    {
      "id": 7836849301,
      "name": "林業及自然保育署",
      "facilityType": "visitor_center",
      "facilityLabel": "🛎 旅客中心",
      "lat": 22.7545742,
      "lng": 121.143883,
      "source": "OpenStreetMap",
      "updatedAt": "2026-06-12T23:28:46.343Z"
    },
    {
      "id": 7836849302,
      "name": "林業及自然保育署",
      "facilityType": "visitor_center",
      "facilityLabel": "🛎 旅客中心",
      "lat": 22.7535082,
      "lng": 121.144226,
      "source": "OpenStreetMap",
      "updatedAt": "2026-06-12T23:28:46.343Z"
    },
    {
      "id": 8690740610,
      "name": "小野柳遊客中心",
      "facilityType": "visitor_center",
      "facilityLabel": "🛎 旅客中心",
      "lat": 22.7956671,
      "lng": 121.1962307,
      "source": "OpenStreetMap",
      "updatedAt": "2026-06-12T23:28:46.344Z"
    },
    {
      "id": 9818833126,
      "name": "老樹休憩區",
      "facilityType": "tourist_attraction",
      "facilityLabel": "🧭 旅遊景點",
      "lat": 22.7547507,
      "lng": 121.1425074,
      "source": "OpenStreetMap",
      "updatedAt": "2026-06-12T23:28:46.345Z"
    },
    {
      "id": 9819028171,
      "name": "觀景平台",
      "facilityType": "tourist_attraction",
      "facilityLabel": "🧭 旅遊景點",
      "lat": 22.7538524,
      "lng": 121.1422989,
      "source": "OpenStreetMap",
      "updatedAt": "2026-06-12T23:28:46.345Z"
    },
    {
      "id": 9824250840,
      "name": "太平溪人工濕地",
      "facilityType": "tourist_attraction",
      "facilityLabel": "🧭 旅遊景點",
      "lat": 22.7497477,
      "lng": 121.1400343,
      "source": "OpenStreetMap",
      "updatedAt": "2026-06-12T23:28:46.346Z"
    },
    {
      "id": 9840428162,
      "name": "卑南農業旅遊諮詢中心",
      "facilityType": "visitor_center",
      "facilityLabel": "🛎 旅客中心",
      "lat": 22.7790217,
      "lng": 121.1250898,
      "source": "OpenStreetMap",
      "updatedAt": "2026-06-12T23:28:46.347Z"
    },
    {
      "id": 9878441717,
      "name": "海岸邊",
      "facilityType": "tourist_attraction",
      "facilityLabel": "🧭 旅遊景點",
      "lat": 22.772285,
      "lng": 121.1760204,
      "source": "OpenStreetMap",
      "updatedAt": "2026-06-12T23:28:46.347Z"
    },
    {
      "id": 10275822117,
      "name": "Traditional House of Pinuyumayan People",
      "facilityType": "tourist_attraction",
      "facilityLabel": "🧭 旅遊景點",
      "lat": 22.7955995,
      "lng": 121.1173544,
      "source": "OpenStreetMap",
      "updatedAt": "2026-06-12T23:28:46.348Z"
    },
    {
      "id": 10767840616,
      "name": "臺東",
      "facilityType": "visitor_center",
      "facilityLabel": "🛎 旅客中心",
      "lat": 22.7557258,
      "lng": 121.1404268,
      "source": "OpenStreetMap",
      "updatedAt": "2026-06-12T23:28:46.349Z"
    },
    {
      "id": 12475026913,
      "name": "View",
      "facilityType": "tourist_attraction",
      "facilityLabel": "🧭 旅遊景點",
      "lat": 22.7589305,
      "lng": 121.1651089,
      "source": "OpenStreetMap",
      "updatedAt": "2026-06-12T23:28:46.349Z"
    },
    {
      "id": 253338370,
      "name": "PAGE CAFE台東故事館",
      "facilityType": "science",
      "facilityLabel": "🔬 博物館",
      "lat": 22.7541387,
      "lng": 121.1452834,
      "source": "OpenStreetMap",
      "updatedAt": "2026-06-12T23:28:46.350Z"
    },
    {
      "id": 254765657,
      "name": "琵琶湖",
      "facilityType": "tourist_attraction",
      "facilityLabel": "🧭 旅遊景點",
      "lat": 22.758152,
      "lng": 121.1655161,
      "source": "OpenStreetMap",
      "updatedAt": "2026-06-12T23:28:46.351Z"
    },
    {
      "id": 340224823,
      "name": "遊客中心",
      "facilityType": "visitor_center",
      "facilityLabel": "🛎 旅客中心",
      "lat": 22.7519307,
      "lng": 121.147289,
      "source": "OpenStreetMap",
      "updatedAt": "2026-06-12T23:28:46.351Z",
      "address": "台東縣台東市鐵花路371號"
    },
    {
      "id": 386900430,
      "name": "卑南遺址公園 展示廳",
      "facilityType": "science",
      "facilityLabel": "🔬 博物館",
      "lat": 22.793908,
      "lng": 121.1164847,
      "source": "OpenStreetMap",
      "updatedAt": "2026-06-12T23:28:46.352Z",
      "address": "臺東縣臺東市文化公園路"
    },
    {
      "id": 429572209,
      "name": "白色陋屋",
      "facilityType": "tourist_attraction",
      "facilityLabel": "🧭 旅遊景點",
      "lat": 22.7512081,
      "lng": 121.1588906,
      "source": "OpenStreetMap",
      "updatedAt": "2026-06-12T23:28:46.353Z"
    },
    {
      "id": 430021161,
      "name": "瞭望臺",
      "facilityType": "tourist_attraction",
      "facilityLabel": "🧭 旅遊景點",
      "lat": 22.7502172,
      "lng": 121.1588876,
      "source": "OpenStreetMap",
      "updatedAt": "2026-06-12T23:28:46.353Z"
    },
    {
      "id": 468698225,
      "name": "小野柳遊客中心",
      "facilityType": "visitor_center",
      "facilityLabel": "🛎 旅客中心",
      "lat": 22.7956865,
      "lng": 121.1962532,
      "source": "OpenStreetMap",
      "updatedAt": "2026-06-12T23:28:46.354Z"
    },
    {
      "id": 742805718,
      "name": "台東觀光夜市",
      "facilityType": "tourist_attraction",
      "facilityLabel": "🧭 旅遊景點",
      "lat": 22.7562932,
      "lng": 121.1477905,
      "source": "OpenStreetMap",
      "updatedAt": "2026-06-12T23:28:46.355Z"
    },
    {
      "id": 1480100105,
      "name": "卑南遺址公園 遊客中心",
      "facilityType": "visitor_center",
      "facilityLabel": "🛎 旅客中心",
      "lat": 22.7923253,
      "lng": 121.1156918,
      "source": "OpenStreetMap",
      "updatedAt": "2026-06-12T23:28:46.356Z",
      "address": "臺東縣臺東市文化公園路"
    },
    {
      "id": 7075261,
      "name": "花東沿海保護區",
      "facilityType": "spot",
      "facilityLabel": "📍 親子景點",
      "lat": 23.3605493,
      "lng": 121.3802612,
      "source": "OpenStreetMap",
      "updatedAt": "2026-06-12T23:28:46.356Z"
    }
  ]
}
