{"city":"新竹縣","district":"新豐鄉","category":"toilets","updatedAt":"2026-06-12T07:40:23.325Z","rev":1,"count":161,"items":[{"id":418760215,"name":"新豐 1170","lat":24.8692766,"lng":120.9965344,"address":null,"hasBabyChanging":false,"hasAccessible":false,"source":"OpenStreetMap","updatedAt":"2026-06-12T07:40:23.325Z","facilityType":"train","facilityLabel":"🚂 火車站","changingTable":false,"wheelchair":false,"needsAddr":false},{"id":972015821,"name":"診所","lat":24.8998111,"lng":120.9870843,"address":null,"hasBabyChanging":false,"hasAccessible":false,"source":"OpenStreetMap","updatedAt":"2026-06-12T07:40:23.325Z","facilityType":"clinic","facilityLabel":"🩺 診所","changingTable":false,"wheelchair":false,"needsAddr":true},{"id":975632411,"name":"景點","lat":24.9032511,"lng":120.9900079,"address":null,"hasBabyChanging":false,"hasAccessible":false,"source":"OpenStreetMap","updatedAt":"2026-06-12T07:40:23.325Z","facilityType":"attraction","facilityLabel":"🏞️ 景點","changingTable":false,"wheelchair":false,"needsAddr":true},{"id":1863229671,"name":"廟宇","lat":24.8967921,"lng":120.9695257,"address":null,"hasBabyChanging":false,"hasAccessible":false,"source":"OpenStreetMap","updatedAt":"2026-06-12T07:40:23.325Z","facilityType":"temple","facilityLabel":"🛕 廟宇","changingTable":false,"wheelchair":false,"needsAddr":true},{"id":1870967826,"name":"廟宇","lat":24.8961226,"lng":121.0005231,"address":null,"hasBabyChanging":false,"hasAccessible":false,"source":"OpenStreetMap","updatedAt":"2026-06-12T07:40:23.325Z","facilityType":"temple","facilityLabel":"🛕 廟宇","changingTable":false,"wheelchair":false,"needsAddr":true},{"id":4282046558,"name":"公共廁所","lat":24.9078284,"lng":120.9714688,"address":null,"hasBabyChanging":false,"hasAccessible":false,"source":"OpenStreetMap","updatedAt":"2026-06-12T07:40:23.325Z","facilityType":"toilet","facilityLabel":null,"changingTable":false,"wheelchair":false,"needsAddr":true},{"id":4283508324,"name":"新豐紅樹林","lat":24.9084253,"lng":120.9716959,"address":null,"hasBabyChanging":false,"hasAccessible":false,"source":"OpenStreetMap","updatedAt":"2026-06-12T07:40:23.325Z","facilityType":"attraction","facilityLabel":"🏞️ 景點","changingTable":false,"wheelchair":false,"needsAddr":false},{"id":4890949010,"name":"新豐鄉老人會館新豐鄉老人文康活動中心","lat":24.8992633,"lng":120.9850469,"address":"新竹縣新豐鄉新市路93號","hasBabyChanging":false,"hasAccessible":false,"source":"OpenStreetMap","updatedAt":"2026-06-12T07:40:23.325Z","facilityType":"community","facilityLabel":"🏘️ 活動中心","changingTable":false,"wheelchair":false,"needsAddr":false},{"id":6387495094,"name":"祐寧骨科","lat":24.8717226,"lng":120.9967109,"address":null,"hasBabyChanging":false,"hasAccessible":false,"source":"OpenStreetMap","updatedAt":"2026-06-12T07:40:23.325Z","facilityType":"clinic","facilityLabel":"🩺 診所","changingTable":false,"wheelchair":false,"needsAddr":false},{"id":6505772323,"name":"新豐鄉衛生所","lat":24.8990031,"lng":120.9869635,"address":null,"hasBabyChanging":false,"hasAccessible":false,"source":"OpenStreetMap","updatedAt":"2026-06-12T07:40:23.325Z","facilityType":"clinic","facilityLabel":"🩺 診所","changingTable":false,"wheelchair":false,"needsAddr":false},{"id":8775644264,"name":"感靈宮","lat":24.8814558,"lng":120.9907878,"address":null,"hasBabyChanging":false,"hasAccessible":false,"source":"OpenStreetMap","updatedAt":"2026-06-12T07:40:23.325Z","facilityType":"temple","facilityLabel":"🛕 廟宇","changingTable":false,"wheelchair":false,"needsAddr":false},{"id":9591251482,"name":"爭鮮迴轉壽司","lat":24.8691652,"lng":120.9953479,"address":"新竹縣新豐鄉新興路189號","hasBabyChanging":false,"hasAccessible":false,"source":"OpenStreetMap","updatedAt":"2026-06-12T07:40:23.325Z","facilityType":"sushi","facilityLabel":"🍣 迴轉壽司","changingTable":false,"wheelchair":false,"openingHours":"Mo-Su 11:00-21:30","needsAddr":false},{"id":9946493014,"name":"廟宇","lat":24.8711126,"lng":120.9978111,"address":null,"hasBabyChanging":false,"hasAccessible":false,"source":"OpenStreetMap","updatedAt":"2026-06-12T07:40:23.325Z","facilityType":"temple","facilityLabel":"🛕 廟宇","changingTable":false,"wheelchair":false,"needsAddr":true},{"id":10079489750,"name":"鳳坑村賢德祠","lat":24.8979617,"lng":120.9636132,"address":null,"hasBabyChanging":false,"hasAccessible":false,"source":"OpenStreetMap","updatedAt":"2026-06-12T07:40:23.325Z","facilityType":"temple","facilityLabel":"🛕 廟宇","changingTable":false,"wheelchair":false,"needsAddr":false},{"id":10223084961,"name":"金剛殿","lat":24.9162018,"lng":120.9768618,"address":null,"hasBabyChanging":false,"hasAccessible":false,"source":"OpenStreetMap","updatedAt":"2026-06-12T07:40:23.325Z","facilityType":"temple","facilityLabel":"🛕 廟宇","changingTable":false,"wheelchair":false,"needsAddr":false},{"id":10223084962,"name":"普庵宫","lat":24.9138434,"lng":120.9759069,"address":null,"hasBabyChanging":false,"hasAccessible":false,"source":"OpenStreetMap","updatedAt":"2026-06-12T07:40:23.325Z","facilityType":"temple","facilityLabel":"🛕 廟宇","changingTable":false,"wheelchair":false,"needsAddr":false},{"id":10223085001,"name":"四公廟","lat":24.9244241,"lng":120.9768626,"address":null,"hasBabyChanging":false,"hasAccessible":false,"source":"OpenStreetMap","updatedAt":"2026-06-12T07:40:23.325Z","facilityType":"temple","facilityLabel":"🛕 廟宇","changingTable":false,"wheelchair":false,"needsAddr":false},{"id":10682997732,"name":"寶雅","lat":24.8713744,"lng":120.9965118,"address":"新竹縣新豐鄉學府路130號一樓","hasBabyChanging":false,"hasAccessible":false,"source":"OpenStreetMap","updatedAt":"2026-06-12T07:40:23.325Z","facilityType":"poya","facilityLabel":"💄 寶雅","changingTable":false,"wheelchair":false,"needsAddr":false},{"id":10864194616,"name":"基督教中華聖潔會新豐教會","lat":24.8709081,"lng":120.9955511,"address":null,"hasBabyChanging":false,"hasAccessible":false,"source":"OpenStreetMap","updatedAt":"2026-06-12T07:40:23.325Z","facilityType":"temple","facilityLabel":"🛕 廟宇","changingTable":false,"wheelchair":false,"needsAddr":false},{"id":11414541336,"name":"新豐鄉民代表會","lat":24.9006298,"lng":120.9854497,"address":"新竹縣新豐鄉新市路93號三樓","hasBabyChanging":false,"hasAccessible":false,"source":"OpenStreetMap","updatedAt":"2026-06-12T07:40:23.325Z","facilityType":"government","facilityLabel":"🏛 公務機關","changingTable":false,"wheelchair":false,"needsAddr":false},{"id":11414541337,"name":"新豐鄉公用事業管理所","lat":24.9005465,"lng":120.9852694,"address":null,"hasBabyChanging":false,"hasAccessible":false,"source":"OpenStreetMap","updatedAt":"2026-06-12T07:40:23.325Z","facilityType":"government","facilityLabel":"🏛 公務機關","changingTable":false,"wheelchair":false,"needsAddr":false},{"id":11414541338,"name":"新竹縣新豐鄉清潔隊","lat":24.9007358,"lng":120.9851308,"address":null,"hasBabyChanging":false,"hasAccessible":false,"source":"OpenStreetMap","updatedAt":"2026-06-12T07:40:23.325Z","facilityType":"government","facilityLabel":"🏛 公務機關","changingTable":false,"wheelchair":false,"needsAddr":false},{"id":11917369000,"name":"土地公廟","lat":24.8904484,"lng":120.9768744,"address":null,"hasBabyChanging":false,"hasAccessible":false,"source":"OpenStreetMap","updatedAt":"2026-06-12T07:40:23.325Z","facilityType":"temple","facilityLabel":"🛕 廟宇","changingTable":false,"wheelchair":false,"needsAddr":false},{"id":12500443845,"name":"福德祠","lat":24.9002224,"lng":121.0160757,"address":null,"hasBabyChanging":false,"hasAccessible":false,"source":"OpenStreetMap","updatedAt":"2026-06-12T07:40:23.325Z","facilityType":"temple","facilityLabel":"🛕 廟宇","changingTable":false,"wheelchair":false,"needsAddr":false},{"id":12582246401,"name":"公共廁所","lat":24.8691357,"lng":120.996595,"address":null,"hasBabyChanging":false,"hasAccessible":false,"source":"OpenStreetMap","updatedAt":"2026-06-12T07:40:23.325Z","facilityType":"toilet","facilityLabel":null,"changingTable":false,"wheelchair":false,"needsAddr":true},{"id":12848341204,"name":"新豐社區活動中心","lat":24.9100679,"lng":120.976715,"address":"新竹縣新豐鄉池府路149號","hasBabyChanging":false,"hasAccessible":false,"source":"OpenStreetMap","updatedAt":"2026-06-12T07:40:23.325Z","facilityType":"community","facilityLabel":"🏘️ 活動中心","changingTable":false,"wheelchair":false,"needsAddr":false},{"id":174591272,"name":"坡頭漁港","lat":24.9270321,"lng":120.9716942,"address":null,"hasBabyChanging":false,"hasAccessible":false,"source":"OpenStreetMap","updatedAt":"2026-06-12T07:40:23.325Z","facilityType":"harbour","facilityLabel":"⚓ 漁港","changingTable":false,"wheelchair":false,"needsAddr":false},{"id":255012410,"name":"明新科技大學","lat":24.8617701,"lng":120.9879474,"address":"30401新竹縣新豐鄉新興路1號","hasBabyChanging":false,"hasAccessible":false,"source":"OpenStreetMap","updatedAt":"2026-06-12T07:40:23.325Z","facilityType":"university","facilityLabel":"🎓 大專院校","changingTable":false,"wheelchair":false,"needsAddr":false},{"id":255012979,"name":"小叮噹科學主題樂園","lat":24.8703083,"lng":120.9783831,"address":"30444新竹縣新豐鄉康和路199號","hasBabyChanging":false,"hasAccessible":false,"source":"OpenStreetMap","updatedAt":"2026-06-12T07:40:23.325Z","facilityType":"theme_park","facilityLabel":"🎡 遊樂園","changingTable":false,"wheelchair":false,"openingHours":"Mo-Su 08:30-17:00","needsAddr":false},{"id":256398337,"name":"山崎加油站","lat":24.8779558,"lng":120.9940547,"address":"新竹縣新豐鄉建興路一段196-13號","hasBabyChanging":false,"hasAccessible":false,"source":"OpenStreetMap","updatedAt":"2026-06-12T07:40:23.325Z","facilityType":"fuel","facilityLabel":"⛽ 加油站","changingTable":false,"wheelchair":false,"openingHours":"07:00-22:00","needsAddr":false},{"id":319382524,"name":"新竹縣新豐生態苗圃","lat":24.9135059,"lng":121.0263084,"address":null,"hasBabyChanging":false,"hasAccessible":false,"source":"OpenStreetMap","updatedAt":"2026-06-12T07:40:23.325Z","facilityType":"government","facilityLabel":"🏛 公務機關","changingTable":false,"wheelchair":false,"needsAddr":false},{"id":323646331,"name":"新豐鄉公所","lat":24.9006802,"lng":120.9853119,"address":"新竹縣新豐鄉建興路二段748巷15號","hasBabyChanging":false,"hasAccessible":false,"source":"OpenStreetMap","updatedAt":"2026-06-12T07:40:23.325Z","facilityType":"government","facilityLabel":"🏛 公務機關","changingTable":false,"wheelchair":false,"needsAddr":false},{"id":324376209,"name":"台灣中油 新庄子站","lat":24.9067171,"lng":120.983278,"address":"新竹縣新豐鄉新庄路429號","hasBabyChanging":false,"hasAccessible":false,"source":"OpenStreetMap","updatedAt":"2026-06-12T07:40:23.325Z","facilityType":"fuel","facilityLabel":"⛽ 加油站","changingTable":false,"wheelchair":false,"openingHours":"Mo-Su 7:00~21:00","needsAddr":false},{"id":324634423,"name":"海灘","lat":24.8776461,"lng":120.949347,"address":null,"hasBabyChanging":false,"hasAccessible":false,"source":"OpenStreetMap","updatedAt":"2026-06-12T07:40:23.325Z","facilityType":"beach","facilityLabel":"🏖️ 沙灘","changingTable":false,"wheelchair":false,"needsAddr":true},{"id":326355219,"name":"右任紀念圖書館","lat":24.862596,"lng":120.9892775,"address":null,"hasBabyChanging":false,"hasAccessible":false,"source":"OpenStreetMap","updatedAt":"2026-06-12T07:40:23.325Z","facilityType":"library","facilityLabel":"📚 圖書館","changingTable":false,"wheelchair":false,"needsAddr":false},{"id":326360724,"name":"新豐鄉漁民活動中心","lat":24.9100979,"lng":120.9704732,"address":null,"hasBabyChanging":false,"hasAccessible":false,"source":"OpenStreetMap","updatedAt":"2026-06-12T07:40:23.325Z","facilityType":"community","facilityLabel":"🏘️ 活動中心","changingTable":false,"wheelchair":false,"needsAddr":false},{"id":361403176,"name":"星巴克 新竹新豐門市","lat":24.8698284,"lng":120.9968698,"address":"新竹縣新豐鄉新興路202號","hasBabyChanging":false,"hasAccessible":false,"source":"OpenStreetMap","updatedAt":"2026-06-12T07:40:23.325Z","facilityType":"starbucks","facilityLabel":"☕ 星巴克","changingTable":false,"wheelchair":false,"openingHours":"Mo-Su 07:00-22:00","needsAddr":false},{"id":363067699,"name":"新豐分駐所","lat":24.9008126,"lng":120.9871308,"address":"新竹縣新豐鄉建興路二段788號","hasBabyChanging":false,"hasAccessible":false,"source":"OpenStreetMap","updatedAt":"2026-06-12T07:40:23.325Z","facilityType":"police","facilityLabel":"🚔 派出所","changingTable":false,"wheelchair":false,"needsAddr":false},{"id":363067705,"name":"山崎派出所","lat":24.8682135,"lng":120.9933768,"address":"新竹縣新豐鄉松林街8號","hasBabyChanging":false,"hasAccessible":false,"source":"OpenStreetMap","updatedAt":"2026-06-12T07:40:23.325Z","facilityType":"police","facilityLabel":"🚔 派出所","changingTable":false,"wheelchair":false,"needsAddr":false},{"id":368918812,"name":"池府王爺廟（池和宮）","lat":24.9101424,"lng":120.9762277,"address":"新竹縣新豐鄉池府路156號","hasBabyChanging":false,"hasAccessible":false,"source":"OpenStreetMap","updatedAt":"2026-06-12T07:40:23.325Z","facilityType":"temple","facilityLabel":"🛕 廟宇","changingTable":false,"wheelchair":false,"needsAddr":false},{"id":368943825,"name":"新庄子夜市","lat":24.9013504,"lng":120.9843908,"address":null,"hasBabyChanging":false,"hasAccessible":false,"source":"OpenStreetMap","updatedAt":"2026-06-12T07:40:23.325Z","facilityType":"nightmarket","facilityLabel":"🍢 夜市","changingTable":false,"wheelchair":false,"needsAddr":false},{"id":379721275,"name":"寶雅","lat":24.8744846,"lng":120.9994487,"address":"新竹縣新豐鄉中興路48號","hasBabyChanging":false,"hasAccessible":false,"source":"OpenStreetMap","updatedAt":"2026-06-12T07:40:23.325Z","facilityType":"poya","facilityLabel":"💄 寶雅","changingTable":false,"wheelchair":false,"openingHours":"Mo-Su 10:00-22:00","needsAddr":false},{"id":380943672,"name":"普元佛道院","lat":24.9249006,"lng":120.977695,"address":null,"hasBabyChanging":false,"hasAccessible":false,"source":"OpenStreetMap","updatedAt":"2026-06-12T07:40:23.325Z","facilityType":"temple","facilityLabel":"🛕 廟宇","changingTable":false,"wheelchair":false,"needsAddr":false},{"id":380943755,"name":"慈明宮","lat":24.8922903,"lng":120.974406,"address":null,"hasBabyChanging":false,"hasAccessible":false,"source":"OpenStreetMap","updatedAt":"2026-06-12T07:40:23.325Z","facilityType":"temple","facilityLabel":"🛕 廟宇","changingTable":false,"wheelchair":false,"needsAddr":false},{"id":383797987,"name":"復興漁港(荒廢)","lat":24.9333753,"lng":120.9804228,"address":null,"hasBabyChanging":false,"hasAccessible":false,"source":"OpenStreetMap","updatedAt":"2026-06-12T07:40:23.325Z","facilityType":"harbour","facilityLabel":"⚓ 漁港","changingTable":false,"wheelchair":false,"needsAddr":false},{"id":430376993,"name":"新豐安檢所","lat":24.9100043,"lng":120.970985,"address":null,"hasBabyChanging":false,"hasAccessible":false,"source":"OpenStreetMap","updatedAt":"2026-06-12T07:40:23.325Z","facilityType":"police","facilityLabel":"🚔 派出所","changingTable":false,"wheelchair":false,"needsAddr":false},{"id":430376994,"name":"公共廁所","lat":24.9099636,"lng":120.9711875,"address":null,"hasBabyChanging":false,"hasAccessible":false,"source":"OpenStreetMap","updatedAt":"2026-06-12T07:40:23.325Z","facilityType":"toilet","facilityLabel":null,"changingTable":false,"wheelchair":false,"needsAddr":true},{"id":432770227,"name":"公共廁所","lat":24.9191388,"lng":120.9697395,"address":null,"hasBabyChanging":false,"hasAccessible":false,"source":"OpenStreetMap","updatedAt":"2026-06-12T07:40:23.325Z","facilityType":"toilet","facilityLabel":null,"changingTable":false,"wheelchair":false,"needsAddr":true},{"id":437399330,"name":"松柏社區活動中心","lat":24.8753355,"lng":120.985551,"address":"新竹縣新豐鄉松林村康樂路一段516號","hasBabyChanging":false,"hasAccessible":false,"source":"OpenStreetMap","updatedAt":"2026-06-12T07:40:23.325Z","facilityType":"community","facilityLabel":"🏘️ 活動中心","changingTable":false,"wheelchair":false,"needsAddr":false},{"id":438737911,"name":"家樂福超市 新豐建興店","lat":24.8726646,"lng":120.9953716,"address":"新竹縣新豐鄉建興路一段116-2號","hasBabyChanging":false,"hasAccessible":false,"source":"OpenStreetMap","updatedAt":"2026-06-12T07:40:23.325Z","facilityType":"supermarket","facilityLabel":"🧺 超市","changingTable":false,"wheelchair":false,"openingHours":"24/7","needsAddr":false},{"id":440173321,"name":"紅樹林加油站","lat":24.9066003,"lng":120.9754715,"address":null,"hasBabyChanging":false,"hasAccessible":false,"source":"OpenStreetMap","updatedAt":"2026-06-12T07:40:23.325Z","facilityType":"fuel","facilityLabel":"⛽ 加油站","changingTable":false,"wheelchair":false,"openingHours":"06:30-22:00","needsAddr":false},{"id":440441102,"name":"新慰加油站","lat":24.8825132,"lng":121.0113936,"address":null,"hasBabyChanging":false,"hasAccessible":false,"source":"OpenStreetMap","updatedAt":"2026-06-12T07:40:23.325Z","facilityType":"fuel","facilityLabel":"⛽ 加油站","changingTable":false,"wheelchair":false,"needsAddr":false},{"id":440824075,"name":"東海堂","lat":24.9019104,"lng":120.9858818,"address":null,"hasBabyChanging":false,"hasAccessible":false,"source":"OpenStreetMap","updatedAt":"2026-06-12T07:40:23.325Z","facilityType":"temple","facilityLabel":"🛕 廟宇","changingTable":false,"wheelchair":false,"needsAddr":false},{"id":441785689,"name":"永寧宮","lat":24.9027105,"lng":120.9851575,"address":"新竹縣新豐鄉永寧街22號","hasBabyChanging":false,"hasAccessible":false,"source":"OpenStreetMap","updatedAt":"2026-06-12T07:40:23.325Z","facilityType":"temple","facilityLabel":"🛕 廟宇","changingTable":false,"wheelchair":false,"needsAddr":false},{"id":446088278,"name":"鳳坑沙灣","lat":24.9044485,"lng":120.9667589,"address":null,"hasBabyChanging":false,"hasAccessible":false,"source":"OpenStreetMap","updatedAt":"2026-06-12T07:40:23.325Z","facilityType":"beach","facilityLabel":"🏖️ 沙灘","changingTable":false,"wheelchair":false,"needsAddr":false},{"id":582910743,"name":"新豐鄉立圖書館","lat":24.9014008,"lng":120.9876182,"address":"新竹縣新豐鄉明德巷24號","hasBabyChanging":false,"hasAccessible":false,"source":"OpenStreetMap","updatedAt":"2026-06-12T07:40:23.325Z","facilityType":"library","facilityLabel":"📚 圖書館","changingTable":false,"wheelchair":false,"needsAddr":false},{"id":582910820,"name":"新豐鄉戶政事務所","lat":24.9010808,"lng":120.9873369,"address":"新竹縣新豐鄉建興路二段792巷6號","hasBabyChanging":false,"hasAccessible":false,"source":"OpenStreetMap","updatedAt":"2026-06-12T07:40:23.325Z","facilityType":"government","facilityLabel":"🏛 公務機關","changingTable":false,"wheelchair":false,"needsAddr":false},{"id":677360156,"name":"中崙社區活動中心","lat":24.9000709,"lng":120.9981763,"address":"新竹縣新豐鄉2鄰中崙店37號","hasBabyChanging":false,"hasAccessible":false,"source":"OpenStreetMap","updatedAt":"2026-06-12T07:40:23.325Z","facilityType":"community","facilityLabel":"🏘️ 活動中心","changingTable":false,"wheelchair":false,"needsAddr":false},{"id":677360157,"name":"溪南中崙三元宮","lat":24.9005768,"lng":120.9978099,"address":"新竹縣新豐鄉中崙38號","hasBabyChanging":false,"hasAccessible":false,"source":"OpenStreetMap","updatedAt":"2026-06-12T07:40:23.325Z","facilityType":"temple","facilityLabel":"🛕 廟宇","changingTable":false,"wheelchair":false,"needsAddr":false},{"id":677360164,"name":"公共廁所","lat":24.9003023,"lng":120.9973573,"address":null,"hasBabyChanging":false,"hasAccessible":false,"source":"OpenStreetMap","updatedAt":"2026-06-12T07:40:23.325Z","facilityType":"toilet","facilityLabel":null,"changingTable":false,"wheelchair":false,"needsAddr":true},{"id":692379676,"name":"海灘","lat":24.9177551,"lng":120.9691302,"address":null,"hasBabyChanging":false,"hasAccessible":false,"source":"OpenStreetMap","updatedAt":"2026-06-12T07:40:23.325Z","facilityType":"beach","facilityLabel":"🏖️ 沙灘","changingTable":false,"wheelchair":false,"needsAddr":true},{"id":737798891,"name":"上坑社區活動中心","lat":24.8908025,"lng":120.9741007,"address":"新竹縣新豐鄉坑子口398之1號","hasBabyChanging":false,"hasAccessible":false,"source":"OpenStreetMap","updatedAt":"2026-06-12T07:40:23.325Z","facilityType":"community","facilityLabel":"🏘️ 活動中心","changingTable":false,"wheelchair":false,"needsAddr":false},{"id":740108865,"name":"員山綜合活動中心","lat":24.8792014,"lng":120.9979189,"address":"新竹縣新豐鄉忠一街216號","hasBabyChanging":false,"hasAccessible":false,"source":"OpenStreetMap","updatedAt":"2026-06-12T07:40:23.325Z","facilityType":"community","facilityLabel":"🏘️ 活動中心","changingTable":false,"wheelchair":false,"needsAddr":false},{"id":740110630,"name":"青埔社區活動中心","lat":24.9272594,"lng":121.0135827,"address":"新竹縣新豐鄉6鄰80之2號","hasBabyChanging":false,"hasAccessible":false,"source":"OpenStreetMap","updatedAt":"2026-06-12T07:40:23.325Z","facilityType":"community","facilityLabel":"🏘️ 活動中心","changingTable":false,"wheelchair":false,"needsAddr":false},{"id":741785140,"name":"池和宮行政大樓","lat":24.9101613,"lng":120.9767138,"address":"新竹縣新豐鄉池府路149號","hasBabyChanging":false,"hasAccessible":false,"source":"OpenStreetMap","updatedAt":"2026-06-12T07:40:23.325Z","facilityType":"community","facilityLabel":"🏘️ 活動中心","changingTable":false,"wheelchair":false,"needsAddr":false},{"id":848254513,"name":"新豐夜市","lat":24.8698253,"lng":120.9959214,"address":null,"hasBabyChanging":false,"hasAccessible":false,"source":"OpenStreetMap","updatedAt":"2026-06-12T07:40:23.325Z","facilityType":"nightmarket","facilityLabel":"🍢 夜市","changingTable":false,"wheelchair":false,"needsAddr":false},{"id":857790045,"name":"瑞興社區活動中心","lat":24.911157,"lng":121.0083587,"address":null,"hasBabyChanging":false,"hasAccessible":false,"source":"OpenStreetMap","updatedAt":"2026-06-12T07:40:23.325Z","facilityType":"community","facilityLabel":"🏘️ 活動中心","changingTable":false,"wheelchair":false,"needsAddr":false},{"id":929535677,"name":"新竹縣環境生態教育園區","lat":24.9125955,"lng":121.0257322,"address":null,"hasBabyChanging":false,"hasAccessible":false,"source":"OpenStreetMap","updatedAt":"2026-06-12T07:40:23.325Z","facilityType":"government","facilityLabel":"🏛 公務機關","changingTable":false,"wheelchair":false,"needsAddr":false},{"id":948058455,"name":"後湖社區活動中心","lat":24.9331321,"lng":121.0102055,"address":null,"hasBabyChanging":false,"hasAccessible":false,"source":"OpenStreetMap","updatedAt":"2026-06-12T07:40:23.325Z","facilityType":"community","facilityLabel":"🏘️ 活動中心","changingTable":false,"wheelchair":false,"needsAddr":false},{"id":948058456,"name":"坡頭社區活動中心","lat":24.925578,"lng":120.9811074,"address":null,"hasBabyChanging":false,"hasAccessible":false,"source":"OpenStreetMap","updatedAt":"2026-06-12T07:40:23.325Z","facilityType":"community","facilityLabel":"🏘️ 活動中心","changingTable":false,"wheelchair":false,"needsAddr":false},{"id":948058457,"name":"福興社區活動中心","lat":24.9299217,"lng":121.0368473,"address":null,"hasBabyChanging":false,"hasAccessible":false,"source":"OpenStreetMap","updatedAt":"2026-06-12T07:40:23.325Z","facilityType":"community","facilityLabel":"🏘️ 活動中心","changingTable":false,"wheelchair":false,"needsAddr":false},{"id":948058461,"name":"福龍宮","lat":24.9305851,"lng":121.0369266,"address":null,"hasBabyChanging":false,"hasAccessible":false,"source":"OpenStreetMap","updatedAt":"2026-06-12T07:40:23.325Z","facilityType":"temple","facilityLabel":"🛕 廟宇","changingTable":false,"wheelchair":false,"needsAddr":false},{"id":948058463,"name":"埔和村集會所","lat":24.9228845,"lng":120.99102,"address":null,"hasBabyChanging":false,"hasAccessible":false,"source":"OpenStreetMap","updatedAt":"2026-06-12T07:40:23.325Z","facilityType":"community","facilityLabel":"🏘️ 活動中心","changingTable":false,"wheelchair":false,"needsAddr":false},{"id":948058480,"name":"新豐鄉衛生所","lat":24.8999517,"lng":120.9881338,"address":"新竹縣新豐鄉萃豐路21號","hasBabyChanging":false,"hasAccessible":false,"source":"OpenStreetMap","updatedAt":"2026-06-12T07:40:23.325Z","facilityType":"clinic","facilityLabel":"🩺 診所","changingTable":false,"wheelchair":false,"needsAddr":false},{"id":948058485,"name":"中正堂活動中心","lat":24.9000525,"lng":120.9876353,"address":null,"hasBabyChanging":false,"hasAccessible":false,"source":"OpenStreetMap","updatedAt":"2026-06-12T07:40:23.325Z","facilityType":"community","facilityLabel":"🏘️ 活動中心","changingTable":false,"wheelchair":false,"needsAddr":false},{"id":948058503,"name":"崎頂社區活動中心","lat":24.8835082,"lng":120.9901133,"address":null,"hasBabyChanging":false,"hasAccessible":false,"source":"OpenStreetMap","updatedAt":"2026-06-12T07:40:23.325Z","facilityType":"community","facilityLabel":"🏘️ 活動中心","changingTable":false,"wheelchair":false,"needsAddr":false},{"id":948058504,"name":"新豐鄉崎頂圖書室","lat":24.8836524,"lng":120.9901849,"address":null,"hasBabyChanging":false,"hasAccessible":false,"source":"OpenStreetMap","updatedAt":"2026-06-12T07:40:23.325Z","facilityType":"library","facilityLabel":"📚 圖書館","changingTable":false,"wheelchair":false,"needsAddr":false},{"id":975713856,"name":"麥當勞 新豐新興店","lat":24.8691668,"lng":120.9951783,"address":"新竹縣新豐鄉新興路189-3號","hasBabyChanging":false,"hasAccessible":false,"source":"OpenStreetMap","updatedAt":"2026-06-12T07:40:23.325Z","facilityType":"mcdonalds","facilityLabel":"🍔 麥當勞","changingTable":false,"wheelchair":false,"openingHours":"24/7","needsAddr":false},{"id":998996532,"name":"玄天宮","lat":24.8633514,"lng":120.9849086,"address":"新竹縣竹北市鳳岡路二段150巷186號","hasBabyChanging":false,"hasAccessible":false,"source":"OpenStreetMap","updatedAt":"2026-06-12T07:40:23.325Z","facilityType":"temple","facilityLabel":"🛕 廟宇","changingTable":false,"wheelchair":false,"needsAddr":false},{"id":998996569,"name":"松柏村坪頂屋福德宮","lat":24.8671932,"lng":120.9856706,"address":null,"hasBabyChanging":false,"hasAccessible":false,"source":"OpenStreetMap","updatedAt":"2026-06-12T07:40:23.325Z","facilityType":"temple","facilityLabel":"🛕 廟宇","changingTable":false,"wheelchair":false,"needsAddr":false},{"id":998996625,"name":"新豐松伯林福德宫","lat":24.8727886,"lng":120.9929714,"address":null,"hasBabyChanging":false,"hasAccessible":false,"source":"OpenStreetMap","updatedAt":"2026-06-12T07:40:23.325Z","facilityType":"temple","facilityLabel":"🛕 廟宇","changingTable":false,"wheelchair":false,"needsAddr":false},{"id":998996628,"name":"鳳蓮宮","lat":24.8712541,"lng":120.9943888,"address":null,"hasBabyChanging":false,"hasAccessible":false,"source":"OpenStreetMap","updatedAt":"2026-06-12T07:40:23.325Z","facilityType":"temple","facilityLabel":"🛕 廟宇","changingTable":false,"wheelchair":false,"needsAddr":false},{"id":998996648,"name":"文財福德宮","lat":24.8816678,"lng":120.9987656,"address":null,"hasBabyChanging":false,"hasAccessible":false,"source":"OpenStreetMap","updatedAt":"2026-06-12T07:40:23.325Z","facilityType":"temple","facilityLabel":"🛕 廟宇","changingTable":false,"wheelchair":false,"needsAddr":false},{"id":1046410785,"name":"慈鳳宮","lat":24.9039723,"lng":120.9681868,"address":null,"hasBabyChanging":false,"hasAccessible":false,"source":"OpenStreetMap","updatedAt":"2026-06-12T07:40:23.325Z","facilityType":"temple","facilityLabel":"🛕 廟宇","changingTable":false,"wheelchair":false,"needsAddr":false},{"id":1046410786,"name":"公共廁所","lat":24.9040892,"lng":120.9680717,"address":null,"hasBabyChanging":false,"hasAccessible":false,"source":"OpenStreetMap","updatedAt":"2026-06-12T07:40:23.325Z","facilityType":"toilet","facilityLabel":null,"changingTable":false,"wheelchair":false,"needsAddr":true},{"id":1060955789,"name":"廟宇","lat":24.9352909,"lng":120.9899336,"address":null,"hasBabyChanging":false,"hasAccessible":false,"source":"OpenStreetMap","updatedAt":"2026-06-12T07:40:23.325Z","facilityType":"temple","facilityLabel":"🛕 廟宇","changingTable":false,"wheelchair":false,"needsAddr":true},{"id":1066127536,"name":"後湖派出所","lat":24.932162,"lng":121.0088736,"address":"新竹縣新豐鄉後湖村6鄰後湖子115號","hasBabyChanging":false,"hasAccessible":false,"source":"OpenStreetMap","updatedAt":"2026-06-12T07:40:23.325Z","facilityType":"police","facilityLabel":"🚔 派出所","changingTable":false,"wheelchair":false,"needsAddr":false},{"id":1085506787,"name":"公共廁所","lat":24.9098328,"lng":120.9759169,"address":null,"hasBabyChanging":false,"hasAccessible":false,"source":"OpenStreetMap","updatedAt":"2026-06-12T07:40:23.325Z","facilityType":"toilet","facilityLabel":null,"changingTable":false,"wheelchair":false,"needsAddr":true},{"id":1085506790,"name":"紅毛港福德宮","lat":24.9111501,"lng":120.9772268,"address":null,"hasBabyChanging":false,"hasAccessible":false,"source":"OpenStreetMap","updatedAt":"2026-06-12T07:40:23.325Z","facilityType":"temple","facilityLabel":"🛕 廟宇","changingTable":false,"wheelchair":false,"needsAddr":false},{"id":1085506832,"name":"象鼻福德宮","lat":24.887746,"lng":120.9873445,"address":null,"hasBabyChanging":false,"hasAccessible":false,"source":"OpenStreetMap","updatedAt":"2026-06-12T07:40:23.325Z","facilityType":"temple","facilityLabel":"🛕 廟宇","changingTable":false,"wheelchair":false,"needsAddr":false},{"id":1085506835,"name":"紫靈宫","lat":24.8711087,"lng":120.9985023,"address":null,"hasBabyChanging":false,"hasAccessible":false,"source":"OpenStreetMap","updatedAt":"2026-06-12T07:40:23.325Z","facilityType":"temple","facilityLabel":"🛕 廟宇","changingTable":false,"wheelchair":false,"needsAddr":false},{"id":1101425170,"name":"長春福德宫","lat":24.8992207,"lng":120.9848817,"address":null,"hasBabyChanging":false,"hasAccessible":false,"source":"OpenStreetMap","updatedAt":"2026-06-12T07:40:23.325Z","facilityType":"temple","facilityLabel":"🛕 廟宇","changingTable":false,"wheelchair":false,"needsAddr":false},{"id":1101425171,"name":"重興村社區活動中心","lat":24.8993031,"lng":120.9850929,"address":null,"hasBabyChanging":false,"hasAccessible":false,"source":"OpenStreetMap","updatedAt":"2026-06-12T07:40:23.325Z","facilityType":"community","facilityLabel":"🏘️ 活動中心","changingTable":false,"wheelchair":false,"needsAddr":false},{"id":1101425182,"name":"新庄福德宫","lat":24.9052062,"lng":120.98456,"address":null,"hasBabyChanging":false,"hasAccessible":false,"source":"OpenStreetMap","updatedAt":"2026-06-12T07:40:23.325Z","facilityType":"temple","facilityLabel":"🛕 廟宇","changingTable":false,"wheelchair":false,"needsAddr":false},{"id":1101425184,"name":"福德宫","lat":24.9056317,"lng":120.9885378,"address":null,"hasBabyChanging":false,"hasAccessible":false,"source":"OpenStreetMap","updatedAt":"2026-06-12T07:40:23.325Z","facilityType":"temple","facilityLabel":"🛕 廟宇","changingTable":false,"wheelchair":false,"needsAddr":false},{"id":1101425188,"name":"福德宫","lat":24.8978652,"lng":120.9860925,"address":null,"hasBabyChanging":false,"hasAccessible":false,"source":"OpenStreetMap","updatedAt":"2026-06-12T07:40:23.325Z","facilityType":"temple","facilityLabel":"🛕 廟宇","changingTable":false,"wheelchair":false,"needsAddr":false},{"id":1101425191,"name":"鳳坑土地公廟","lat":24.9029594,"lng":120.9784281,"address":null,"hasBabyChanging":false,"hasAccessible":false,"source":"OpenStreetMap","updatedAt":"2026-06-12T07:40:23.325Z","facilityType":"temple","facilityLabel":"🛕 廟宇","changingTable":false,"wheelchair":false,"needsAddr":false},{"id":1101425195,"name":"福德宫","lat":24.9002286,"lng":120.9653943,"address":null,"hasBabyChanging":false,"hasAccessible":false,"source":"OpenStreetMap","updatedAt":"2026-06-12T07:40:23.325Z","facilityType":"temple","facilityLabel":"🛕 廟宇","changingTable":false,"wheelchair":false,"needsAddr":false},{"id":1117756108,"name":"福德宫","lat":24.9152462,"lng":120.9747972,"address":null,"hasBabyChanging":false,"hasAccessible":false,"source":"OpenStreetMap","updatedAt":"2026-06-12T07:40:23.325Z","facilityType":"temple","facilityLabel":"🛕 廟宇","changingTable":false,"wheelchair":false,"needsAddr":false},{"id":1117756154,"name":"福德廟","lat":24.9195923,"lng":120.9825679,"address":null,"hasBabyChanging":false,"hasAccessible":false,"source":"OpenStreetMap","updatedAt":"2026-06-12T07:40:23.325Z","facilityType":"temple","facilityLabel":"🛕 廟宇","changingTable":false,"wheelchair":false,"needsAddr":false},{"id":1117756160,"name":"新豐忠進宮","lat":24.9229513,"lng":120.9794569,"address":null,"hasBabyChanging":false,"hasAccessible":false,"source":"OpenStreetMap","updatedAt":"2026-06-12T07:40:23.325Z","facilityType":"temple","facilityLabel":"🛕 廟宇","changingTable":false,"wheelchair":false,"needsAddr":false},{"id":1117756162,"name":"坡子頭福德宫","lat":24.9237195,"lng":120.9795783,"address":null,"hasBabyChanging":false,"hasAccessible":false,"source":"OpenStreetMap","updatedAt":"2026-06-12T07:40:23.325Z","facilityType":"temple","facilityLabel":"🛕 廟宇","changingTable":false,"wheelchair":false,"needsAddr":false},{"id":1117756192,"name":"福德宫","lat":24.9182741,"lng":120.9749243,"address":null,"hasBabyChanging":false,"hasAccessible":false,"source":"OpenStreetMap","updatedAt":"2026-06-12T07:40:23.325Z","facilityType":"temple","facilityLabel":"🛕 廟宇","changingTable":false,"wheelchair":false,"needsAddr":false},{"id":1164815631,"name":"公共廁所","lat":24.8672276,"lng":120.9855258,"address":null,"hasBabyChanging":false,"hasAccessible":false,"source":"OpenStreetMap","updatedAt":"2026-06-12T07:40:23.325Z","facilityType":"toilet","facilityLabel":null,"changingTable":false,"wheelchair":false,"needsAddr":true},{"id":1164815641,"name":"福陽福德宮","lat":24.8749264,"lng":120.984505,"address":null,"hasBabyChanging":false,"hasAccessible":false,"source":"OpenStreetMap","updatedAt":"2026-06-12T07:40:23.325Z","facilityType":"temple","facilityLabel":"🛕 廟宇","changingTable":false,"wheelchair":false,"needsAddr":false},{"id":1191732304,"name":"福德祠","lat":24.9413622,"lng":121.0347669,"address":null,"hasBabyChanging":false,"hasAccessible":false,"source":"OpenStreetMap","updatedAt":"2026-06-12T07:40:23.325Z","facilityType":"temple","facilityLabel":"🛕 廟宇","changingTable":false,"wheelchair":false,"needsAddr":false},{"id":1191732305,"name":"關聖宮","lat":24.8830214,"lng":120.9943847,"address":null,"hasBabyChanging":false,"hasAccessible":false,"source":"OpenStreetMap","updatedAt":"2026-06-12T07:40:23.325Z","facilityType":"temple","facilityLabel":"🛕 廟宇","changingTable":false,"wheelchair":false,"needsAddr":false},{"id":1191732306,"name":"德風蓮苑","lat":24.9394057,"lng":121.0049129,"address":null,"hasBabyChanging":false,"hasAccessible":false,"source":"OpenStreetMap","updatedAt":"2026-06-12T07:40:23.325Z","facilityType":"temple","facilityLabel":"🛕 廟宇","changingTable":false,"wheelchair":false,"needsAddr":false},{"id":1191835777,"name":"石和宮","lat":24.9344625,"lng":120.9980191,"address":null,"hasBabyChanging":false,"hasAccessible":false,"source":"OpenStreetMap","updatedAt":"2026-06-12T07:40:23.325Z","facilityType":"temple","facilityLabel":"🛕 廟宇","changingTable":false,"wheelchair":false,"needsAddr":false},{"id":1191835781,"name":"仁和佛院","lat":24.8845312,"lng":120.9764632,"address":null,"hasBabyChanging":false,"hasAccessible":false,"source":"OpenStreetMap","updatedAt":"2026-06-12T07:40:23.325Z","facilityType":"temple","facilityLabel":"🛕 廟宇","changingTable":false,"wheelchair":false,"needsAddr":false},{"id":1194681031,"name":"公共廁所","lat":24.9159422,"lng":120.9722572,"address":null,"hasBabyChanging":false,"hasAccessible":false,"source":"OpenStreetMap","updatedAt":"2026-06-12T07:40:23.325Z","facilityType":"toilet","facilityLabel":null,"changingTable":false,"wheelchair":false,"needsAddr":true},{"id":1230818030,"name":"新豐武聖宮","lat":24.9091309,"lng":121.0089268,"address":null,"hasBabyChanging":false,"hasAccessible":false,"source":"OpenStreetMap","updatedAt":"2026-06-12T07:40:23.325Z","facilityType":"temple","facilityLabel":"🛕 廟宇","changingTable":false,"wheelchair":false,"needsAddr":false},{"id":1230818033,"name":"國軍退除役官兵輔導委會彰化農場","lat":24.9279066,"lng":121.0143386,"address":"新竹縣新豐鄉青埔村80號","hasBabyChanging":false,"hasAccessible":false,"source":"OpenStreetMap","updatedAt":"2026-06-12T07:40:23.325Z","facilityType":"government","facilityLabel":"🏛 公務機關","changingTable":false,"wheelchair":false,"needsAddr":false},{"id":1230818051,"name":"福德祠","lat":24.9306262,"lng":121.035217,"address":null,"hasBabyChanging":false,"hasAccessible":false,"source":"OpenStreetMap","updatedAt":"2026-06-12T07:40:23.325Z","facilityType":"temple","facilityLabel":"🛕 廟宇","changingTable":false,"wheelchair":false,"needsAddr":false},{"id":1240352515,"name":"福德祠","lat":24.8855046,"lng":120.9748292,"address":null,"hasBabyChanging":false,"hasAccessible":false,"source":"OpenStreetMap","updatedAt":"2026-06-12T07:40:23.325Z","facilityType":"temple","facilityLabel":"🛕 廟宇","changingTable":false,"wheelchair":false,"needsAddr":false},{"id":1240352520,"name":"廟宇","lat":24.8926526,"lng":120.9759817,"address":null,"hasBabyChanging":false,"hasAccessible":false,"source":"OpenStreetMap","updatedAt":"2026-06-12T07:40:23.325Z","facilityType":"temple","facilityLabel":"🛕 廟宇","changingTable":false,"wheelchair":false,"needsAddr":true},{"id":1240352521,"name":"廟宇","lat":24.8991027,"lng":120.9807604,"address":null,"hasBabyChanging":false,"hasAccessible":false,"source":"OpenStreetMap","updatedAt":"2026-06-12T07:40:23.325Z","facilityType":"temple","facilityLabel":"🛕 廟宇","changingTable":false,"wheelchair":false,"needsAddr":true},{"id":1240352522,"name":"福德宫","lat":24.9073491,"lng":120.9819519,"address":null,"hasBabyChanging":false,"hasAccessible":false,"source":"OpenStreetMap","updatedAt":"2026-06-12T07:40:23.325Z","facilityType":"temple","facilityLabel":"🛕 廟宇","changingTable":false,"wheelchair":false,"needsAddr":false},{"id":1240352523,"name":"廟宇","lat":24.9108153,"lng":120.98554,"address":null,"hasBabyChanging":false,"hasAccessible":false,"source":"OpenStreetMap","updatedAt":"2026-06-12T07:40:23.325Z","facilityType":"temple","facilityLabel":"🛕 廟宇","changingTable":false,"wheelchair":false,"needsAddr":true},{"id":1240352525,"name":"廟宇","lat":24.8799834,"lng":120.982586,"address":null,"hasBabyChanging":false,"hasAccessible":false,"source":"OpenStreetMap","updatedAt":"2026-06-12T07:40:23.325Z","facilityType":"temple","facilityLabel":"🛕 廟宇","changingTable":false,"wheelchair":false,"needsAddr":true},{"id":1274003948,"name":"廟宇","lat":24.8851688,"lng":120.9909076,"address":null,"hasBabyChanging":false,"hasAccessible":false,"source":"OpenStreetMap","updatedAt":"2026-06-12T07:40:23.325Z","facilityType":"temple","facilityLabel":"🛕 廟宇","changingTable":false,"wheelchair":false,"needsAddr":true},{"id":1274003949,"name":"福德祠","lat":24.8815172,"lng":120.986136,"address":null,"hasBabyChanging":false,"hasAccessible":false,"source":"OpenStreetMap","updatedAt":"2026-06-12T07:40:23.325Z","facilityType":"temple","facilityLabel":"🛕 廟宇","changingTable":false,"wheelchair":false,"needsAddr":false},{"id":1274003951,"name":"福德祠","lat":24.8885534,"lng":120.9852162,"address":null,"hasBabyChanging":false,"hasAccessible":false,"source":"OpenStreetMap","updatedAt":"2026-06-12T07:40:23.325Z","facilityType":"temple","facilityLabel":"🛕 廟宇","changingTable":false,"wheelchair":false,"needsAddr":false},{"id":1274003952,"name":"福德祠","lat":24.8956351,"lng":120.9843724,"address":null,"hasBabyChanging":false,"hasAccessible":false,"source":"OpenStreetMap","updatedAt":"2026-06-12T07:40:23.325Z","facilityType":"temple","facilityLabel":"🛕 廟宇","changingTable":false,"wheelchair":false,"needsAddr":false},{"id":1274003953,"name":"福德祠","lat":24.9068023,"lng":120.9718945,"address":null,"hasBabyChanging":false,"hasAccessible":false,"source":"OpenStreetMap","updatedAt":"2026-06-12T07:40:23.325Z","facilityType":"temple","facilityLabel":"🛕 廟宇","changingTable":false,"wheelchair":false,"needsAddr":false},{"id":1274003954,"name":"福德祠","lat":24.9091426,"lng":120.9740099,"address":null,"hasBabyChanging":false,"hasAccessible":false,"source":"OpenStreetMap","updatedAt":"2026-06-12T07:40:23.325Z","facilityType":"temple","facilityLabel":"🛕 廟宇","changingTable":false,"wheelchair":false,"needsAddr":false},{"id":1274003955,"name":"福德祠","lat":24.9204506,"lng":121.0053612,"address":null,"hasBabyChanging":false,"hasAccessible":false,"source":"OpenStreetMap","updatedAt":"2026-06-12T07:40:23.325Z","facilityType":"temple","facilityLabel":"🛕 廟宇","changingTable":false,"wheelchair":false,"needsAddr":false},{"id":1274003959,"name":"福德宮","lat":24.9243708,"lng":120.9961329,"address":null,"hasBabyChanging":false,"hasAccessible":false,"source":"OpenStreetMap","updatedAt":"2026-06-12T07:40:23.325Z","facilityType":"temple","facilityLabel":"🛕 廟宇","changingTable":false,"wheelchair":false,"needsAddr":false},{"id":1274003962,"name":"福德祠","lat":24.9308486,"lng":121.0060754,"address":null,"hasBabyChanging":false,"hasAccessible":false,"source":"OpenStreetMap","updatedAt":"2026-06-12T07:40:23.325Z","facilityType":"temple","facilityLabel":"🛕 廟宇","changingTable":false,"wheelchair":false,"needsAddr":false},{"id":1274003974,"name":"後湖福德祠","lat":24.9374424,"lng":121.0130273,"address":null,"hasBabyChanging":false,"hasAccessible":false,"source":"OpenStreetMap","updatedAt":"2026-06-12T07:40:23.325Z","facilityType":"temple","facilityLabel":"🛕 廟宇","changingTable":false,"wheelchair":false,"needsAddr":false},{"id":1274004009,"name":"福德祠","lat":24.9213601,"lng":121.0302749,"address":null,"hasBabyChanging":false,"hasAccessible":false,"source":"OpenStreetMap","updatedAt":"2026-06-12T07:40:23.325Z","facilityType":"temple","facilityLabel":"🛕 廟宇","changingTable":false,"wheelchair":false,"needsAddr":false},{"id":1274004015,"name":"福德祠","lat":24.905734,"lng":121.018788,"address":null,"hasBabyChanging":false,"hasAccessible":false,"source":"OpenStreetMap","updatedAt":"2026-06-12T07:40:23.325Z","facilityType":"temple","facilityLabel":"🛕 廟宇","changingTable":false,"wheelchair":false,"needsAddr":false},{"id":1274004016,"name":"福德祠","lat":24.9002077,"lng":121.0122694,"address":null,"hasBabyChanging":false,"hasAccessible":false,"source":"OpenStreetMap","updatedAt":"2026-06-12T07:40:23.325Z","facilityType":"temple","facilityLabel":"🛕 廟宇","changingTable":false,"wheelchair":false,"needsAddr":false},{"id":1274004021,"name":"福德祠","lat":24.8886216,"lng":121.0187914,"address":null,"hasBabyChanging":false,"hasAccessible":false,"source":"OpenStreetMap","updatedAt":"2026-06-12T07:40:23.325Z","facilityType":"temple","facilityLabel":"🛕 廟宇","changingTable":false,"wheelchair":false,"needsAddr":false},{"id":1274004022,"name":"福德祠","lat":24.8966683,"lng":120.9983312,"address":null,"hasBabyChanging":false,"hasAccessible":false,"source":"OpenStreetMap","updatedAt":"2026-06-12T07:40:23.325Z","facilityType":"temple","facilityLabel":"🛕 廟宇","changingTable":false,"wheelchair":false,"needsAddr":false},{"id":1274004023,"name":"福德祠","lat":24.8952263,"lng":120.9970724,"address":null,"hasBabyChanging":false,"hasAccessible":false,"source":"OpenStreetMap","updatedAt":"2026-06-12T07:40:23.325Z","facilityType":"temple","facilityLabel":"🛕 廟宇","changingTable":false,"wheelchair":false,"needsAddr":false},{"id":1332830918,"name":"公共廁所","lat":24.9050471,"lng":120.9664752,"address":null,"hasBabyChanging":false,"hasAccessible":false,"source":"OpenStreetMap","updatedAt":"2026-06-12T07:40:23.325Z","facilityType":"toilet","facilityLabel":null,"changingTable":false,"wheelchair":false,"needsAddr":true},{"id":1351165858,"name":"福德祠","lat":24.936764,"lng":121.0367071,"address":null,"hasBabyChanging":false,"hasAccessible":false,"source":"OpenStreetMap","updatedAt":"2026-06-12T07:40:23.325Z","facilityType":"temple","facilityLabel":"🛕 廟宇","changingTable":false,"wheelchair":false,"needsAddr":false},{"id":1351165859,"name":"福德祠","lat":24.94203,"lng":121.0453498,"address":null,"hasBabyChanging":false,"hasAccessible":false,"source":"OpenStreetMap","updatedAt":"2026-06-12T07:40:23.325Z","facilityType":"temple","facilityLabel":"🛕 廟宇","changingTable":false,"wheelchair":false,"needsAddr":false},{"id":1351165864,"name":"福德祠","lat":24.907364,"lng":121.0125148,"address":null,"hasBabyChanging":false,"hasAccessible":false,"source":"OpenStreetMap","updatedAt":"2026-06-12T07:40:23.325Z","facilityType":"temple","facilityLabel":"🛕 廟宇","changingTable":false,"wheelchair":false,"needsAddr":false},{"id":1351165867,"name":"福德祠","lat":24.8996403,"lng":121.0189482,"address":null,"hasBabyChanging":false,"hasAccessible":false,"source":"OpenStreetMap","updatedAt":"2026-06-12T07:40:23.325Z","facilityType":"temple","facilityLabel":"🛕 廟宇","changingTable":false,"wheelchair":false,"needsAddr":false},{"id":1351165868,"name":"中崙福德祠","lat":24.8986581,"lng":121.0090255,"address":null,"hasBabyChanging":false,"hasAccessible":false,"source":"OpenStreetMap","updatedAt":"2026-06-12T07:40:23.325Z","facilityType":"temple","facilityLabel":"🛕 廟宇","changingTable":false,"wheelchair":false,"needsAddr":false},{"id":1351165870,"name":"境內福德祠","lat":24.887448,"lng":120.9860686,"address":null,"hasBabyChanging":false,"hasAccessible":false,"source":"OpenStreetMap","updatedAt":"2026-06-12T07:40:23.325Z","facilityType":"temple","facilityLabel":"🛕 廟宇","changingTable":false,"wheelchair":false,"needsAddr":false},{"id":1351165872,"name":"福德宮","lat":24.9122422,"lng":120.979884,"address":null,"hasBabyChanging":false,"hasAccessible":false,"source":"OpenStreetMap","updatedAt":"2026-06-12T07:40:23.325Z","facilityType":"temple","facilityLabel":"🛕 廟宇","changingTable":false,"wheelchair":false,"needsAddr":false},{"id":1351165875,"name":"福德宮","lat":24.9111268,"lng":120.9691763,"address":null,"hasBabyChanging":false,"hasAccessible":false,"source":"OpenStreetMap","updatedAt":"2026-06-12T07:40:23.325Z","facilityType":"temple","facilityLabel":"🛕 廟宇","changingTable":false,"wheelchair":false,"needsAddr":false},{"id":1351165876,"name":"福德宮","lat":24.9159991,"lng":120.9779775,"address":null,"hasBabyChanging":false,"hasAccessible":false,"source":"OpenStreetMap","updatedAt":"2026-06-12T07:40:23.325Z","facilityType":"temple","facilityLabel":"🛕 廟宇","changingTable":false,"wheelchair":false,"needsAddr":false},{"id":1351165877,"name":"紅毛土地公廟","lat":24.9167723,"lng":120.9774074,"address":null,"hasBabyChanging":false,"hasAccessible":false,"source":"OpenStreetMap","updatedAt":"2026-06-12T07:40:23.325Z","facilityType":"temple","facilityLabel":"🛕 廟宇","changingTable":false,"wheelchair":false,"needsAddr":false},{"id":1351165878,"name":"紅毛港大庄福德宮","lat":24.9176068,"lng":120.9785313,"address":null,"hasBabyChanging":false,"hasAccessible":false,"source":"OpenStreetMap","updatedAt":"2026-06-12T07:40:23.325Z","facilityType":"temple","facilityLabel":"🛕 廟宇","changingTable":false,"wheelchair":false,"needsAddr":false},{"id":1351165881,"name":"福德廟","lat":24.9303532,"lng":120.9843077,"address":null,"hasBabyChanging":false,"hasAccessible":false,"source":"OpenStreetMap","updatedAt":"2026-06-12T07:40:23.325Z","facilityType":"temple","facilityLabel":"🛕 廟宇","changingTable":false,"wheelchair":false,"needsAddr":false},{"id":1351165882,"name":"福德宮","lat":24.9304462,"lng":120.9874849,"address":null,"hasBabyChanging":false,"hasAccessible":false,"source":"OpenStreetMap","updatedAt":"2026-06-12T07:40:23.325Z","facilityType":"temple","facilityLabel":"🛕 廟宇","changingTable":false,"wheelchair":false,"needsAddr":false},{"id":1351165884,"name":"福德祠","lat":24.9141704,"lng":121.0014341,"address":null,"hasBabyChanging":false,"hasAccessible":false,"source":"OpenStreetMap","updatedAt":"2026-06-12T07:40:23.325Z","facilityType":"temple","facilityLabel":"🛕 廟宇","changingTable":false,"wheelchair":false,"needsAddr":false},{"id":1351165889,"name":"福德祠","lat":24.9209129,"lng":121.0182975,"address":null,"hasBabyChanging":false,"hasAccessible":false,"source":"OpenStreetMap","updatedAt":"2026-06-12T07:40:23.325Z","facilityType":"temple","facilityLabel":"🛕 廟宇","changingTable":false,"wheelchair":false,"needsAddr":false},{"id":1351165895,"name":"福德宮","lat":24.910298,"lng":121.0173769,"address":null,"hasBabyChanging":false,"hasAccessible":false,"source":"OpenStreetMap","updatedAt":"2026-06-12T07:40:23.325Z","facilityType":"temple","facilityLabel":"🛕 廟宇","changingTable":false,"wheelchair":false,"needsAddr":false},{"id":1351165896,"name":"土地公","lat":24.9121467,"lng":121.0176189,"address":null,"hasBabyChanging":false,"hasAccessible":false,"source":"OpenStreetMap","updatedAt":"2026-06-12T07:40:23.325Z","facilityType":"temple","facilityLabel":"🛕 廟宇","changingTable":false,"wheelchair":false,"needsAddr":false},{"id":1351165898,"name":"福德祠","lat":24.9207773,"lng":121.0214016,"address":null,"hasBabyChanging":false,"hasAccessible":false,"source":"OpenStreetMap","updatedAt":"2026-06-12T07:40:23.325Z","facilityType":"temple","facilityLabel":"🛕 廟宇","changingTable":false,"wheelchair":false,"needsAddr":false},{"id":1351165899,"name":"福德祠","lat":24.9032352,"lng":121.0230366,"address":null,"hasBabyChanging":false,"hasAccessible":false,"source":"OpenStreetMap","updatedAt":"2026-06-12T07:40:23.325Z","facilityType":"temple","facilityLabel":"🛕 廟宇","changingTable":false,"wheelchair":false,"needsAddr":false},{"id":1351165901,"name":"田尾福德宮","lat":24.8746489,"lng":120.9896228,"address":null,"hasBabyChanging":false,"hasAccessible":false,"source":"OpenStreetMap","updatedAt":"2026-06-12T07:40:23.325Z","facilityType":"temple","facilityLabel":"🛕 廟宇","changingTable":false,"wheelchair":false,"needsAddr":false},{"id":4632453,"name":"天德堂","lat":24.8674038,"lng":120.9797624,"address":null,"hasBabyChanging":false,"hasAccessible":false,"source":"OpenStreetMap","updatedAt":"2026-06-12T07:40:23.325Z","facilityType":"temple","facilityLabel":"🛕 廟宇","changingTable":false,"wheelchair":false,"needsAddr":false},{"id":9552953,"name":"5027A 中壢→後湖(繞駛永安漁港)","lat":24.9610824,"lng":121.110753,"address":null,"hasBabyChanging":false,"hasAccessible":false,"source":"OpenStreetMap","updatedAt":"2026-06-12T07:40:23.325Z","facilityType":"harbour","facilityLabel":"⚓ 漁港","changingTable":false,"wheelchair":false,"needsAddr":false},{"id":14523925,"name":"68A 蓮花寺→家樂福（經竹北火車站、明新科技大學）","lat":24.85274,"lng":120.9820332,"address":null,"hasBabyChanging":false,"hasAccessible":false,"source":"OpenStreetMap","updatedAt":"2026-06-12T07:40:23.325Z","facilityType":"hypermarket","facilityLabel":"🛒 量販店","changingTable":false,"wheelchair":false,"needsAddr":false},{"id":14523927,"name":"68B 蓮花寺→家樂福（經明新科技大學、竹北火車站）","lat":24.85274,"lng":120.9820332,"address":null,"hasBabyChanging":false,"hasAccessible":false,"source":"OpenStreetMap","updatedAt":"2026-06-12T07:40:23.325Z","facilityType":"hypermarket","facilityLabel":"🛒 量販店","changingTable":false,"wheelchair":false,"needsAddr":false}]}