{
  "city": "新北市",
  "district": "中和區",
  "category": "transport",
  "updatedAt": "2026-06-11T22:54:44.150Z",
  "rev": 1,
  "count": 212,
  "items": [
    {
      "id": 1963001391,
      "name": "南山路口",
      "type": "bus",
      "city": "新北市",
      "district": "中和區",
      "lat": 24.9913377,
      "lng": 121.5042097,
      "routes": [
        "橘2"
      ],
      "routeCount": 1,
      "routeSource": "gtfs",
      "routeUpdatedAt": "2026-06-14T15:08:26.342Z",
      "routeConfidence": "high"
    },
    {
      "id": 1963001395,
      "name": "地政事務所",
      "type": "bus",
      "city": "新北市",
      "district": "中和區",
      "lat": 24.9903677,
      "lng": 121.5030725,
      "routes": [
        "橘2"
      ],
      "routeCount": 1,
      "routeSource": "gtfs",
      "routeUpdatedAt": "2026-06-14T15:08:26.342Z",
      "routeConfidence": "high"
    },
    {
      "id": 2083320436,
      "name": "秀朗橋",
      "type": "metro",
      "city": "新北市",
      "district": "中和區",
      "lat": 24.9903315,
      "lng": 121.5249012,
      "lines": [
        "大坪林－新北產業園區",
        "新北產業園區－大坪林"
      ],
      "lineCount": 2,
      "lineSource": "gtfs",
      "lineUpdatedAt": "2026-06-14T15:08:26.343Z",
      "lineConfidence": "high"
    },
    {
      "id": 2083320640,
      "name": "中原",
      "type": "metro",
      "city": "新北市",
      "district": "中和區",
      "lat": 25.0081782,
      "lng": 121.4842739,
      "lines": [
        "大坪林－新北產業園區",
        "新北產業園區－大坪林"
      ],
      "lineCount": 2,
      "lineSource": "gtfs",
      "lineUpdatedAt": "2026-06-14T15:08:26.343Z",
      "lineConfidence": "high"
    },
    {
      "id": 2216534997,
      "name": "捷運永安市場站",
      "type": "bus",
      "city": "新北市",
      "district": "中和區",
      "lat": 25.0023911,
      "lng": 121.5109662,
      "routes": [
        "57",
        "214直",
        "895",
        "895寵物公車",
        "897",
        "950路",
        "綠2右",
        "綠2右景美女中",
        "綠2左",
        "橘2",
        "藍41",
        "藍41延和",
        "F513",
        "F523",
        "F525",
        "F526"
      ],
      "routeCount": 16,
      "routeSource": "gtfs",
      "routeUpdatedAt": "2026-06-14T16:43:41.056Z",
      "routeConfidence": "high"
    },
    {
      "id": 2392735287,
      "name": "連城路",
      "type": "bus",
      "city": "新北市",
      "district": "中和區",
      "lat": 24.9955099,
      "lng": 121.4828345,
      "routes": [
        "57",
        "201",
        "214",
        "214直",
        "262去程半",
        "262返程半",
        "275",
        "307西藏往板橋前站",
        "307西藏往撫遠街",
        "307莒光往板橋前站",
        "307莒光往撫遠街",
        "311假日",
        "311區",
        "311路",
        "706",
        "707",
        "707寵物公車",
        "793",
        "950路",
        "985萬大樹林先導公車",
        "內科2往中和",
        "內科2往內科",
        "內科3往土城",
        "內科3往內科",
        "南軟中和(去)",
        "南軟中和(返)",
        "南軟雙和(上午)(大都會)",
        "南軟雙和(上午)(北客)",
        "南軟雙和(下午)(大都會)",
        "南軟雙和(下午)(北客)",
        "捷運頂溪站-捷運頂埔站",
        "藍41",
        "藍41延和",
        "F513"
      ],
      "routeCount": 34,
      "routeSource": "gtfs",
      "routeUpdatedAt": "2026-06-14T16:43:41.057Z",
      "routeConfidence": "high"
    },
    {
      "id": 3326707122,
      "name": "中和高中",
      "type": "bus",
      "city": "新北市",
      "district": "中和區",
      "lat": 24.9942636,
      "lng": 121.4789743,
      "routes": [
        "214",
        "214直",
        "231",
        "262去程半",
        "262返程半",
        "275",
        "311假日",
        "311區",
        "311路",
        "706",
        "707",
        "707寵物公車",
        "950路",
        "985萬大樹林先導公車",
        "三峽-中和高中",
        "內科2往中和",
        "內科2往內科",
        "內科3往土城",
        "內科3往內科",
        "南軟中和(去)",
        "南軟中和(返)",
        "南軟雙和(上午)(大都會)",
        "南軟雙和(上午)(北客)",
        "南軟雙和(下午)(大都會)",
        "南軟雙和(下午)(北客)",
        "捷運頂溪站-捷運頂埔站",
        "藍41",
        "藍41延和"
      ],
      "routeCount": 28,
      "routeSource": "gtfs",
      "routeUpdatedAt": "2026-06-14T16:43:41.057Z",
      "routeConfidence": "high"
    },
    {
      "id": 2405959949,
      "name": "員山公園",
      "type": "bus",
      "city": "新北市",
      "district": "中和區",
      "lat": 25.0040152,
      "lng": 121.4807988,
      "routes": [
        "57",
        "201",
        "231",
        "307西藏往板橋前站",
        "307西藏往撫遠街",
        "307莒光往板橋前站",
        "307莒光往撫遠街",
        "793",
        "F512"
      ],
      "routeCount": 9,
      "routeSource": "gtfs",
      "routeUpdatedAt": "2026-06-14T16:43:41.057Z",
      "routeConfidence": "high"
    },
    {
      "id": 2405959951,
      "name": "員山派出所",
      "type": "bus",
      "city": "新北市",
      "district": "中和區",
      "lat": 24.9979895,
      "lng": 121.4813559,
      "routes": [
        "57",
        "201",
        "231",
        "307西藏往板橋前站",
        "307西藏往撫遠街",
        "307莒光往板橋前站",
        "307莒光往撫遠街",
        "793"
      ],
      "routeCount": 8,
      "routeSource": "gtfs",
      "routeUpdatedAt": "2026-06-14T16:43:41.057Z",
      "routeConfidence": "high"
    },
    {
      "id": 2405959953,
      "name": "板橋監理站",
      "type": "bus",
      "city": "新北市",
      "district": "中和區",
      "lat": 25.0057795,
      "lng": 121.475869,
      "routes": [
        "57",
        "307西藏往板橋前站",
        "307西藏往撫遠街",
        "307莒光往板橋前站",
        "307莒光往撫遠街",
        "897",
        "藍31",
        "F512"
      ],
      "routeCount": 8,
      "routeSource": "gtfs",
      "routeUpdatedAt": "2026-06-14T16:43:41.058Z",
      "routeConfidence": "high"
    },
    {
      "id": 2405959955,
      "name": "積穗",
      "type": "bus",
      "city": "新北市",
      "district": "中和區",
      "lat": 25.005772,
      "lng": 121.4786937,
      "routes": [
        "57",
        "231",
        "307西藏往板橋前站",
        "307西藏往撫遠街",
        "307莒光往板橋前站",
        "307莒光往撫遠街",
        "793",
        "897",
        "藍31",
        "F512"
      ],
      "routeCount": 10,
      "routeSource": "gtfs",
      "routeUpdatedAt": "2026-06-14T16:43:41.058Z",
      "routeConfidence": "high"
    },
    {
      "id": 2405959957,
      "name": "積穗國中",
      "type": "bus",
      "city": "新北市",
      "district": "中和區",
      "lat": 25.000635,
      "lng": 121.4812362,
      "routes": [
        "57",
        "201",
        "231",
        "307西藏往板橋前站",
        "307西藏往撫遠街",
        "307莒光往板橋前站",
        "307莒光往撫遠街",
        "793"
      ],
      "routeCount": 8,
      "routeSource": "gtfs",
      "routeUpdatedAt": "2026-06-14T16:43:41.058Z",
      "routeConfidence": "high"
    },
    {
      "id": 2407137753,
      "name": "捷運秀朗橋站",
      "type": "bus",
      "city": "新北市",
      "district": "中和區",
      "lat": 24.9902258,
      "lng": 121.5245393,
      "routes": [
        "254",
        "672",
        "672區",
        "688",
        "793",
        "796",
        "933",
        "982",
        "1968",
        "捷運中和站-政大附中",
        "綠2左",
        "綠3",
        "綠6",
        "綠8",
        "F513"
      ],
      "routeCount": 15,
      "routeSource": "gtfs",
      "routeUpdatedAt": "2026-06-14T16:43:41.058Z",
      "routeConfidence": "high"
    },
    {
      "id": 2407137757,
      "name": "景平路景德街口",
      "type": "bus",
      "city": "新北市",
      "district": "中和區",
      "lat": 24.9914048,
      "lng": 121.5193012,
      "routes": [
        "241",
        "254",
        "275",
        "672",
        "672區",
        "793",
        "796",
        "933",
        "982",
        "通勤12",
        "綠2左",
        "綠3",
        "綠6",
        "綠8",
        "F513"
      ],
      "routeCount": 15,
      "routeSource": "gtfs",
      "routeUpdatedAt": "2026-06-14T16:43:41.058Z",
      "routeConfidence": "high"
    },
    {
      "id": 2407137760,
      "name": "捷運景平站",
      "type": "bus",
      "city": "新北市",
      "district": "中和區",
      "lat": 24.9920143,
      "lng": 121.5158976,
      "routes": [
        "241",
        "254",
        "275",
        "672",
        "672區",
        "793",
        "796",
        "933",
        "982",
        "通勤12",
        "綠2左",
        "綠3",
        "綠6",
        "綠8",
        "F513"
      ],
      "routeCount": 15,
      "routeSource": "gtfs",
      "routeUpdatedAt": "2026-06-14T16:43:41.068Z",
      "routeConfidence": "high"
    },
    {
      "id": 2407137762,
      "name": "南勢角 (景平路)",
      "type": "bus",
      "city": "新北市",
      "district": "中和區",
      "lat": 24.9923547,
      "lng": 121.5129551,
      "routes": [
        "202",
        "202區",
        "241",
        "262返程半",
        "275",
        "793",
        "897",
        "933",
        "982",
        "1968",
        "捷運中和站-政大附中",
        "通勤11返程半",
        "通勤12",
        "綠2左",
        "綠3",
        "綠6",
        "綠8",
        "橘9",
        "F513"
      ],
      "routeCount": 19,
      "routeSource": "gtfs",
      "routeUpdatedAt": "2026-06-14T16:43:41.068Z",
      "routeConfidence": "high"
    },
    {
      "id": 2421993588,
      "name": "捷運景安站",
      "type": "bus",
      "city": "新北市",
      "district": "中和區",
      "lat": 24.9946376,
      "lng": 121.5051918,
      "routes": [
        "8",
        "202",
        "202區",
        "262去程半",
        "262返程半",
        "262區",
        "262區狗狗公車",
        "793",
        "796",
        "895",
        "895寵物公車",
        "897",
        "897區",
        "908",
        "908三峽國小(三鶯國民運動中心)(車機)",
        "908延",
        "921",
        "921三峽二站(車機)",
        "933",
        "982",
        "982直達行政院新莊聯合辦公大樓(榮華)",
        "982直達捷運大坪林站",
        "1968",
        "5350",
        "9001",
        "捷運中和站-政大附中",
        "捷運景安站-三峽臺北大學去",
        "捷運景安站-三峽臺北大學返",
        "通勤11去程半",
        "通勤11返程半",
        "通勤12",
        "綠2左",
        "綠3",
        "綠6",
        "綠8",
        "橘1",
        "橘2",
        "橘9",
        "藍41",
        "藍41延和",
        "F512副",
        "F512副假日延",
        "F513"
      ],
      "routeCount": 43,
      "routeSource": "gtfs",
      "routeUpdatedAt": "2026-06-14T16:43:41.069Z",
      "routeConfidence": "high"
    },
    {
      "id": 2491474581,
      "name": "三介廟",
      "type": "bus",
      "city": "新北市",
      "district": "中和區",
      "lat": 24.9878689,
      "lng": 121.5133842,
      "routes": [
        "8",
        "202",
        "202區",
        "208",
        "208直",
        "208區",
        "242",
        "249",
        "249繞崁頂",
        "624",
        "624綠野香坡",
        "670",
        "897",
        "897區",
        "橘1",
        "橘9"
      ],
      "routeCount": 16,
      "routeSource": "gtfs",
      "routeUpdatedAt": "2026-06-14T16:43:41.069Z",
      "routeConfidence": "high"
    },
    {
      "id": 2491474585,
      "name": "景新街",
      "type": "bus",
      "city": "新北市",
      "district": "中和區",
      "lat": 24.9897562,
      "lng": 121.5124566,
      "routes": [
        "8",
        "202",
        "202區",
        "208",
        "208直",
        "208區",
        "242",
        "249",
        "249繞崁頂",
        "624",
        "624綠野香坡",
        "670",
        "897",
        "897區",
        "橘1",
        "橘9"
      ],
      "routeCount": 16,
      "routeSource": "gtfs",
      "routeUpdatedAt": "2026-06-14T16:43:41.070Z",
      "routeConfidence": "high"
    },
    {
      "id": 2517658828,
      "name": "安平路",
      "type": "bus",
      "city": "新北市",
      "district": "中和區",
      "lat": 24.9976986,
      "lng": 121.511922,
      "routes": [
        "5",
        "227",
        "304承德",
        "304承德狗狗公車",
        "304重慶",
        "F513",
        "F526"
      ],
      "routeCount": 7,
      "routeSource": "gtfs",
      "routeUpdatedAt": "2026-06-14T16:43:41.070Z",
      "routeConfidence": "high"
    },
    {
      "id": 3800717745,
      "name": "永安市場",
      "type": "metro",
      "city": "新北市",
      "district": "中和區",
      "lat": 25.0024105,
      "lng": 121.5109003,
      "lines": [
        "中和新蘆線"
      ],
      "lineCount": 1,
      "lineSource": "gtfs",
      "lineUpdatedAt": "2026-06-14T16:43:41.070Z",
      "lineConfidence": "high"
    },
    {
      "id": 2517658976,
      "name": "潭墘",
      "type": "bus",
      "city": "新北市",
      "district": "中和區",
      "lat": 24.9994287,
      "lng": 121.5134596,
      "routes": [
        "5",
        "227",
        "304承德",
        "304承德狗狗公車",
        "304重慶",
        "F525"
      ],
      "routeCount": 6,
      "routeSource": "gtfs",
      "routeUpdatedAt": "2026-06-14T16:43:41.070Z",
      "routeConfidence": "high"
    },
    {
      "id": 2663477269,
      "name": "劉厝",
      "type": "bus",
      "city": "新北市",
      "district": "中和區",
      "lat": 24.9956782,
      "lng": 121.5265319,
      "routes": [
        "241",
        "254區",
        "275",
        "688",
        "通勤12",
        "綠2右",
        "綠2右景美女中",
        "F525"
      ],
      "routeCount": 8,
      "routeSource": "gtfs",
      "routeUpdatedAt": "2026-06-14T16:43:41.070Z",
      "routeConfidence": "high"
    },
    {
      "id": 2663477273,
      "name": "秀朗路三段70巷",
      "type": "bus",
      "city": "新北市",
      "district": "中和區",
      "lat": 24.9945125,
      "lng": 121.5264164,
      "routes": [
        "241",
        "254區",
        "275",
        "688",
        "中和自立路-新店",
        "通勤12",
        "綠2右",
        "綠2右景美女中"
      ],
      "routeCount": 8,
      "routeSource": "gtfs",
      "routeUpdatedAt": "2026-06-14T16:43:41.071Z",
      "routeConfidence": "high"
    },
    {
      "id": 2663477281,
      "name": "秀景里",
      "type": "bus",
      "city": "新北市",
      "district": "中和區",
      "lat": 24.9913792,
      "lng": 121.5260291,
      "routes": [
        "241",
        "254區",
        "275",
        "688",
        "中和自立路-新店",
        "通勤12",
        "綠2右",
        "綠2右景美女中"
      ],
      "routeCount": 8,
      "routeSource": "gtfs",
      "routeUpdatedAt": "2026-06-14T16:43:41.071Z",
      "routeConfidence": "high"
    },
    {
      "id": 2663477293,
      "name": "范厝",
      "type": "bus",
      "city": "新北市",
      "district": "中和區",
      "lat": 24.9930164,
      "lng": 121.5262102,
      "routes": [
        "688"
      ],
      "routeCount": 1,
      "routeSource": "gtfs",
      "routeUpdatedAt": "2026-06-14T15:08:26.345Z",
      "routeConfidence": "high"
    },
    {
      "id": 2679012632,
      "name": "南勢角",
      "type": "bus",
      "city": "新北市",
      "district": "中和區",
      "lat": 24.9903504,
      "lng": 121.5107524,
      "routes": [
        "207",
        "207狗狗公車",
        "241",
        "275",
        "796",
        "895",
        "895寵物公車"
      ],
      "routeCount": 7,
      "routeSource": "gtfs",
      "routeUpdatedAt": "2026-06-14T16:43:41.071Z",
      "routeConfidence": "high"
    },
    {
      "id": 2679012642,
      "name": "捷運南勢角站",
      "type": "bus",
      "city": "新北市",
      "district": "中和區",
      "lat": 24.9890013,
      "lng": 121.5099496,
      "routes": [
        "241",
        "275",
        "796",
        "895",
        "895寵物公車",
        "F512副",
        "F512副假日延"
      ],
      "routeCount": 7,
      "routeSource": "gtfs",
      "routeUpdatedAt": "2026-06-14T16:43:41.071Z",
      "routeConfidence": "high"
    },
    {
      "id": 2679012644,
      "name": "中和國中",
      "type": "bus",
      "city": "新北市",
      "district": "中和區",
      "lat": 24.9872589,
      "lng": 121.5085453,
      "routes": [
        "241",
        "242",
        "275",
        "796",
        "895",
        "895寵物公車",
        "F512副",
        "F512副假日延"
      ],
      "routeCount": 8,
      "routeSource": "gtfs",
      "routeUpdatedAt": "2026-06-14T16:43:41.071Z",
      "routeConfidence": "high"
    },
    {
      "id": 2679012651,
      "name": "外南站",
      "type": "bus",
      "city": "新北市",
      "district": "中和區",
      "lat": 24.9902693,
      "lng": 121.506493,
      "routes": [
        "241",
        "242",
        "275",
        "796"
      ],
      "routeCount": 4,
      "routeSource": "gtfs",
      "routeUpdatedAt": "2026-06-14T16:43:41.071Z",
      "routeConfidence": "high"
    },
    {
      "id": 2679012657,
      "name": "南山捷運路",
      "type": "bus",
      "city": "新北市",
      "district": "中和區",
      "lat": 24.9915551,
      "lng": 121.5048604,
      "routes": [
        "241",
        "242",
        "275",
        "796"
      ],
      "routeCount": 4,
      "routeSource": "gtfs",
      "routeUpdatedAt": "2026-06-14T16:43:41.071Z",
      "routeConfidence": "high"
    },
    {
      "id": 2679012662,
      "name": "捷運景安站",
      "type": "bus",
      "city": "新北市",
      "district": "中和區",
      "lat": 24.992985,
      "lng": 121.50473,
      "routes": [
        "8",
        "202",
        "202區",
        "241",
        "242",
        "262去程半",
        "262返程半",
        "262區",
        "262區狗狗公車",
        "275",
        "793",
        "796",
        "895",
        "895寵物公車",
        "897",
        "897區",
        "908",
        "908三峽國小(三鶯國民運動中心)(車機)",
        "908延",
        "921",
        "921三峽二站(車機)",
        "933",
        "982",
        "982直達行政院新莊聯合辦公大樓(榮華)",
        "982直達捷運大坪林站",
        "1968",
        "5350",
        "9001",
        "捷運中和站-政大附中",
        "捷運景安站-三峽臺北大學去",
        "捷運景安站-三峽臺北大學返",
        "通勤11去程半",
        "通勤11返程半",
        "通勤12",
        "綠2左",
        "綠3",
        "綠6",
        "綠8",
        "橘1",
        "橘2",
        "橘9",
        "藍41",
        "藍41延和",
        "F512副",
        "F512副假日延",
        "F513"
      ],
      "routeCount": 46,
      "routeSource": "gtfs",
      "routeUpdatedAt": "2026-06-14T16:43:41.072Z",
      "routeConfidence": "high"
    },
    {
      "id": 2679012668,
      "name": "南華路口",
      "type": "bus",
      "city": "新北市",
      "district": "中和區",
      "lat": 24.9955348,
      "lng": 121.5015866,
      "routes": [
        "202區",
        "242",
        "262去程半",
        "262返程半",
        "262區",
        "262區狗狗公車",
        "275",
        "908",
        "908三峽國小(三鶯國民運動中心)(車機)",
        "908延",
        "908南華路口(車機)",
        "921",
        "921三峽二站(車機)",
        "921南華路口(車機)",
        "982",
        "通勤11去程半",
        "通勤11返程半",
        "通勤12",
        "綠3",
        "綠6",
        "綠8",
        "F512副",
        "F512副假日延",
        "F513"
      ],
      "routeCount": 24,
      "routeSource": "gtfs",
      "routeUpdatedAt": "2026-06-14T16:43:41.073Z",
      "routeConfidence": "high"
    },
    {
      "id": 2679012670,
      "name": "中和區公所 (景平路)",
      "type": "bus",
      "city": "新北市",
      "district": "中和區",
      "lat": 24.9984502,
      "lng": 121.499655,
      "routes": [
        "202區",
        "262去程半",
        "262返程半",
        "262區",
        "262區狗狗公車",
        "275",
        "908",
        "908三峽國小(三鶯國民運動中心)(車機)",
        "908延",
        "908南華路口(車機)",
        "921",
        "921三峽二站(車機)",
        "921南華路口(車機)",
        "982",
        "通勤11去程半",
        "通勤11返程半",
        "通勤12",
        "綠3",
        "綠6",
        "綠8",
        "F512副",
        "F512副假日延"
      ],
      "routeCount": 22,
      "routeSource": "gtfs",
      "routeUpdatedAt": "2026-06-14T16:43:41.073Z",
      "routeConfidence": "high"
    },
    {
      "id": 2679012675,
      "name": "中和第一分局",
      "type": "bus",
      "city": "新北市",
      "district": "中和區",
      "lat": 24.9980318,
      "lng": 121.5015838
    },
    {
      "id": 2679012680,
      "name": "中和廟口",
      "type": "bus",
      "city": "新北市",
      "district": "中和區",
      "lat": 25.0007775,
      "lng": 121.5009212,
      "routes": [
        "5",
        "57",
        "202",
        "214",
        "214直",
        "241",
        "311假日",
        "311區",
        "311路",
        "793",
        "796",
        "950路",
        "南軟中和(去)",
        "南軟中和(返)",
        "綠6"
      ],
      "routeCount": 15,
      "routeSource": "gtfs",
      "routeUpdatedAt": "2026-06-14T16:43:41.074Z",
      "routeConfidence": "high"
    },
    {
      "id": 2679012686,
      "name": "中和農會",
      "type": "bus",
      "city": "新北市",
      "district": "中和區",
      "lat": 25.0019099,
      "lng": 121.4998713,
      "routes": [
        "5",
        "202",
        "982",
        "F512副",
        "F512副假日延"
      ],
      "routeCount": 5,
      "routeSource": "gtfs",
      "routeUpdatedAt": "2026-06-14T16:43:41.074Z",
      "routeConfidence": "high"
    },
    {
      "id": 2679012692,
      "name": "連城中和路口",
      "type": "bus",
      "city": "新北市",
      "district": "中和區",
      "lat": 25.0021702,
      "lng": 121.4986513,
      "routes": [
        "57",
        "214",
        "214直",
        "241",
        "243",
        "243寵物公車",
        "275",
        "311假日",
        "311區",
        "311路",
        "706",
        "707",
        "707寵物公車",
        "793",
        "796",
        "908南華路口(車機)",
        "921南華路口(車機)",
        "950路",
        "內科2往中和",
        "內科2往內科",
        "內科3往土城",
        "內科3往內科",
        "南軟中和(去)",
        "南軟中和(返)",
        "南軟雙和(上午)(大都會)",
        "南軟雙和(上午)(北客)",
        "南軟雙和(下午)(大都會)",
        "南軟雙和(下午)(北客)",
        "捷運頂溪站-捷運頂埔站"
      ],
      "routeCount": 29,
      "routeSource": "gtfs",
      "routeUpdatedAt": "2026-06-14T16:43:41.075Z",
      "routeConfidence": "high"
    },
    {
      "id": 2679012700,
      "name": "連城景平路",
      "type": "bus",
      "city": "新北市",
      "district": "中和區",
      "lat": 25.0004273,
      "lng": 121.4969802
    },
    {
      "id": 2679822087,
      "name": "中和國稅局",
      "type": "bus",
      "city": "新北市",
      "district": "中和區",
      "lat": 24.9982499,
      "lng": 121.4948168,
      "routes": [
        "57",
        "214",
        "214直",
        "241",
        "243",
        "243寵物公車",
        "275",
        "307西藏往板橋前站",
        "307西藏往撫遠街",
        "307莒光往板橋前站",
        "307莒光往撫遠街",
        "311假日",
        "311區",
        "311路",
        "706",
        "707",
        "707寵物公車",
        "793",
        "908",
        "908三峽國小(三鶯國民運動中心)(車機)",
        "908延",
        "908南華路口(車機)",
        "921",
        "921三峽二站(車機)",
        "921南華路口(車機)",
        "950路",
        "985萬大樹林先導公車",
        "內科2往中和",
        "內科2往內科",
        "內科3往土城",
        "內科3往內科",
        "南軟中和(去)",
        "南軟中和(返)",
        "南軟雙和(上午)(大都會)",
        "南軟雙和(上午)(北客)",
        "南軟雙和(下午)(大都會)",
        "南軟雙和(下午)(北客)"
      ],
      "routeCount": 37,
      "routeSource": "gtfs",
      "routeUpdatedAt": "2026-06-14T16:43:41.076Z",
      "routeConfidence": "high"
    },
    {
      "id": 2679822091,
      "name": "台貿一村",
      "type": "bus",
      "city": "新北市",
      "district": "中和區",
      "lat": 24.9973924,
      "lng": 121.4935699
    },
    {
      "id": 2679822100,
      "name": "連城中正路口",
      "type": "bus",
      "city": "新北市",
      "district": "中和區",
      "lat": 24.9963077,
      "lng": 121.4862412
    },
    {
      "id": 2691292095,
      "name": "圓通路口",
      "type": "bus",
      "city": "新北市",
      "district": "中和區",
      "lat": 24.9935792,
      "lng": 121.4978673,
      "routes": [
        "933",
        "橘2",
        "橘5",
        "橘5延",
        "藍41",
        "藍41延和",
        "F512"
      ],
      "routeCount": 7,
      "routeSource": "gtfs",
      "routeUpdatedAt": "2026-06-14T16:43:41.078Z",
      "routeConfidence": "high"
    },
    {
      "id": 2691292098,
      "name": "板南路口",
      "type": "bus",
      "city": "新北市",
      "district": "中和區",
      "lat": 24.9939457,
      "lng": 121.496913
    },
    {
      "id": 2820063982,
      "name": "中和教會",
      "type": "bus",
      "city": "新北市",
      "district": "中和區",
      "lat": 24.9928342,
      "lng": 121.5090115,
      "routes": [
        "202",
        "202區",
        "262去程半",
        "262返程半",
        "262區",
        "262區狗狗公車",
        "793",
        "895",
        "895寵物公車",
        "897",
        "933",
        "982",
        "通勤11去程半",
        "通勤11返程半",
        "通勤12",
        "綠2左",
        "綠3",
        "綠6",
        "綠8",
        "橘9"
      ],
      "routeCount": 20,
      "routeSource": "gtfs",
      "routeUpdatedAt": "2026-06-14T16:43:41.078Z",
      "routeConfidence": "high"
    },
    {
      "id": 2820063984,
      "name": "中興街口",
      "type": "bus",
      "city": "新北市",
      "district": "中和區",
      "lat": 24.9934241,
      "lng": 121.500671,
      "routes": [
        "933",
        "橘5",
        "橘5延",
        "藍41",
        "藍41延和",
        "F512"
      ],
      "routeCount": 6,
      "routeSource": "gtfs",
      "routeUpdatedAt": "2026-06-14T16:43:41.078Z",
      "routeConfidence": "high"
    },
    {
      "id": 2820063986,
      "name": "南勢角",
      "type": "bus",
      "city": "新北市",
      "district": "中和區",
      "lat": 24.9928528,
      "lng": 121.5116033,
      "routes": [
        "202",
        "202區",
        "241",
        "262返程半",
        "275",
        "793",
        "897",
        "933",
        "982",
        "1968",
        "捷運中和站-政大附中",
        "通勤11返程半",
        "通勤12",
        "綠2左",
        "綠3",
        "綠6",
        "綠8",
        "橘9",
        "F513"
      ],
      "routeCount": 19,
      "routeSource": "gtfs",
      "routeUpdatedAt": "2026-06-14T16:43:41.079Z",
      "routeConfidence": "high"
    },
    {
      "id": 2820063991,
      "name": "捷運景平站",
      "type": "bus",
      "city": "新北市",
      "district": "中和區",
      "lat": 24.9921933,
      "lng": 121.5173092,
      "routes": [
        "241",
        "254",
        "275",
        "672",
        "672區",
        "793",
        "796",
        "933",
        "982",
        "通勤12",
        "綠2左",
        "綠3",
        "綠6",
        "綠8",
        "F513"
      ],
      "routeCount": 15,
      "routeSource": "gtfs",
      "routeUpdatedAt": "2026-06-14T16:43:41.079Z",
      "routeConfidence": "high"
    },
    {
      "id": 2866571176,
      "name": "景平",
      "type": "metro",
      "city": "新北市",
      "district": "中和區",
      "lat": 24.9921502,
      "lng": 121.5161735,
      "lines": [
        "大坪林－新北產業園區",
        "新北產業園區－大坪林"
      ],
      "lineCount": 2,
      "lineSource": "gtfs",
      "lineUpdatedAt": "2026-06-14T15:08:26.348Z",
      "lineConfidence": "high"
    },
    {
      "id": 2924915292,
      "name": "泰和街",
      "type": "bus",
      "city": "新北市",
      "district": "中和區",
      "lat": 25.0001599,
      "lng": 121.4994605,
      "routes": [
        "275",
        "982",
        "綠6"
      ],
      "routeCount": 3,
      "routeSource": "gtfs",
      "routeUpdatedAt": "2026-06-14T16:43:41.079Z",
      "routeConfidence": "high"
    },
    {
      "id": 2924915296,
      "name": "廟美里",
      "type": "bus",
      "city": "新北市",
      "district": "中和區",
      "lat": 25.0026394,
      "lng": 121.5004414,
      "routes": [
        "51",
        "297",
        "706",
        "707",
        "707寵物公車",
        "897",
        "內科2往中和",
        "內科2往內科",
        "內科3往土城",
        "內科3往內科",
        "南軟雙和(上午)(大都會)",
        "南軟雙和(上午)(北客)",
        "南軟雙和(下午)(大都會)",
        "南軟雙和(下午)(北客)"
      ],
      "routeCount": 14,
      "routeSource": "gtfs",
      "routeUpdatedAt": "2026-06-14T16:43:41.079Z",
      "routeConfidence": "high"
    },
    {
      "id": 2924915544,
      "name": "景新街口",
      "type": "bus",
      "city": "新北市",
      "district": "中和區",
      "lat": 24.9962673,
      "lng": 121.5058166,
      "routes": [
        "8",
        "202",
        "241",
        "793",
        "796",
        "895",
        "895寵物公車",
        "897",
        "897區",
        "綠2右",
        "綠2右景美女中",
        "綠2左",
        "綠6",
        "橘1",
        "橘2",
        "藍41",
        "藍41延和",
        "F513"
      ],
      "routeCount": 18,
      "routeSource": "gtfs",
      "routeUpdatedAt": "2026-06-14T16:43:41.080Z",
      "routeConfidence": "high"
    },
    {
      "id": 2925112481,
      "name": "中和派出所",
      "type": "bus",
      "city": "新北市",
      "district": "中和區",
      "lat": 24.9998271,
      "lng": 121.5030797,
      "routes": [
        "5",
        "57",
        "202",
        "214",
        "214直",
        "241",
        "311假日",
        "311區",
        "311路",
        "793",
        "796",
        "950路",
        "南軟中和(去)",
        "南軟中和(返)",
        "綠6"
      ],
      "routeCount": 15,
      "routeSource": "gtfs",
      "routeUpdatedAt": "2026-06-14T16:43:41.080Z",
      "routeConfidence": "high"
    },
    {
      "id": 2925112482,
      "name": "南山高中",
      "type": "bus",
      "city": "新北市",
      "district": "中和區",
      "lat": 24.9996842,
      "lng": 121.5047449,
      "routes": [
        "5",
        "57",
        "202",
        "214",
        "214直",
        "241",
        "311假日",
        "311區",
        "311路",
        "793",
        "796",
        "950路",
        "南軟中和(去)",
        "南軟中和(返)",
        "綠6",
        "F523"
      ],
      "routeCount": 16,
      "routeSource": "gtfs",
      "routeUpdatedAt": "2026-06-14T16:43:41.080Z",
      "routeConfidence": "high"
    },
    {
      "id": 2925112484,
      "name": "安和路口",
      "type": "bus",
      "city": "新北市",
      "district": "中和區",
      "lat": 24.9978129,
      "lng": 121.5069075,
      "routes": [
        "202",
        "241",
        "793",
        "796",
        "895",
        "895寵物公車",
        "897",
        "綠2右",
        "綠2右景美女中",
        "綠2左",
        "綠6",
        "橘2",
        "藍41",
        "藍41延和",
        "F513"
      ],
      "routeCount": 15,
      "routeSource": "gtfs",
      "routeUpdatedAt": "2026-06-14T16:43:41.081Z",
      "routeConfidence": "high"
    },
    {
      "id": 2925112486,
      "name": "雙和里",
      "type": "bus",
      "city": "新北市",
      "district": "中和區",
      "lat": 24.9995947,
      "lng": 121.5072125,
      "routes": [
        "5",
        "57",
        "202",
        "214",
        "214直",
        "241",
        "311假日",
        "311區",
        "311路",
        "793",
        "796",
        "950路",
        "南軟中和(去)",
        "南軟中和(返)",
        "綠6",
        "F523"
      ],
      "routeCount": 16,
      "routeSource": "gtfs",
      "routeUpdatedAt": "2026-06-14T16:43:41.081Z",
      "routeConfidence": "high"
    },
    {
      "id": 2925551452,
      "name": "華中橋",
      "type": "bus",
      "city": "新北市",
      "district": "中和區",
      "lat": 25.0029907,
      "lng": 121.496704,
      "routes": [
        "201",
        "202",
        "202區",
        "307西藏往板橋前站",
        "307西藏往撫遠街",
        "307莒光往板橋前站",
        "307莒光往撫遠街",
        "985萬大樹林先導公車"
      ],
      "routeCount": 8,
      "routeSource": "gtfs",
      "routeUpdatedAt": "2026-06-14T16:43:41.081Z",
      "routeConfidence": "high"
    },
    {
      "id": 2929232545,
      "name": "中和保養廠",
      "type": "bus",
      "city": "新北市",
      "district": "中和區",
      "lat": 25.0026143,
      "lng": 121.4923124,
      "routes": [
        "5",
        "51",
        "201",
        "262去程半",
        "262返程半",
        "262區",
        "262區狗狗公車",
        "297",
        "897",
        "982",
        "通勤11去程半",
        "通勤11返程半",
        "通勤12"
      ],
      "routeCount": 13,
      "routeSource": "gtfs",
      "routeUpdatedAt": "2026-06-14T16:43:41.081Z",
      "routeConfidence": "high"
    },
    {
      "id": 2929232547,
      "name": "中山錦和路口",
      "type": "bus",
      "city": "新北市",
      "district": "中和區",
      "lat": 25.0049839,
      "lng": 121.4863131,
      "routes": [
        "51",
        "201",
        "262去程半",
        "262返程半",
        "897"
      ],
      "routeCount": 5,
      "routeSource": "gtfs",
      "routeUpdatedAt": "2026-06-14T16:43:41.082Z",
      "routeConfidence": "high"
    },
    {
      "id": 2929232549,
      "name": "中山路",
      "type": "bus",
      "city": "新北市",
      "district": "中和區",
      "lat": 25.0037192,
      "lng": 121.4897313
    },
    {
      "id": 4169713693,
      "name": "中正中山路口",
      "type": "bus",
      "city": "新北市",
      "district": "中和區",
      "lat": 25.0059119,
      "lng": 121.4837788,
      "routes": [
        "橘5",
        "橘5延"
      ],
      "routeCount": 2,
      "routeSource": "gtfs",
      "routeUpdatedAt": "2026-06-14T15:08:26.349Z",
      "routeConfidence": "high"
    },
    {
      "id": 2929232553,
      "name": "積穗",
      "type": "bus",
      "city": "新北市",
      "district": "中和區",
      "lat": 25.0054861,
      "lng": 121.4809449,
      "routes": [
        "51",
        "201",
        "231",
        "307西藏往板橋前站",
        "307莒光往板橋前站",
        "897",
        "藍31"
      ],
      "routeCount": 7,
      "routeSource": "gtfs",
      "routeUpdatedAt": "2026-06-14T16:43:41.082Z",
      "routeConfidence": "high"
    },
    {
      "id": 3031546125,
      "name": "華泰新城",
      "type": "bus",
      "city": "新北市",
      "district": "中和區",
      "lat": 25.0003205,
      "lng": 121.5091905,
      "routes": [
        "5",
        "57",
        "214",
        "214直",
        "311假日",
        "311區",
        "311路",
        "895",
        "895寵物公車",
        "897",
        "950路",
        "南軟中和(去)",
        "南軟中和(返)",
        "綠2右",
        "綠2右景美女中",
        "綠2左",
        "橘2",
        "藍41",
        "藍41延和",
        "F513",
        "F526"
      ],
      "routeCount": 21,
      "routeSource": "gtfs",
      "routeUpdatedAt": "2026-06-14T16:43:41.082Z",
      "routeConfidence": "high"
    },
    {
      "id": 3065794003,
      "name": "環球購物中心",
      "type": "bus",
      "city": "新北市",
      "district": "中和區",
      "lat": 25.0061452,
      "lng": 121.4735436,
      "routes": [
        "57",
        "307西藏往板橋前站",
        "307西藏往撫遠街",
        "307莒光往板橋前站",
        "307莒光往撫遠街",
        "897",
        "藍31"
      ],
      "routeCount": 7,
      "routeSource": "gtfs",
      "routeUpdatedAt": "2026-06-14T16:43:41.082Z",
      "routeConfidence": "high"
    },
    {
      "id": 3066846204,
      "name": "烘爐地",
      "type": "bus",
      "city": "新北市",
      "district": "中和區",
      "lat": 24.9799086,
      "lng": 121.4988015,
      "routes": [
        "249",
        "249繞崁頂",
        "670",
        "895",
        "895寵物公車",
        "F512副",
        "F512副假日延"
      ],
      "routeCount": 7,
      "routeSource": "gtfs",
      "routeUpdatedAt": "2026-06-14T16:43:41.082Z",
      "routeConfidence": "high"
    },
    {
      "id": 3066851509,
      "name": "登山口",
      "type": "bus",
      "city": "新北市",
      "district": "中和區",
      "lat": 24.9755489,
      "lng": 121.5012623
    },
    {
      "id": 3066851510,
      "name": "鴛鴦亭",
      "type": "bus",
      "city": "新北市",
      "district": "中和區",
      "lat": 24.9736658,
      "lng": 121.5012813,
      "routes": [
        "F512副假日延"
      ],
      "routeCount": 1,
      "routeSource": "gtfs",
      "routeUpdatedAt": "2026-06-14T15:08:26.350Z",
      "routeConfidence": "high"
    },
    {
      "id": 3066851511,
      "name": "埤尾站",
      "type": "bus",
      "city": "新北市",
      "district": "中和區",
      "lat": 24.9777486,
      "lng": 121.5004085,
      "routes": [
        "F512副假日延"
      ],
      "routeCount": 1,
      "routeSource": "gtfs",
      "routeUpdatedAt": "2026-06-14T15:08:26.350Z",
      "routeConfidence": "high"
    },
    {
      "id": 3066851513,
      "name": "北一游泳池",
      "type": "bus",
      "city": "新北市",
      "district": "中和區",
      "lat": 24.9802866,
      "lng": 121.5007515,
      "routes": [
        "249",
        "249繞崁頂",
        "670",
        "895",
        "895寵物公車",
        "F512副",
        "F512副假日延"
      ],
      "routeCount": 7,
      "routeSource": "gtfs",
      "routeUpdatedAt": "2026-06-14T16:43:41.082Z",
      "routeConfidence": "high"
    },
    {
      "id": 3139881662,
      "name": "中和國民運動中心",
      "type": "bus",
      "city": "新北市",
      "district": "中和區",
      "lat": 24.9943959,
      "lng": 121.4887413,
      "routes": [
        "201",
        "241",
        "243",
        "243寵物公車",
        "1968",
        "5350",
        "9001",
        "橘5",
        "橘5延",
        "藍18中和站",
        "藍18新莊田徑場(中和里)",
        "藍41",
        "藍41延和",
        "F512"
      ],
      "routeCount": 14,
      "routeSource": "gtfs",
      "routeUpdatedAt": "2026-06-14T16:43:41.083Z",
      "routeConfidence": "high"
    },
    {
      "id": 3139881663,
      "name": "中正里一",
      "type": "bus",
      "city": "新北市",
      "district": "中和區",
      "lat": 24.9942071,
      "lng": 121.4871383,
      "routes": [
        "1968",
        "5350",
        "9001",
        "橘5",
        "橘5延",
        "藍41",
        "藍41延和"
      ],
      "routeCount": 7,
      "routeSource": "gtfs",
      "routeUpdatedAt": "2026-06-14T16:43:41.083Z",
      "routeConfidence": "high"
    },
    {
      "id": 3155757905,
      "name": "東森廣場",
      "type": "bus",
      "city": "新北市",
      "district": "中和區",
      "lat": 24.9925415,
      "lng": 121.5144672,
      "routes": [
        "254",
        "672",
        "672區",
        "796",
        "1968",
        "綠2左",
        "綠3",
        "綠6",
        "綠8"
      ],
      "routeCount": 9,
      "routeSource": "gtfs",
      "routeUpdatedAt": "2026-06-14T16:43:41.083Z",
      "routeConfidence": "high"
    },
    {
      "id": 3166784690,
      "name": "壽德街口",
      "type": "bus",
      "city": "新北市",
      "district": "中和區",
      "lat": 24.993903,
      "lng": 121.4664919,
      "routes": [
        "577",
        "604路",
        "651",
        "651假日",
        "667",
        "藍31"
      ],
      "routeCount": 6,
      "routeSource": "gtfs",
      "routeUpdatedAt": "2026-06-14T16:43:41.083Z",
      "routeConfidence": "high"
    },
    {
      "id": 3166784696,
      "name": "德光路",
      "type": "bus",
      "city": "新北市",
      "district": "中和區",
      "lat": 25.0037791,
      "lng": 121.4696714,
      "routes": [
        "604路",
        "667",
        "中和-新北板橋公車站",
        "藍31",
        "F512"
      ],
      "routeCount": 5,
      "routeSource": "gtfs",
      "routeUpdatedAt": "2026-06-14T16:43:41.083Z",
      "routeConfidence": "high"
    },
    {
      "id": 3166784698,
      "name": "德光路口",
      "type": "bus",
      "city": "新北市",
      "district": "中和區",
      "lat": 25.0044554,
      "lng": 121.4713262,
      "routes": [
        "604路",
        "667",
        "中和-新北板橋公車站",
        "藍31",
        "F512"
      ],
      "routeCount": 5,
      "routeSource": "gtfs",
      "routeUpdatedAt": "2026-06-14T16:43:41.083Z",
      "routeConfidence": "high"
    },
    {
      "id": 3166784700,
      "name": "民德路口",
      "type": "bus",
      "city": "新北市",
      "district": "中和區",
      "lat": 25.0015737,
      "lng": 121.468929,
      "routes": [
        "604路",
        "651",
        "651假日",
        "藍31",
        "F512"
      ],
      "routeCount": 5,
      "routeSource": "gtfs",
      "routeUpdatedAt": "2026-06-14T16:43:41.084Z",
      "routeConfidence": "high"
    },
    {
      "id": 3166784705,
      "name": "瑞穗里",
      "type": "bus",
      "city": "新北市",
      "district": "中和區",
      "lat": 25.0068568,
      "lng": 121.4722286,
      "routes": [
        "265夜間公車",
        "265區(三重)",
        "265區(大南)",
        "604路",
        "657",
        "657延",
        "657經海山拖吊場",
        "藍17"
      ],
      "routeCount": 8,
      "routeSource": "gtfs",
      "routeUpdatedAt": "2026-06-14T16:43:41.084Z",
      "routeConfidence": "high"
    },
    {
      "id": 3166789018,
      "name": "自強國小 (民德路)",
      "type": "bus",
      "city": "新北市",
      "district": "中和區",
      "lat": 24.9999801,
      "lng": 121.4686924,
      "routes": [
        "604路",
        "651",
        "651假日",
        "藍31",
        "F512"
      ],
      "routeCount": 5,
      "routeSource": "gtfs",
      "routeUpdatedAt": "2026-06-14T16:43:41.084Z",
      "routeConfidence": "high"
    },
    {
      "id": 3166789020,
      "name": "莒光德光路口",
      "type": "bus",
      "city": "新北市",
      "district": "中和區",
      "lat": 25.0052244,
      "lng": 121.4721258,
      "routes": [
        "577",
        "604路"
      ],
      "routeCount": 2,
      "routeSource": "gtfs",
      "routeUpdatedAt": "2026-06-14T16:43:41.084Z",
      "routeConfidence": "high"
    },
    {
      "id": 3166789022,
      "name": "華福街口",
      "type": "bus",
      "city": "新北市",
      "district": "中和區",
      "lat": 24.9972333,
      "lng": 121.4678915,
      "routes": [
        "604路",
        "651",
        "651假日",
        "藍31",
        "F512"
      ],
      "routeCount": 5,
      "routeSource": "gtfs",
      "routeUpdatedAt": "2026-06-14T16:43:41.084Z",
      "routeConfidence": "high"
    },
    {
      "id": 3180257857,
      "name": "秀山國小",
      "type": "bus",
      "city": "新北市",
      "district": "中和區",
      "lat": 24.9942966,
      "lng": 121.5219316,
      "routes": [
        "橘2"
      ],
      "routeCount": 1,
      "routeSource": "gtfs",
      "routeUpdatedAt": "2026-06-14T15:08:26.351Z",
      "routeConfidence": "high"
    },
    {
      "id": 3180257859,
      "name": "秀山站",
      "type": "bus",
      "city": "新北市",
      "district": "中和區",
      "lat": 24.9941783,
      "lng": 121.5203314,
      "routes": [
        "51",
        "57",
        "橘2",
        "F513"
      ],
      "routeCount": 4,
      "routeSource": "gtfs",
      "routeUpdatedAt": "2026-06-14T16:43:41.084Z",
      "routeConfidence": "high"
    },
    {
      "id": 3180257876,
      "name": "自立路",
      "type": "bus",
      "city": "新北市",
      "district": "中和區",
      "lat": 24.9965556,
      "lng": 121.5225669,
      "routes": [
        "51",
        "57",
        "橘2"
      ],
      "routeCount": 3,
      "routeSource": "gtfs",
      "routeUpdatedAt": "2026-06-14T16:43:41.084Z",
      "routeConfidence": "high"
    },
    {
      "id": 3311203214,
      "name": "一江新村",
      "type": "bus",
      "city": "新北市",
      "district": "中和區",
      "lat": 25.0024357,
      "lng": 121.4981046,
      "routes": [
        "5",
        "51",
        "202",
        "297",
        "897",
        "982"
      ],
      "routeCount": 6,
      "routeSource": "gtfs",
      "routeUpdatedAt": "2026-06-14T16:43:41.084Z",
      "routeConfidence": "high"
    },
    {
      "id": 3311203220,
      "name": "大潤發",
      "type": "bus",
      "city": "新北市",
      "district": "中和區",
      "lat": 25.0029523,
      "lng": 121.4994265
    },
    {
      "id": 3311207888,
      "name": "莊敬路",
      "type": "bus",
      "city": "新北市",
      "district": "中和區",
      "lat": 25.0059894,
      "lng": 121.5015392,
      "routes": [
        "243",
        "243寵物公車"
      ],
      "routeCount": 2,
      "routeSource": "gtfs",
      "routeUpdatedAt": "2026-06-14T15:08:26.352Z",
      "routeConfidence": "high"
    },
    {
      "id": 3311207890,
      "name": "莊敬路口",
      "type": "bus",
      "city": "新北市",
      "district": "中和區",
      "lat": 25.0042647,
      "lng": 121.4997061,
      "routes": [
        "243",
        "243寵物公車"
      ],
      "routeCount": 2,
      "routeSource": "gtfs",
      "routeUpdatedAt": "2026-06-14T15:08:26.352Z",
      "routeConfidence": "high"
    },
    {
      "id": 3326707121,
      "name": "中和高中",
      "type": "bus",
      "city": "新北市",
      "district": "中和區",
      "lat": 24.9940878,
      "lng": 121.4785696,
      "routes": [
        "214",
        "214直",
        "231",
        "262去程半",
        "262返程半",
        "275",
        "311假日",
        "311區",
        "311路",
        "706",
        "707",
        "707寵物公車",
        "950路",
        "985萬大樹林先導公車",
        "三峽-中和高中",
        "內科2往中和",
        "內科2往內科",
        "內科3往土城",
        "內科3往內科",
        "南軟中和(去)",
        "南軟中和(返)",
        "南軟雙和(上午)(大都會)",
        "南軟雙和(上午)(北客)",
        "南軟雙和(下午)(大都會)",
        "南軟雙和(下午)(北客)",
        "捷運頂溪站-捷運頂埔站",
        "藍41",
        "藍41延和"
      ],
      "routeCount": 28,
      "routeSource": "gtfs",
      "routeUpdatedAt": "2026-06-14T16:43:41.085Z",
      "routeConfidence": "high"
    },
    {
      "id": 3326707694,
      "name": "南山高中",
      "type": "bus",
      "city": "新北市",
      "district": "中和區",
      "lat": 25.0032683,
      "lng": 121.5024648,
      "routes": [
        "51",
        "297",
        "706",
        "707",
        "707寵物公車",
        "897",
        "內科2往中和",
        "內科2往內科",
        "內科3往土城",
        "內科3往內科",
        "南軟雙和(上午)(大都會)",
        "南軟雙和(上午)(北客)",
        "南軟雙和(下午)(大都會)",
        "南軟雙和(下午)(北客)",
        "捷運頂溪站-捷運頂埔站"
      ],
      "routeCount": 15,
      "routeSource": "gtfs",
      "routeUpdatedAt": "2026-06-14T16:43:41.085Z",
      "routeConfidence": "high"
    },
    {
      "id": 3328218457,
      "name": "佳和公園",
      "type": "bus",
      "city": "新北市",
      "district": "中和區",
      "lat": 25.0051032,
      "lng": 121.5043586,
      "routes": [
        "51",
        "297",
        "706",
        "707",
        "707寵物公車",
        "897",
        "內科2往中和",
        "內科2往內科",
        "內科3往土城",
        "內科3往內科",
        "南軟雙和(上午)(大都會)",
        "南軟雙和(上午)(北客)",
        "南軟雙和(下午)(大都會)",
        "南軟雙和(下午)(北客)",
        "捷運頂溪站-捷運頂埔站"
      ],
      "routeCount": 15,
      "routeSource": "gtfs",
      "routeUpdatedAt": "2026-06-14T16:43:41.086Z",
      "routeConfidence": "high"
    },
    {
      "id": 3334402512,
      "name": "宜安吉立",
      "type": "bus",
      "city": "新北市",
      "district": "中和區",
      "lat": 24.996172,
      "lng": 121.5124336,
      "routes": [
        "214",
        "227",
        "304承德",
        "304承德狗狗公車",
        "304重慶",
        "311假日",
        "311區",
        "311路",
        "F513",
        "F525"
      ],
      "routeCount": 10,
      "routeSource": "gtfs",
      "routeUpdatedAt": "2026-06-14T16:43:41.086Z",
      "routeConfidence": "high"
    },
    {
      "id": 3336564648,
      "name": "國光派出所",
      "type": "bus",
      "city": "新北市",
      "district": "中和區",
      "lat": 25.0006118,
      "lng": 121.4725704,
      "routes": [
        "藍17"
      ],
      "routeCount": 1,
      "routeSource": "gtfs",
      "routeUpdatedAt": "2026-06-14T15:08:26.352Z",
      "routeConfidence": "high"
    },
    {
      "id": 3336564655,
      "name": "民德路",
      "type": "bus",
      "city": "新北市",
      "district": "中和區",
      "lat": 25.0031991,
      "lng": 121.4682382,
      "routes": [
        "651",
        "651假日",
        "667",
        "中和-新北板橋公車站"
      ],
      "routeCount": 4,
      "routeSource": "gtfs",
      "routeUpdatedAt": "2026-06-14T16:43:41.086Z",
      "routeConfidence": "high"
    },
    {
      "id": 3336564691,
      "name": "自強國小",
      "type": "bus",
      "city": "新北市",
      "district": "中和區",
      "lat": 24.9981131,
      "lng": 121.4717118,
      "routes": [
        "577",
        "667",
        "中和-新北板橋公車站",
        "藍17"
      ],
      "routeCount": 4,
      "routeSource": "gtfs",
      "routeUpdatedAt": "2026-06-14T16:43:41.086Z",
      "routeConfidence": "high"
    },
    {
      "id": 3336565995,
      "name": "莒光路",
      "type": "bus",
      "city": "新北市",
      "district": "中和區",
      "lat": 25.0029495,
      "lng": 121.4722614,
      "routes": [
        "577",
        "667",
        "中和-新北板橋公車站",
        "藍17"
      ],
      "routeCount": 4,
      "routeSource": "gtfs",
      "routeUpdatedAt": "2026-06-14T16:43:41.086Z",
      "routeConfidence": "high"
    },
    {
      "id": 3336565997,
      "name": "華安街口",
      "type": "bus",
      "city": "新北市",
      "district": "中和區",
      "lat": 24.9941522,
      "lng": 121.4681098,
      "routes": [
        "577",
        "667",
        "中和-新北板橋公車站",
        "藍17"
      ],
      "routeCount": 4,
      "routeSource": "gtfs",
      "routeUpdatedAt": "2026-06-14T16:43:41.086Z",
      "routeConfidence": "high"
    },
    {
      "id": 3343597143,
      "name": "松下電子",
      "type": "bus",
      "city": "新北市",
      "district": "中和區",
      "lat": 25.0085941,
      "lng": 121.4792231,
      "routes": [
        "51",
        "231",
        "793",
        "藍31"
      ],
      "routeCount": 4,
      "routeSource": "gtfs",
      "routeUpdatedAt": "2026-06-14T16:43:41.086Z",
      "routeConfidence": "high"
    },
    {
      "id": 3343597147,
      "name": "積穗 (員山路)",
      "type": "bus",
      "city": "新北市",
      "district": "中和區",
      "lat": 25.0066335,
      "lng": 121.4798766,
      "routes": [
        "51",
        "57",
        "201",
        "231",
        "307西藏往板橋前站",
        "307西藏往撫遠街",
        "307莒光往板橋前站",
        "307莒光往撫遠街",
        "793",
        "897",
        "藍31",
        "F512"
      ],
      "routeCount": 12,
      "routeSource": "gtfs",
      "routeUpdatedAt": "2026-06-14T16:43:41.087Z",
      "routeConfidence": "high"
    },
    {
      "id": 3457851833,
      "name": "大同育幼院",
      "type": "bus",
      "city": "新北市",
      "district": "中和區",
      "lat": 24.9957257,
      "lng": 121.4986165,
      "routes": [
        "242",
        "F513"
      ],
      "routeCount": 2,
      "routeSource": "gtfs",
      "routeUpdatedAt": "2026-06-14T16:43:41.087Z",
      "routeConfidence": "high"
    },
    {
      "id": 3523782371,
      "name": "捷運景安站",
      "type": "bus",
      "city": "新北市",
      "district": "中和區",
      "lat": 24.9937298,
      "lng": 121.5038062,
      "routes": [
        "8",
        "202",
        "202區",
        "241",
        "242",
        "262去程半",
        "262返程半",
        "262區",
        "262區狗狗公車",
        "275",
        "793",
        "796",
        "895",
        "895寵物公車",
        "897",
        "897區",
        "908",
        "908三峽國小(三鶯國民運動中心)(車機)",
        "908延",
        "921",
        "921三峽二站(車機)",
        "933",
        "982",
        "982直達行政院新莊聯合辦公大樓(榮華)",
        "982直達捷運大坪林站",
        "1968",
        "5350",
        "9001",
        "捷運中和站-政大附中",
        "捷運景安站-三峽臺北大學去",
        "捷運景安站-三峽臺北大學返",
        "通勤11去程半",
        "通勤11返程半",
        "通勤12",
        "綠2左",
        "綠3",
        "綠6",
        "綠8",
        "橘1",
        "橘2",
        "橘9",
        "藍41",
        "藍41延和",
        "F512副",
        "F512副假日延",
        "F513"
      ],
      "routeCount": 46,
      "routeSource": "gtfs",
      "routeUpdatedAt": "2026-06-14T16:43:41.088Z",
      "routeConfidence": "high"
    },
    {
      "id": 3594111992,
      "name": "宜安路",
      "type": "bus",
      "city": "新北市",
      "district": "中和區",
      "lat": 24.9973895,
      "lng": 121.510884,
      "routes": [
        "5",
        "214",
        "311假日",
        "311區",
        "311路",
        "南軟中和(去)",
        "南軟中和(返)"
      ],
      "routeCount": 7,
      "routeSource": "gtfs",
      "routeUpdatedAt": "2026-06-14T16:43:41.088Z",
      "routeConfidence": "high"
    },
    {
      "id": 3594139994,
      "name": "華泰新城",
      "type": "bus",
      "city": "新北市",
      "district": "中和區",
      "lat": 24.9984679,
      "lng": 121.5093869,
      "routes": [
        "5",
        "214",
        "311假日",
        "311區",
        "311路",
        "南軟中和(去)",
        "南軟中和(返)"
      ],
      "routeCount": 7,
      "routeSource": "gtfs",
      "routeUpdatedAt": "2026-06-14T16:43:41.088Z",
      "routeConfidence": "high"
    },
    {
      "id": 3683800289,
      "name": "中和戶政 (員山辦事處)",
      "type": "bus",
      "city": "新北市",
      "district": "中和區",
      "lat": 25.0101751,
      "lng": 121.4809038,
      "routes": [
        "藍18中和站"
      ],
      "routeCount": 1,
      "routeSource": "gtfs",
      "routeUpdatedAt": "2026-06-14T15:08:26.353Z",
      "routeConfidence": "high"
    },
    {
      "id": 3683800290,
      "name": "中山路口",
      "type": "bus",
      "city": "新北市",
      "district": "中和區",
      "lat": 25.0035483,
      "lng": 121.4881176,
      "routes": [
        "橘3",
        "橘3平日07:00-09:00之時段取消停靠捷運頂溪站",
        "藍18中和站"
      ],
      "routeCount": 3,
      "routeSource": "gtfs",
      "routeUpdatedAt": "2026-06-14T16:43:41.088Z",
      "routeConfidence": "high"
    },
    {
      "id": 3683800292,
      "name": "光寶電子",
      "type": "bus",
      "city": "新北市",
      "district": "中和區",
      "lat": 25.0014259,
      "lng": 121.4881347,
      "routes": [
        "橘3",
        "橘3平日07:00-09:00之時段取消停靠捷運頂溪站",
        "藍18中和站",
        "藍18新莊田徑場(中和里)"
      ],
      "routeCount": 4,
      "routeSource": "gtfs",
      "routeUpdatedAt": "2026-06-14T16:43:41.088Z",
      "routeConfidence": "high"
    },
    {
      "id": 3683800296,
      "name": "國際科學園區",
      "type": "bus",
      "city": "新北市",
      "district": "中和區",
      "lat": 25.0087238,
      "lng": 121.4860906,
      "routes": [
        "藍18中和站"
      ],
      "routeCount": 1,
      "routeSource": "gtfs",
      "routeUpdatedAt": "2026-06-14T15:08:26.354Z",
      "routeConfidence": "high"
    },
    {
      "id": 3683800297,
      "name": "建一路",
      "type": "bus",
      "city": "新北市",
      "district": "中和區",
      "lat": 24.9969245,
      "lng": 121.488185,
      "routes": [
        "橘3",
        "橘3平日07:00-09:00之時段取消停靠捷運頂溪站"
      ],
      "routeCount": 2,
      "routeSource": "gtfs",
      "routeUpdatedAt": "2026-06-14T15:08:26.354Z",
      "routeConfidence": "high"
    },
    {
      "id": 3683800298,
      "name": "建一路",
      "type": "bus",
      "city": "新北市",
      "district": "中和區",
      "lat": 24.9988522,
      "lng": 121.488032,
      "routes": [
        "藍18新莊田徑場(中和里)"
      ],
      "routeCount": 1,
      "routeSource": "gtfs",
      "routeUpdatedAt": "2026-06-14T15:08:26.354Z",
      "routeConfidence": "high"
    },
    {
      "id": 3683800299,
      "name": "板南路口",
      "type": "bus",
      "city": "新北市",
      "district": "中和區",
      "lat": 25.0050898,
      "lng": 121.4893429,
      "routes": [
        "51",
        "201",
        "橘3",
        "橘3平日07:00-09:00之時段取消停靠捷運頂溪站",
        "藍18中和站",
        "藍18新莊田徑場(中和里)"
      ],
      "routeCount": 6,
      "routeSource": "gtfs",
      "routeUpdatedAt": "2026-06-14T16:43:41.088Z",
      "routeConfidence": "high"
    },
    {
      "id": 3683800304,
      "name": "立德街",
      "type": "bus",
      "city": "新北市",
      "district": "中和區",
      "lat": 25.0070243,
      "lng": 121.4893293,
      "routes": [
        "藍18中和站"
      ],
      "routeCount": 1,
      "routeSource": "gtfs",
      "routeUpdatedAt": "2026-06-14T15:08:26.354Z",
      "routeConfidence": "high"
    },
    {
      "id": 3683800323,
      "name": "錦和路",
      "type": "bus",
      "city": "新北市",
      "district": "中和區",
      "lat": 24.9949784,
      "lng": 121.4903204,
      "routes": [
        "橘3",
        "橘3平日07:00-09:00之時段取消停靠捷運頂溪站"
      ],
      "routeCount": 2,
      "routeSource": "gtfs",
      "routeUpdatedAt": "2026-06-14T15:08:26.354Z",
      "routeConfidence": "high"
    },
    {
      "id": 3727533625,
      "name": "中和站",
      "type": "bus",
      "city": "新北市",
      "district": "中和區",
      "lat": 24.9898415,
      "lng": 121.4909539,
      "routes": [
        "201",
        "241",
        "242",
        "243",
        "243寵物公車",
        "橘2",
        "橘3",
        "橘3平日07:00-09:00之時段取消停靠捷運頂溪站",
        "藍18中和站",
        "藍18新莊田徑場(中和里)",
        "藍41",
        "藍41延和",
        "F513"
      ],
      "routeCount": 13,
      "routeSource": "gtfs",
      "routeUpdatedAt": "2026-06-14T16:43:41.089Z",
      "routeConfidence": "high"
    },
    {
      "id": 3727533659,
      "name": "錦和高中",
      "type": "bus",
      "city": "新北市",
      "district": "中和區",
      "lat": 24.9924463,
      "lng": 121.4906998,
      "routes": [
        "藍18新莊田徑場(中和里)",
        "藍41",
        "藍41延和",
        "F513"
      ],
      "routeCount": 4,
      "routeSource": "gtfs",
      "routeUpdatedAt": "2026-06-14T16:43:41.089Z",
      "routeConfidence": "high"
    },
    {
      "id": 3727698326,
      "name": "力行里",
      "type": "bus",
      "city": "新北市",
      "district": "中和區",
      "lat": 24.9928888,
      "lng": 121.4950552,
      "routes": [
        "242",
        "橘2",
        "橘9",
        "藍41",
        "藍41延和",
        "F513"
      ],
      "routeCount": 6,
      "routeSource": "gtfs",
      "routeUpdatedAt": "2026-06-14T16:43:41.089Z",
      "routeConfidence": "high"
    },
    {
      "id": 3727698328,
      "name": "圓通路305巷",
      "type": "bus",
      "city": "新北市",
      "district": "中和區",
      "lat": 24.990754,
      "lng": 121.4931713,
      "routes": [
        "242",
        "橘2",
        "藍41",
        "藍41延和",
        "F513"
      ],
      "routeCount": 5,
      "routeSource": "gtfs",
      "routeUpdatedAt": "2026-06-14T16:43:41.089Z",
      "routeConfidence": "high"
    },
    {
      "id": 3727698331,
      "name": "板南路口",
      "type": "bus",
      "city": "新北市",
      "district": "中和區",
      "lat": 24.9923609,
      "lng": 121.4999232,
      "routes": [
        "橘2"
      ],
      "routeCount": 1,
      "routeSource": "gtfs",
      "routeUpdatedAt": "2026-06-14T15:08:26.354Z",
      "routeConfidence": "high"
    },
    {
      "id": 3727698333,
      "name": "游氏宗祠",
      "type": "bus",
      "city": "新北市",
      "district": "中和區",
      "lat": 24.9901851,
      "lng": 121.5010133,
      "routes": [
        "橘2"
      ],
      "routeCount": 1,
      "routeSource": "gtfs",
      "routeUpdatedAt": "2026-06-14T15:08:26.354Z",
      "routeConfidence": "high"
    },
    {
      "id": 4169713710,
      "name": "雙和醫院",
      "type": "bus",
      "city": "新北市",
      "district": "中和區",
      "lat": 24.9938184,
      "lng": 121.494141,
      "routes": [
        "933",
        "9001",
        "捷運景安站-三峽臺北大學去",
        "捷運景安站-三峽臺北大學返",
        "橘5",
        "橘5延",
        "橘9",
        "F512"
      ],
      "routeCount": 8,
      "routeSource": "gtfs",
      "routeUpdatedAt": "2026-06-14T16:43:41.089Z",
      "routeConfidence": "high"
    },
    {
      "id": 3812564395,
      "name": "南勢角",
      "type": "metro",
      "city": "新北市",
      "district": "中和區",
      "lat": 24.9900264,
      "lng": 121.5088518,
      "lines": [
        "中和新蘆線"
      ],
      "lineCount": 1,
      "lineSource": "gtfs",
      "lineUpdatedAt": "2026-06-14T16:43:41.089Z",
      "lineConfidence": "high"
    },
    {
      "id": 3812564403,
      "name": "景安",
      "type": "metro",
      "city": "新北市",
      "district": "中和區",
      "lat": 24.9937859,
      "lng": 121.5050464,
      "lines": [
        "中和新蘆線"
      ],
      "lineCount": 1,
      "lineSource": "gtfs",
      "lineUpdatedAt": "2026-06-14T16:43:41.090Z",
      "lineConfidence": "high"
    },
    {
      "id": 4045352264,
      "name": "勝利路",
      "type": "bus",
      "city": "新北市",
      "district": "中和區",
      "lat": 25.0072478,
      "lng": 121.4986667,
      "routes": [
        "F512副",
        "F512副假日延"
      ],
      "routeCount": 2,
      "routeSource": "gtfs",
      "routeUpdatedAt": "2026-06-14T15:08:26.358Z",
      "routeConfidence": "high"
    },
    {
      "id": 4045352268,
      "name": "橋和路",
      "type": "bus",
      "city": "新北市",
      "district": "中和區",
      "lat": 25.00608,
      "lng": 121.4925416
    },
    {
      "id": 4045352269,
      "name": "橋和路",
      "type": "bus",
      "city": "新北市",
      "district": "中和區",
      "lat": 25.00608,
      "lng": 121.493821,
      "routes": [
        "橘3",
        "橘3平日07:00-09:00之時段取消停靠捷運頂溪站"
      ],
      "routeCount": 2,
      "routeSource": "gtfs",
      "routeUpdatedAt": "2026-06-14T15:08:26.358Z",
      "routeConfidence": "high"
    },
    {
      "id": 4045352272,
      "name": "泰隆工廠",
      "type": "bus",
      "city": "新北市",
      "district": "中和區",
      "lat": 25.0069539,
      "lng": 121.496121
    },
    {
      "id": 4147351035,
      "name": "中和高中 (員山路)",
      "type": "bus",
      "city": "新北市",
      "district": "中和區",
      "lat": 24.9968683,
      "lng": 121.481283,
      "routes": [
        "57",
        "201",
        "231",
        "307西藏往板橋前站",
        "307西藏往撫遠街",
        "307莒光往板橋前站",
        "307莒光往撫遠街",
        "793"
      ],
      "routeCount": 8,
      "routeSource": "gtfs",
      "routeUpdatedAt": "2026-06-14T16:43:41.090Z",
      "routeConfidence": "high"
    },
    {
      "id": 4169713689,
      "name": "中原里",
      "type": "bus",
      "city": "新北市",
      "district": "中和區",
      "lat": 25.0021527,
      "lng": 121.4846087,
      "routes": [
        "262去程半",
        "262返程半",
        "橘5",
        "橘5延"
      ],
      "routeCount": 4,
      "routeSource": "gtfs",
      "routeUpdatedAt": "2026-06-14T16:43:41.090Z",
      "routeConfidence": "high"
    },
    {
      "id": 4169713690,
      "name": "中原里",
      "type": "bus",
      "city": "新北市",
      "district": "中和區",
      "lat": 25.0033195,
      "lng": 121.4849775,
      "routes": [
        "262去程半"
      ],
      "routeCount": 1,
      "routeSource": "gtfs",
      "routeUpdatedAt": "2026-06-14T15:08:26.359Z",
      "routeConfidence": "high"
    },
    {
      "id": 4169713692,
      "name": "中和第二戶政",
      "type": "bus",
      "city": "新北市",
      "district": "中和區",
      "lat": 25.0088832,
      "lng": 121.4819558,
      "routes": [
        "橘5",
        "橘5延"
      ],
      "routeCount": 2,
      "routeSource": "gtfs",
      "routeUpdatedAt": "2026-06-14T15:08:26.359Z",
      "routeConfidence": "high"
    },
    {
      "id": 4169713695,
      "name": "中正路",
      "type": "bus",
      "city": "新北市",
      "district": "中和區",
      "lat": 24.9972348,
      "lng": 121.4854858,
      "routes": [
        "262去程半",
        "908",
        "908三峽國小(三鶯國民運動中心)(車機)",
        "908延",
        "921",
        "921三峽二站(車機)",
        "藍18中和站"
      ],
      "routeCount": 7,
      "routeSource": "gtfs",
      "routeUpdatedAt": "2026-06-14T16:43:41.090Z",
      "routeConfidence": "high"
    },
    {
      "id": 4169713696,
      "name": "中正路",
      "type": "bus",
      "city": "新北市",
      "district": "中和區",
      "lat": 24.9987809,
      "lng": 121.4848823,
      "routes": [
        "262去程半",
        "262返程半",
        "908",
        "908三峽國小(三鶯國民運動中心)(車機)",
        "908延",
        "921",
        "921三峽二站(車機)",
        "橘5",
        "橘5延",
        "藍18中和站"
      ],
      "routeCount": 10,
      "routeSource": "gtfs",
      "routeUpdatedAt": "2026-06-14T16:43:41.090Z",
      "routeConfidence": "high"
    },
    {
      "id": 4169713697,
      "name": "平和路口",
      "type": "bus",
      "city": "新北市",
      "district": "中和區",
      "lat": 24.9942037,
      "lng": 121.4923063
    },
    {
      "id": 4169713698,
      "name": "平河里",
      "type": "bus",
      "city": "新北市",
      "district": "中和區",
      "lat": 25.0007567,
      "lng": 121.4851977,
      "routes": [
        "262去程半",
        "262返程半",
        "橘5",
        "橘5延"
      ],
      "routeCount": 4,
      "routeSource": "gtfs",
      "routeUpdatedAt": "2026-06-14T16:43:41.091Z",
      "routeConfidence": "high"
    },
    {
      "id": 4169713700,
      "name": "心中市",
      "type": "bus",
      "city": "新北市",
      "district": "中和區",
      "lat": 24.9970014,
      "lng": 121.4850285,
      "routes": [
        "262返程半",
        "橘5",
        "橘5延"
      ],
      "routeCount": 3,
      "routeSource": "gtfs",
      "routeUpdatedAt": "2026-06-14T16:43:41.091Z",
      "routeConfidence": "high"
    },
    {
      "id": 4169713709,
      "name": "連城路口",
      "type": "bus",
      "city": "新北市",
      "district": "中和區",
      "lat": 24.994524,
      "lng": 121.4872909
    },
    {
      "id": 4580755023,
      "name": "安和路",
      "type": "bus",
      "city": "新北市",
      "district": "中和區",
      "lat": 24.994942,
      "lng": 121.5087529,
      "routes": [
        "897區",
        "橘1"
      ],
      "routeCount": 2,
      "routeSource": "gtfs",
      "routeUpdatedAt": "2026-06-14T16:43:41.091Z",
      "routeConfidence": "high"
    },
    {
      "id": 4580813767,
      "name": "欣欣向榮",
      "type": "bus",
      "city": "新北市",
      "district": "中和區",
      "lat": 24.9955477,
      "lng": 121.5075333,
      "routes": [
        "8",
        "897區",
        "橘1"
      ],
      "routeCount": 3,
      "routeSource": "gtfs",
      "routeUpdatedAt": "2026-06-14T16:43:41.091Z",
      "routeConfidence": "high"
    },
    {
      "id": 5330482921,
      "name": "公車站",
      "type": "bus",
      "city": "新北市",
      "district": "中和區",
      "lat": 24.9793792,
      "lng": 121.506347
    },
    {
      "id": 5396128415,
      "name": "公車站",
      "type": "bus",
      "city": "新北市",
      "district": "中和區",
      "lat": 24.9789403,
      "lng": 121.5083374
    },
    {
      "id": 5444300911,
      "name": "橋和",
      "type": "metro",
      "city": "新北市",
      "district": "中和區",
      "lat": 25.0046042,
      "lng": 121.4902458,
      "lines": [
        "大坪林－新北產業園區",
        "新北產業園區－大坪林"
      ],
      "lineCount": 2,
      "lineSource": "gtfs",
      "lineUpdatedAt": "2026-06-14T15:08:26.360Z",
      "lineConfidence": "high"
    },
    {
      "id": 5444300912,
      "name": "中和",
      "type": "metro",
      "city": "新北市",
      "district": "中和區",
      "lat": 25.0023167,
      "lng": 121.4958503,
      "lines": [
        "大坪林－新北產業園區",
        "新北產業園區－大坪林"
      ],
      "lineCount": 2,
      "lineSource": "gtfs",
      "lineUpdatedAt": "2026-06-14T15:08:26.360Z",
      "lineConfidence": "high"
    },
    {
      "id": 5661164145,
      "name": "連合里",
      "type": "bus",
      "city": "新北市",
      "district": "中和區",
      "lat": 25.0022012,
      "lng": 121.4956275
    },
    {
      "id": 7231907500,
      "name": "捷運中和站",
      "type": "bus",
      "city": "新北市",
      "district": "中和區",
      "lat": 25.0019786,
      "lng": 121.4968933,
      "routes": [
        "5",
        "51",
        "201",
        "202區",
        "262去程半",
        "262返程半",
        "262區",
        "262區狗狗公車",
        "297",
        "307西藏往板橋前站",
        "307西藏往撫遠街",
        "307莒光往板橋前站",
        "307莒光往撫遠街",
        "796",
        "897",
        "982",
        "985萬大樹林先導公車",
        "捷運中和站-政大附中",
        "通勤11去程半",
        "通勤11返程半",
        "通勤12"
      ],
      "routeCount": 21,
      "routeSource": "gtfs",
      "routeUpdatedAt": "2026-06-14T16:43:41.092Z",
      "routeConfidence": "high"
    },
    {
      "id": 6406949819,
      "name": "中和站",
      "type": "bus",
      "city": "新北市",
      "district": "中和區",
      "lat": 24.9989837,
      "lng": 121.4849001,
      "routes": [
        "1660"
      ],
      "routeCount": 1,
      "routeSource": "gtfs",
      "routeUpdatedAt": "2026-06-14T15:08:26.360Z",
      "routeConfidence": "high"
    },
    {
      "id": 7182903050,
      "name": "積穗派出所",
      "type": "bus",
      "city": "新北市",
      "district": "中和區",
      "lat": 25.0048347,
      "lng": 121.4802941,
      "routes": [
        "57",
        "307西藏往撫遠街",
        "307莒光往撫遠街",
        "793"
      ],
      "routeCount": 4,
      "routeSource": "gtfs",
      "routeUpdatedAt": "2026-06-14T16:43:41.092Z",
      "routeConfidence": "high"
    },
    {
      "id": 7261056407,
      "name": "捷運中原站",
      "type": "bus",
      "city": "新北市",
      "district": "中和區",
      "lat": 25.0077702,
      "lng": 121.4849737,
      "routes": [
        "982",
        "藍18新莊田徑場(中和里)"
      ],
      "routeCount": 2,
      "routeSource": "gtfs",
      "routeUpdatedAt": "2026-06-14T16:43:41.092Z",
      "routeConfidence": "high"
    },
    {
      "id": 7400899533,
      "name": "中和站",
      "type": "bus",
      "city": "新北市",
      "district": "中和區",
      "lat": 24.997275,
      "lng": 121.4854646,
      "routes": [
        "1660"
      ],
      "routeCount": 1,
      "routeSource": "gtfs",
      "routeUpdatedAt": "2026-06-14T15:08:26.360Z",
      "routeConfidence": "high"
    },
    {
      "id": 7653431212,
      "name": "國際科學園區",
      "type": "bus",
      "city": "新北市",
      "district": "中和區",
      "lat": 25.0069132,
      "lng": 121.4872181
    },
    {
      "id": 7653431214,
      "name": "捷運橋和站",
      "type": "bus",
      "city": "新北市",
      "district": "中和區",
      "lat": 25.0044866,
      "lng": 121.4901908,
      "routes": [
        "51",
        "201",
        "262去程半",
        "262返程半",
        "897",
        "982"
      ],
      "routeCount": 6,
      "routeSource": "gtfs",
      "routeUpdatedAt": "2026-06-14T16:43:41.092Z",
      "routeConfidence": "high"
    },
    {
      "id": 7728619394,
      "name": "安平里巡守隊",
      "type": "bus",
      "city": "新北市",
      "district": "中和區",
      "lat": 25.0000086,
      "lng": 121.5107853,
      "routes": [
        "F526"
      ],
      "routeCount": 1,
      "routeSource": "gtfs",
      "routeUpdatedAt": "2026-06-14T15:08:26.361Z",
      "routeConfidence": "high"
    },
    {
      "id": 7728619395,
      "name": "中安街",
      "type": "bus",
      "city": "新北市",
      "district": "中和區",
      "lat": 25.0000274,
      "lng": 121.5109067,
      "routes": [
        "F513"
      ],
      "routeCount": 1,
      "routeSource": "gtfs",
      "routeUpdatedAt": "2026-06-14T15:08:26.361Z",
      "routeConfidence": "high"
    },
    {
      "id": 7728619396,
      "name": "安平派出所",
      "type": "bus",
      "city": "新北市",
      "district": "中和區",
      "lat": 25.0006297,
      "lng": 121.5110636
    },
    {
      "id": 7728619398,
      "name": "中安街",
      "type": "bus",
      "city": "新北市",
      "district": "中和區",
      "lat": 25.0020694,
      "lng": 121.5123712,
      "routes": [
        "F513",
        "F525",
        "F526"
      ],
      "routeCount": 3,
      "routeSource": "gtfs",
      "routeUpdatedAt": "2026-06-14T16:43:41.093Z",
      "routeConfidence": "high"
    },
    {
      "id": 7728628168,
      "name": "基泰和里",
      "type": "bus",
      "city": "新北市",
      "district": "中和區",
      "lat": 24.9924579,
      "lng": 121.5230276,
      "routes": [
        "F513"
      ],
      "routeCount": 1,
      "routeSource": "gtfs",
      "routeUpdatedAt": "2026-06-14T15:08:26.361Z",
      "routeConfidence": "high"
    },
    {
      "id": 7781184492,
      "name": "自強國中",
      "type": "bus",
      "city": "新北市",
      "district": "中和區",
      "lat": 24.9980711,
      "lng": 121.4716767,
      "routes": [
        "F512"
      ],
      "routeCount": 1,
      "routeSource": "gtfs",
      "routeUpdatedAt": "2026-06-14T15:08:26.361Z",
      "routeConfidence": "high"
    },
    {
      "id": 7781184493,
      "name": "中和農會民享分部",
      "type": "bus",
      "city": "新北市",
      "district": "中和區",
      "lat": 25.0019375,
      "lng": 121.4724237,
      "routes": [
        "F512"
      ],
      "routeCount": 1,
      "routeSource": "gtfs",
      "routeUpdatedAt": "2026-06-14T15:08:26.361Z",
      "routeConfidence": "high"
    },
    {
      "id": 8432400076,
      "name": "竟南宮",
      "type": "bus",
      "city": "新北市",
      "district": "中和區",
      "lat": 24.9735374,
      "lng": 121.4986183,
      "routes": [
        "F512副假日延"
      ],
      "routeCount": 1,
      "routeSource": "gtfs",
      "routeUpdatedAt": "2026-06-14T15:08:26.361Z",
      "routeConfidence": "high"
    },
    {
      "id": 8432400098,
      "name": "飛駝國宅",
      "type": "bus",
      "city": "新北市",
      "district": "中和區",
      "lat": 24.982737,
      "lng": 121.505432,
      "routes": [
        "F512副",
        "F512副假日延"
      ],
      "routeCount": 2,
      "routeSource": "gtfs",
      "routeUpdatedAt": "2026-06-14T15:08:26.361Z",
      "routeConfidence": "high"
    },
    {
      "id": 8432400100,
      "name": "內南里一",
      "type": "bus",
      "city": "新北市",
      "district": "中和區",
      "lat": 24.983679,
      "lng": 121.5045959,
      "routes": [
        "249",
        "249繞崁頂",
        "670",
        "895",
        "895寵物公車",
        "F512副",
        "F512副假日延"
      ],
      "routeCount": 7,
      "routeSource": "gtfs",
      "routeUpdatedAt": "2026-06-14T16:43:41.093Z",
      "routeConfidence": "high"
    },
    {
      "id": 8432400113,
      "name": "無極宮",
      "type": "bus",
      "city": "新北市",
      "district": "中和區",
      "lat": 24.977909,
      "lng": 121.49661,
      "routes": [
        "249",
        "249繞崁頂",
        "670",
        "895",
        "895寵物公車"
      ],
      "routeCount": 5,
      "routeSource": "gtfs",
      "routeUpdatedAt": "2026-06-14T16:43:41.093Z",
      "routeConfidence": "high"
    },
    {
      "id": 8432400114,
      "name": "湖山巖",
      "type": "bus",
      "city": "新北市",
      "district": "中和區",
      "lat": 24.9819807,
      "lng": 121.5033123,
      "routes": [
        "249",
        "249繞崁頂",
        "670",
        "895",
        "895寵物公車"
      ],
      "routeCount": 5,
      "routeSource": "gtfs",
      "routeUpdatedAt": "2026-06-14T16:43:41.093Z",
      "routeConfidence": "high"
    },
    {
      "id": 8432400320,
      "name": "華夏科大",
      "type": "bus",
      "city": "新北市",
      "district": "中和區",
      "lat": 24.98282,
      "lng": 121.5083682
    },
    {
      "id": 8432400323,
      "name": "烘爐地",
      "type": "bus",
      "city": "新北市",
      "district": "中和區",
      "lat": 24.972209,
      "lng": 121.499336,
      "routes": [
        "F512副假日延"
      ],
      "routeCount": 1,
      "routeSource": "gtfs",
      "routeUpdatedAt": "2026-06-14T15:08:26.361Z",
      "routeConfidence": "high"
    },
    {
      "id": 8432400324,
      "name": "速配佳庭",
      "type": "bus",
      "city": "新北市",
      "district": "中和區",
      "lat": 24.98918,
      "lng": 121.48858
    },
    {
      "id": 8432400326,
      "name": "內南里",
      "type": "bus",
      "city": "新北市",
      "district": "中和區",
      "lat": 24.982892,
      "lng": 121.504014,
      "routes": [
        "249",
        "249繞崁頂",
        "670",
        "895",
        "895寵物公車"
      ],
      "routeCount": 5,
      "routeSource": "gtfs",
      "routeUpdatedAt": "2026-06-14T16:43:41.093Z",
      "routeConfidence": "high"
    },
    {
      "id": 8432400327,
      "name": "清和社",
      "type": "bus",
      "city": "新北市",
      "district": "中和區",
      "lat": 24.98827,
      "lng": 121.487062
    },
    {
      "id": 8432400328,
      "name": "員山高架橋",
      "type": "bus",
      "city": "新北市",
      "district": "中和區",
      "lat": 24.989899,
      "lng": 121.4820864,
      "routes": [
        "F513"
      ],
      "routeCount": 1,
      "routeSource": "gtfs",
      "routeUpdatedAt": "2026-06-14T15:08:26.362Z",
      "routeConfidence": "high"
    },
    {
      "id": 8432400329,
      "name": "林祖厝",
      "type": "bus",
      "city": "新北市",
      "district": "中和區",
      "lat": 24.987641,
      "lng": 121.4811616,
      "routes": [
        "F513"
      ],
      "routeCount": 1,
      "routeSource": "gtfs",
      "routeUpdatedAt": "2026-06-14T15:08:26.362Z",
      "routeConfidence": "high"
    },
    {
      "id": 8432400330,
      "name": "灰瑤",
      "type": "bus",
      "city": "新北市",
      "district": "中和區",
      "lat": 24.9848091,
      "lng": 121.4834333
    },
    {
      "id": 8432400331,
      "name": "土地公廟",
      "type": "bus",
      "city": "新北市",
      "district": "中和區",
      "lat": 24.985681,
      "lng": 121.4821056,
      "routes": [
        "F513"
      ],
      "routeCount": 1,
      "routeSource": "gtfs",
      "routeUpdatedAt": "2026-06-14T15:08:26.362Z",
      "routeConfidence": "high"
    },
    {
      "id": 8432400400,
      "name": "中和國中",
      "type": "bus",
      "city": "新北市",
      "district": "中和區",
      "lat": 24.98578,
      "lng": 121.50758,
      "routes": [
        "242"
      ],
      "routeCount": 1,
      "routeSource": "gtfs",
      "routeUpdatedAt": "2026-06-14T15:08:26.362Z",
      "routeConfidence": "high"
    },
    {
      "id": 8432400403,
      "name": "華新街口",
      "type": "bus",
      "city": "新北市",
      "district": "中和區",
      "lat": 24.98504,
      "lng": 121.50672,
      "routes": [
        "249",
        "249繞崁頂",
        "670",
        "895",
        "895寵物公車",
        "F512副",
        "F512副假日延"
      ],
      "routeCount": 7,
      "routeSource": "gtfs",
      "routeUpdatedAt": "2026-06-14T16:43:41.094Z",
      "routeConfidence": "high"
    },
    {
      "id": 8432400409,
      "name": "華新街",
      "type": "bus",
      "city": "新北市",
      "district": "中和區",
      "lat": 24.984206,
      "lng": 121.5079934,
      "routes": [
        "242",
        "249",
        "249繞崁頂",
        "670",
        "F512副",
        "F512副假日延"
      ],
      "routeCount": 6,
      "routeSource": "gtfs",
      "routeUpdatedAt": "2026-06-14T16:43:41.094Z",
      "routeConfidence": "high"
    },
    {
      "id": 8432400425,
      "name": "壽南橋",
      "type": "bus",
      "city": "新北市",
      "district": "中和區",
      "lat": 24.9845036,
      "lng": 121.5056987
    },
    {
      "id": 8432400427,
      "name": "華夏科技大學",
      "type": "bus",
      "city": "新北市",
      "district": "中和區",
      "lat": 24.9829206,
      "lng": 121.5092408
    },
    {
      "id": 8432400430,
      "name": "幸福市場",
      "type": "bus",
      "city": "新北市",
      "district": "中和區",
      "lat": 24.9875,
      "lng": 121.51252
    },
    {
      "id": 8432400431,
      "name": "四維街",
      "type": "bus",
      "city": "新北市",
      "district": "中和區",
      "lat": 24.9870128,
      "lng": 121.512722,
      "routes": [
        "242",
        "249",
        "249繞崁頂",
        "670"
      ],
      "routeCount": 4,
      "routeSource": "gtfs",
      "routeUpdatedAt": "2026-06-14T16:43:41.094Z",
      "routeConfidence": "high"
    },
    {
      "id": 8432400487,
      "name": "八二三紀念公園",
      "type": "bus",
      "city": "新北市",
      "district": "中和區",
      "lat": 25.0016926,
      "lng": 121.5121903
    },
    {
      "id": 8432400666,
      "name": "民享市場",
      "type": "bus",
      "city": "新北市",
      "district": "中和區",
      "lat": 25.003811,
      "lng": 121.473926,
      "routes": [
        "F512"
      ],
      "routeCount": 1,
      "routeSource": "gtfs",
      "routeUpdatedAt": "2026-06-14T15:08:26.363Z",
      "routeConfidence": "high"
    },
    {
      "id": 8432400668,
      "name": "竹林中學",
      "type": "bus",
      "city": "新北市",
      "district": "中和區",
      "lat": 24.981822,
      "lng": 121.506475,
      "routes": [
        "F512副",
        "F512副假日延"
      ],
      "routeCount": 2,
      "routeSource": "gtfs",
      "routeUpdatedAt": "2026-06-14T15:08:26.363Z",
      "routeConfidence": "high"
    },
    {
      "id": 8432401015,
      "name": "飛駝二村",
      "type": "bus",
      "city": "新北市",
      "district": "中和區",
      "lat": 24.983553,
      "lng": 121.5113314,
      "routes": [
        "242",
        "249",
        "249繞崁頂",
        "670"
      ],
      "routeCount": 4,
      "routeSource": "gtfs",
      "routeUpdatedAt": "2026-06-14T16:43:41.095Z",
      "routeConfidence": "high"
    },
    {
      "id": 8432401016,
      "name": "放生寺",
      "type": "bus",
      "city": "新北市",
      "district": "中和區",
      "lat": 24.9852388,
      "lng": 121.5120524,
      "routes": [
        "242",
        "249",
        "249繞崁頂",
        "670"
      ],
      "routeCount": 4,
      "routeSource": "gtfs",
      "routeUpdatedAt": "2026-06-14T16:43:41.095Z",
      "routeConfidence": "high"
    },
    {
      "id": 8432401017,
      "name": "尖山腳",
      "type": "bus",
      "city": "新北市",
      "district": "中和區",
      "lat": 24.99076,
      "lng": 121.52296,
      "routes": [
        "254",
        "672",
        "672區",
        "688",
        "796",
        "綠2左",
        "綠3",
        "綠6",
        "綠8"
      ],
      "routeCount": 9,
      "routeSource": "gtfs",
      "routeUpdatedAt": "2026-06-14T16:43:41.095Z",
      "routeConfidence": "high"
    },
    {
      "id": 8432401500,
      "name": "新北市選舉委員會",
      "type": "bus",
      "city": "新北市",
      "district": "中和區",
      "lat": 25.013837,
      "lng": 121.483661,
      "routes": [
        "F512副",
        "F512副假日延"
      ],
      "routeCount": 2,
      "routeSource": "gtfs",
      "routeUpdatedAt": "2026-06-14T15:08:26.363Z",
      "routeConfidence": "high"
    },
    {
      "id": 8432401501,
      "name": "左岸聯防中心",
      "type": "bus",
      "city": "新北市",
      "district": "中和區",
      "lat": 25.011145,
      "lng": 121.485484,
      "routes": [
        "中和左岸社區-捷運頂溪站",
        "F512副",
        "F512副假日延"
      ],
      "routeCount": 3,
      "routeSource": "gtfs",
      "routeUpdatedAt": "2026-06-14T16:43:41.095Z",
      "routeConfidence": "high"
    },
    {
      "id": 8435620681,
      "name": "安樂路口",
      "type": "bus",
      "city": "新北市",
      "district": "中和區",
      "lat": 24.9936404,
      "lng": 121.511541,
      "routes": [
        "897區",
        "橘1"
      ],
      "routeCount": 2,
      "routeSource": "gtfs",
      "routeUpdatedAt": "2026-06-14T16:43:41.095Z",
      "routeConfidence": "high"
    },
    {
      "id": 8442738379,
      "name": "家美工業區",
      "type": "bus",
      "city": "新北市",
      "district": "中和區",
      "lat": 25.0020007,
      "lng": 121.4937392,
      "routes": [
        "5",
        "51",
        "201",
        "262去程半",
        "262返程半",
        "262區",
        "262區狗狗公車",
        "297",
        "897",
        "982",
        "通勤11去程半",
        "通勤11返程半",
        "通勤12"
      ],
      "routeCount": 13,
      "routeSource": "gtfs",
      "routeUpdatedAt": "2026-06-14T16:43:41.095Z",
      "routeConfidence": "high"
    },
    {
      "id": 8442738380,
      "name": "家美工業區",
      "type": "bus",
      "city": "新北市",
      "district": "中和區",
      "lat": 25.0025318,
      "lng": 121.4929238,
      "routes": [
        "5",
        "51",
        "201",
        "262去程半",
        "262返程半",
        "262區",
        "262區狗狗公車",
        "297",
        "897",
        "982",
        "通勤11去程半",
        "通勤11返程半",
        "通勤12"
      ],
      "routeCount": 13,
      "routeSource": "gtfs",
      "routeUpdatedAt": "2026-06-14T16:43:41.096Z",
      "routeConfidence": "high"
    },
    {
      "id": 8458558343,
      "name": "中和新村",
      "type": "bus",
      "city": "新北市",
      "district": "中和區",
      "lat": 24.9898105,
      "lng": 121.4912581,
      "routes": [
        "201",
        "241",
        "242",
        "243",
        "243寵物公車",
        "橘2",
        "橘3",
        "橘3平日07:00-09:00之時段取消停靠捷運頂溪站",
        "藍18中和站",
        "藍18新莊田徑場(中和里)",
        "藍41",
        "藍41延和",
        "F513"
      ],
      "routeCount": 13,
      "routeSource": "gtfs",
      "routeUpdatedAt": "2026-06-14T16:43:41.096Z",
      "routeConfidence": "high"
    },
    {
      "id": 8458558344,
      "name": "圓通景平路口",
      "type": "bus",
      "city": "新北市",
      "district": "中和區",
      "lat": 24.9969124,
      "lng": 121.4997024,
      "routes": [
        "242",
        "F513"
      ],
      "routeCount": 2,
      "routeSource": "gtfs",
      "routeUpdatedAt": "2026-06-14T16:43:41.096Z",
      "routeConfidence": "high"
    },
    {
      "id": 8458558346,
      "name": "安邦街口",
      "type": "bus",
      "city": "新北市",
      "district": "中和區",
      "lat": 24.9951133,
      "lng": 121.4974719,
      "routes": [
        "F513"
      ],
      "routeCount": 1,
      "routeSource": "gtfs",
      "routeUpdatedAt": "2026-06-14T15:08:26.363Z",
      "routeConfidence": "high"
    },
    {
      "id": 8458558347,
      "name": "力行社區",
      "type": "bus",
      "city": "新北市",
      "district": "中和區",
      "lat": 24.9944082,
      "lng": 121.4966208,
      "routes": [
        "242",
        "F513"
      ],
      "routeCount": 2,
      "routeSource": "gtfs",
      "routeUpdatedAt": "2026-06-14T16:43:41.096Z",
      "routeConfidence": "high"
    },
    {
      "id": 8458558350,
      "name": "錦和公園",
      "type": "bus",
      "city": "新北市",
      "district": "中和區",
      "lat": 24.9934924,
      "lng": 121.4878088,
      "routes": [
        "F513"
      ],
      "routeCount": 1,
      "routeSource": "gtfs",
      "routeUpdatedAt": "2026-06-14T15:08:26.364Z",
      "routeConfidence": "high"
    },
    {
      "id": 8458558351,
      "name": "連城中正路口",
      "type": "bus",
      "city": "新北市",
      "district": "中和區",
      "lat": 24.9962967,
      "lng": 121.4842299,
      "routes": [
        "57",
        "201",
        "214",
        "214直",
        "275",
        "307西藏往板橋前站",
        "307西藏往撫遠街",
        "307莒光往板橋前站",
        "307莒光往撫遠街",
        "311假日",
        "311區",
        "311路",
        "706",
        "707",
        "707寵物公車",
        "793",
        "950路",
        "985萬大樹林先導公車",
        "內科2往中和",
        "內科2往內科",
        "內科3往土城",
        "內科3往內科",
        "南軟中和(去)",
        "南軟中和(返)",
        "南軟雙和(上午)(大都會)",
        "南軟雙和(上午)(北客)",
        "南軟雙和(下午)(大都會)",
        "南軟雙和(下午)(北客)",
        "捷運頂溪站-捷運頂埔站",
        "F512"
      ],
      "routeCount": 30,
      "routeSource": "gtfs",
      "routeUpdatedAt": "2026-06-14T16:43:41.097Z",
      "routeConfidence": "high"
    },
    {
      "id": 8458558353,
      "name": "瓏山林台北中和飯店",
      "type": "bus",
      "city": "新北市",
      "district": "中和區",
      "lat": 24.9954917,
      "lng": 121.4852722,
      "routes": [
        "908南華路口(車機)",
        "921南華路口(車機)",
        "F513"
      ],
      "routeCount": 3,
      "routeSource": "gtfs",
      "routeUpdatedAt": "2026-06-14T16:43:41.097Z",
      "routeConfidence": "high"
    },
    {
      "id": 8458558354,
      "name": "防汛站",
      "type": "bus",
      "city": "新北市",
      "district": "中和區",
      "lat": 24.9938522,
      "lng": 121.4809048,
      "routes": [
        "F513"
      ],
      "routeCount": 1,
      "routeSource": "gtfs",
      "routeUpdatedAt": "2026-06-14T15:08:26.364Z",
      "routeConfidence": "high"
    },
    {
      "id": 8458558355,
      "name": "自強站",
      "type": "bus",
      "city": "新北市",
      "district": "中和區",
      "lat": 24.9948756,
      "lng": 121.5200476,
      "routes": [
        "57",
        "F513"
      ],
      "routeCount": 2,
      "routeSource": "gtfs",
      "routeUpdatedAt": "2026-06-14T16:43:41.097Z",
      "routeConfidence": "high"
    },
    {
      "id": 8458851251,
      "name": "錦和路口",
      "type": "bus",
      "city": "新北市",
      "district": "中和區",
      "lat": 24.9942995,
      "lng": 121.4907324
    },
    {
      "id": 8460802105,
      "name": "泰隆工廠",
      "type": "bus",
      "city": "新北市",
      "district": "中和區",
      "lat": 25.0071178,
      "lng": 121.4972528
    },
    {
      "id": 8460802107,
      "name": "永和路口",
      "type": "bus",
      "city": "新北市",
      "district": "中和區",
      "lat": 25.0093218,
      "lng": 121.4880859
    },
    {
      "id": 8460802115,
      "name": "民富郵局",
      "type": "bus",
      "city": "新北市",
      "district": "中和區",
      "lat": 25.0071693,
      "lng": 121.4765475,
      "routes": [
        "F512"
      ],
      "routeCount": 1,
      "routeSource": "gtfs",
      "routeUpdatedAt": "2026-06-14T15:08:26.364Z",
      "routeConfidence": "high"
    },
    {
      "id": 8460824817,
      "name": "員富里",
      "type": "bus",
      "city": "新北市",
      "district": "中和區",
      "lat": 25.0093223,
      "lng": 121.478224,
      "routes": [
        "F512"
      ],
      "routeCount": 1,
      "routeSource": "gtfs",
      "routeUpdatedAt": "2026-06-14T15:08:26.364Z",
      "routeConfidence": "high"
    },
    {
      "id": 8460824818,
      "name": "民享街口",
      "type": "bus",
      "city": "新北市",
      "district": "中和區",
      "lat": 25.0056777,
      "lng": 121.4739285,
      "routes": [
        "F512"
      ],
      "routeCount": 1,
      "routeSource": "gtfs",
      "routeUpdatedAt": "2026-06-14T15:08:26.365Z",
      "routeConfidence": "high"
    },
    {
      "id": 8460824822,
      "name": "民安街站",
      "type": "bus",
      "city": "新北市",
      "district": "中和區",
      "lat": 24.9996947,
      "lng": 121.4781735,
      "routes": [
        "F512"
      ],
      "routeCount": 1,
      "routeSource": "gtfs",
      "routeUpdatedAt": "2026-06-14T15:08:26.365Z",
      "routeConfidence": "high"
    },
    {
      "id": 8460824823,
      "name": "民享里",
      "type": "bus",
      "city": "新北市",
      "district": "中和區",
      "lat": 25.0012817,
      "lng": 121.4743222,
      "routes": [
        "F512"
      ],
      "routeCount": 1,
      "routeSource": "gtfs",
      "routeUpdatedAt": "2026-06-14T15:08:26.365Z",
      "routeConfidence": "high"
    },
    {
      "id": 8460824825,
      "name": "新生街",
      "type": "bus",
      "city": "新北市",
      "district": "中和區",
      "lat": 24.9998602,
      "lng": 121.483716,
      "routes": [
        "F512"
      ],
      "routeCount": 1,
      "routeSource": "gtfs",
      "routeUpdatedAt": "2026-06-14T15:08:26.365Z",
      "routeConfidence": "high"
    },
    {
      "id": 8460824826,
      "name": "民樂郵局",
      "type": "bus",
      "city": "新北市",
      "district": "中和區",
      "lat": 25.0012582,
      "lng": 121.4824776,
      "routes": [
        "F512"
      ],
      "routeCount": 1,
      "routeSource": "gtfs",
      "routeUpdatedAt": "2026-06-14T15:08:26.365Z",
      "routeConfidence": "high"
    },
    {
      "id": 8460824827,
      "name": "二八張",
      "type": "bus",
      "city": "新北市",
      "district": "中和區",
      "lat": 24.9968502,
      "lng": 121.4837372,
      "routes": [
        "F512"
      ],
      "routeCount": 1,
      "routeSource": "gtfs",
      "routeUpdatedAt": "2026-06-14T15:08:26.365Z",
      "routeConfidence": "high"
    },
    {
      "id": 9104038393,
      "name": "台貿一村",
      "type": "bus",
      "city": "新北市",
      "district": "中和區",
      "lat": 24.9966883,
      "lng": 121.4921444,
      "routes": [
        "57",
        "214",
        "214直",
        "241",
        "243",
        "243寵物公車",
        "275",
        "307西藏往板橋前站",
        "307西藏往撫遠街",
        "307莒光往板橋前站",
        "307莒光往撫遠街",
        "311假日",
        "311區",
        "311路",
        "706",
        "707",
        "707寵物公車",
        "793",
        "908",
        "908三峽國小(三鶯國民運動中心)(車機)",
        "908延",
        "908南華路口(車機)",
        "921",
        "921三峽二站(車機)",
        "921南華路口(車機)",
        "950路",
        "985萬大樹林先導公車",
        "內科2往中和",
        "內科2往內科",
        "內科3往土城",
        "內科3往內科",
        "南軟中和(去)",
        "南軟中和(返)",
        "南軟雙和(上午)(大都會)",
        "南軟雙和(上午)(北客)",
        "南軟雙和(下午)(大都會)",
        "南軟雙和(下午)(北客)",
        "捷運頂溪站-捷運頂埔站"
      ],
      "routeCount": 38,
      "routeSource": "gtfs",
      "routeUpdatedAt": "2026-06-14T16:43:41.098Z",
      "routeConfidence": "high"
    },
    {
      "id": 11583766972,
      "name": "水源路口",
      "type": "bus",
      "city": "新北市",
      "district": "中和區",
      "lat": 25.00387,
      "lng": 121.5066688,
      "routes": [
        "F523"
      ],
      "routeCount": 1,
      "routeSource": "gtfs",
      "routeUpdatedAt": "2026-06-14T15:08:26.365Z",
      "routeConfidence": "high"
    },
    {
      "id": 13021941899,
      "name": "富貴賞社區",
      "type": "bus",
      "city": "新北市",
      "district": "中和區",
      "lat": 25.0102304,
      "lng": 121.4798769,
      "routes": [
        "橘5",
        "橘5延"
      ],
      "routeCount": 2,
      "routeSource": "gtfs",
      "routeUpdatedAt": "2026-06-14T15:08:26.365Z",
      "routeConfidence": "high"
    },
    {
      "id": 13245435528,
      "name": "壽德里活動中心",
      "type": "bus",
      "city": "新北市",
      "district": "中和區",
      "lat": 24.9958936,
      "lng": 121.4649906,
      "routes": [
        "F512"
      ],
      "routeCount": 1,
      "routeSource": "gtfs",
      "routeUpdatedAt": "2026-06-14T15:08:26.365Z",
      "routeConfidence": "high"
    },
    {
      "id": 13245484550,
      "name": "壽德街",
      "type": "bus",
      "city": "新北市",
      "district": "中和區",
      "lat": 24.9950275,
      "lng": 121.4661161,
      "routes": [
        "F512"
      ],
      "routeCount": 1,
      "routeSource": "gtfs",
      "routeUpdatedAt": "2026-06-14T15:08:26.365Z",
      "routeConfidence": "high"
    }
  ]
}
