{
  "city": "新北市",
  "district": "蘆洲區",
  "category": "transport",
  "updatedAt": "2026-06-11T16:04:46.906Z",
  "rev": 1,
  "count": 90,
  "items": [
    {
      "id": 1846485904,
      "name": "捷運三民高中站",
      "type": "bus",
      "city": "新北市",
      "district": "蘆洲區",
      "lat": 25.0859121,
      "lng": 121.4725676,
      "routes": [
        "261路",
        "857",
        "857三重客運淡水站(車機)",
        "857新北板橋公車站(車機)",
        "925",
        "925厚德派出所",
        "紅9",
        "捷運蘆洲站-內湖科技園區",
        "橘17",
        "橘18",
        "橘18福隆路",
        "橘19",
        "橘19副",
        "蘆洲-中正高中",
        "F312",
        "F319",
        "F320",
        "F320捷運三民高中站(復興路一)"
      ],
      "routeCount": 18,
      "routeSource": "gtfs",
      "routeUpdatedAt": "2026-06-14T16:43:41.562Z",
      "routeConfidence": "high"
    },
    {
      "id": 2982945650,
      "name": "捷運蘆洲站",
      "type": "bus",
      "city": "新北市",
      "district": "蘆洲區",
      "lat": 25.090917,
      "lng": 121.4648942,
      "routes": [
        "14",
        "221",
        "225",
        "225狗狗公車",
        "225區",
        "232",
        "261路",
        "264",
        "264捷運蘆洲站",
        "264歡仔園",
        "508",
        "581五林路口",
        "581御史路",
        "704",
        "704區",
        "704區繞",
        "785",
        "811",
        "857",
        "857三重客運淡水站(車機)",
        "857新北板橋公車站(車機)",
        "899",
        "925",
        "925厚德派出所",
        "紅9",
        "捷運蘆洲站-內湖科技園區",
        "橘10",
        "橘17",
        "橘19",
        "橘19副",
        "橘20凌雲寺停車場",
        "橘20觀音山遊客中心",
        "橘25",
        "藍1",
        "蘆洲-中正高中",
        "蘆洲-南港",
        "F312",
        "F319",
        "F320",
        "F320捷運三民高中站(復興路一)"
      ],
      "routeCount": 40,
      "routeSource": "gtfs",
      "routeUpdatedAt": "2026-06-14T16:43:41.562Z",
      "routeConfidence": "high"
    },
    {
      "id": 2982945653,
      "name": "捷運蘆洲站",
      "type": "bus",
      "city": "新北市",
      "district": "蘆洲區",
      "lat": 25.091532,
      "lng": 121.4637884,
      "routes": [
        "14",
        "221",
        "225",
        "225狗狗公車",
        "225區",
        "232",
        "261路",
        "264",
        "264捷運蘆洲站",
        "264歡仔園",
        "508",
        "581五林路口",
        "581御史路",
        "704",
        "704區",
        "704區繞",
        "785",
        "811",
        "857",
        "857三重客運淡水站(車機)",
        "857新北板橋公車站(車機)",
        "899",
        "925",
        "925厚德派出所",
        "紅9",
        "捷運蘆洲站-內湖科技園區",
        "橘10",
        "橘17",
        "橘19",
        "橘19副",
        "橘20凌雲寺停車場",
        "橘20觀音山遊客中心",
        "橘25",
        "藍1",
        "蘆洲-中正高中",
        "蘆洲-南港",
        "F312",
        "F319",
        "F320",
        "F320捷運三民高中站(復興路一)"
      ],
      "routeCount": 40,
      "routeSource": "gtfs",
      "routeUpdatedAt": "2026-06-14T16:43:41.563Z",
      "routeConfidence": "high"
    },
    {
      "id": 2982945654,
      "name": "灰瑤",
      "type": "bus",
      "city": "新北市",
      "district": "蘆洲區",
      "lat": 25.0931237,
      "lng": 121.4617685,
      "routes": [
        "508",
        "581五林路口",
        "581御史路",
        "704",
        "704區",
        "704區繞",
        "785",
        "857",
        "857三重客運淡水站(車機)",
        "857新北板橋公車站(車機)",
        "899",
        "橘19",
        "橘19副",
        "橘20凌雲寺停車場",
        "橘20觀音山遊客中心",
        "F312"
      ],
      "routeCount": 16,
      "routeSource": "gtfs",
      "routeUpdatedAt": "2026-06-14T16:43:41.563Z",
      "routeConfidence": "high"
    },
    {
      "id": 2984526835,
      "name": "三民高中",
      "type": "bus",
      "city": "新北市",
      "district": "蘆洲區",
      "lat": 25.0863083,
      "lng": 121.4724393,
      "routes": [
        "261路",
        "857",
        "857三重客運淡水站(車機)",
        "857新北板橋公車站(車機)",
        "925",
        "925厚德派出所",
        "紅9",
        "捷運蘆洲站-內湖科技園區",
        "橘17",
        "橘18",
        "橘18福隆路",
        "橘19",
        "橘19副",
        "蘆洲-中正高中",
        "F312",
        "F319",
        "F320",
        "F320捷運三民高中站(復興路一)"
      ],
      "routeCount": 18,
      "routeSource": "gtfs",
      "routeUpdatedAt": "2026-06-14T16:43:41.564Z",
      "routeConfidence": "high"
    },
    {
      "id": 2984526836,
      "name": "中原公寓",
      "type": "bus",
      "city": "新北市",
      "district": "蘆洲區",
      "lat": 25.0854287,
      "lng": 121.4688899,
      "routes": [
        "14",
        "225",
        "225狗狗公車",
        "225區",
        "232快",
        "306(三重)",
        "306(大都會)",
        "508",
        "508區(三重)",
        "581五林路口",
        "581御史路",
        "704",
        "785",
        "806板橋後站",
        "806蘆洲總站",
        "忠孝幹線",
        "蘆洲-內湖",
        "蘆洲中正路-士林中正路",
        "F312",
        "F319"
      ],
      "routeCount": 20,
      "routeSource": "gtfs",
      "routeUpdatedAt": "2026-06-14T16:43:41.564Z",
      "routeConfidence": "high"
    },
    {
      "id": 2984526838,
      "name": "捷運徐匯中學站",
      "type": "bus",
      "city": "新北市",
      "district": "蘆洲區",
      "lat": 25.0802975,
      "lng": 121.4805659,
      "routes": [
        "39",
        "39夜",
        "221",
        "225",
        "225狗狗公車",
        "225區",
        "232",
        "232快",
        "264",
        "264捷運蘆洲站",
        "264歡仔園",
        "306(三重)",
        "306(大都會)",
        "508",
        "508區(三重)",
        "508區(三重一)",
        "508區(大)",
        "662",
        "704",
        "785",
        "815",
        "857",
        "857三重客運淡水站(車機)",
        "857新北板橋公車站(車機)",
        "925",
        "925厚德派出所",
        "927",
        "927去程繞台北港",
        "927自然公園(車機)",
        "927返程繞台北港",
        "928吉祥街口",
        "三重-內科返",
        "忠孝幹線",
        "捷運蘆洲站-內湖科技園區",
        "通勤9",
        "橘13",
        "橘18",
        "橘18福隆路",
        "藍1",
        "蘆洲-中正高中",
        "蘆洲-內湖",
        "蘆洲-南港",
        "F303",
        "F320"
      ],
      "routeCount": 44,
      "routeSource": "gtfs",
      "routeUpdatedAt": "2026-06-14T16:43:41.565Z",
      "routeConfidence": "high"
    },
    {
      "id": 2984526839,
      "name": "捷運徐匯中學站",
      "type": "bus",
      "city": "新北市",
      "district": "蘆洲區",
      "lat": 25.0809212,
      "lng": 121.4787994,
      "routes": [
        "221",
        "225",
        "225狗狗公車",
        "225區",
        "232",
        "232快",
        "264",
        "264捷運蘆洲站",
        "264歡仔園",
        "306(三重)",
        "306(大都會)",
        "508",
        "508區(三重)",
        "508區(三重一)",
        "508區(大)",
        "704",
        "785",
        "815",
        "857",
        "857三重客運淡水站(車機)",
        "857新北板橋公車站(車機)",
        "925",
        "925厚德派出所",
        "927",
        "927去程繞台北港",
        "927自然公園(車機)",
        "927返程繞台北港",
        "928吉祥街口",
        "三重-內科返",
        "忠孝幹線",
        "捷運蘆洲站-內湖科技園區",
        "通勤9",
        "橘13",
        "藍1",
        "蘆洲-中正高中",
        "F320"
      ],
      "routeCount": 36,
      "routeSource": "gtfs",
      "routeUpdatedAt": "2026-06-14T16:43:41.566Z",
      "routeConfidence": "high"
    },
    {
      "id": 2984526840,
      "name": "民和公寓",
      "type": "bus",
      "city": "新北市",
      "district": "蘆洲區",
      "lat": 25.0810489,
      "lng": 121.4790425,
      "routes": [
        "857新北板橋公車站(車機)",
        "925",
        "925厚德派出所",
        "927",
        "927去程繞台北港",
        "927自然公園(車機)",
        "927返程繞台北港",
        "928吉祥街口",
        "通勤9",
        "橘13"
      ],
      "routeCount": 10,
      "routeSource": "gtfs",
      "routeUpdatedAt": "2026-06-14T16:43:41.566Z",
      "routeConfidence": "high"
    },
    {
      "id": 2984526841,
      "name": "王爺廟口",
      "type": "bus",
      "city": "新北市",
      "district": "蘆洲區",
      "lat": 25.0879842,
      "lng": 121.466967,
      "routes": [
        "14",
        "225",
        "225狗狗公車",
        "225區",
        "232快",
        "306(三重)",
        "306(大都會)",
        "508",
        "508區(三重)",
        "581五林路口",
        "581御史路",
        "704",
        "785",
        "806板橋後站",
        "806蘆洲總站",
        "忠孝幹線",
        "F312",
        "F319"
      ],
      "routeCount": 18,
      "routeSource": "gtfs",
      "routeUpdatedAt": "2026-06-14T16:43:41.566Z",
      "routeConfidence": "high"
    },
    {
      "id": 2984526843,
      "name": "民族路口",
      "type": "bus",
      "city": "新北市",
      "district": "蘆洲區",
      "lat": 25.0889861,
      "lng": 121.4691302,
      "routes": [
        "14",
        "232",
        "261路",
        "264",
        "264歡仔園",
        "811",
        "857",
        "857三重客運淡水站(車機)",
        "857新北板橋公車站(車機)",
        "899",
        "925",
        "925厚德派出所",
        "橘19",
        "橘19副",
        "藍1",
        "F320",
        "F320捷運三民高中站(復興路一)"
      ],
      "routeCount": 17,
      "routeSource": "gtfs",
      "routeUpdatedAt": "2026-06-14T16:43:41.567Z",
      "routeConfidence": "high"
    },
    {
      "id": 2984526844,
      "name": "民族路口",
      "type": "bus",
      "city": "新北市",
      "district": "蘆洲區",
      "lat": 25.0895801,
      "lng": 121.4681016,
      "routes": [
        "14",
        "232",
        "261路",
        "264",
        "264歡仔園",
        "811",
        "857",
        "857三重客運淡水站(車機)",
        "857新北板橋公車站(車機)",
        "899",
        "925",
        "925厚德派出所",
        "橘19",
        "橘19副",
        "藍1",
        "F320",
        "F320捷運三民高中站(復興路一)"
      ],
      "routeCount": 17,
      "routeSource": "gtfs",
      "routeUpdatedAt": "2026-06-14T16:43:41.567Z",
      "routeConfidence": "high"
    },
    {
      "id": 2984526845,
      "name": "溪墘",
      "type": "bus",
      "city": "新北市",
      "district": "蘆洲區",
      "lat": 25.0814613,
      "lng": 121.4766053,
      "routes": [
        "221",
        "225",
        "225狗狗公車",
        "225區",
        "232",
        "232快",
        "264捷運蘆洲站",
        "306(三重)",
        "306(大都會)",
        "508",
        "508區(三重)",
        "508區(三重一)",
        "508區(大)",
        "704",
        "785",
        "811",
        "816",
        "857",
        "857三重客運淡水站(車機)",
        "857新北板橋公車站(車機)",
        "925",
        "925厚德派出所",
        "927",
        "927水興公(車機)",
        "927去程繞台北港",
        "927自然公園(車機)",
        "927返程繞台北港",
        "928吉祥街口",
        "928廖添丁廟",
        "內科6(內科-蘆洲站)",
        "內科6(蘆洲站-內科)",
        "忠孝幹線",
        "紅9",
        "通勤9",
        "橘13",
        "橘19",
        "橘19副",
        "藍1",
        "蘆洲-內湖",
        "蘆洲-南港",
        "蘆洲中正路-士林中正路",
        "F317陽明醫院",
        "F317蘆洲區公所"
      ],
      "routeCount": 43,
      "routeSource": "gtfs",
      "routeUpdatedAt": "2026-06-14T16:43:41.568Z",
      "routeConfidence": "high"
    },
    {
      "id": 2984526847,
      "name": "空中大學",
      "type": "bus",
      "city": "新北市",
      "district": "蘆洲區",
      "lat": 25.0876077,
      "lng": 121.4708157,
      "routes": [
        "261路",
        "857",
        "857三重客運淡水站(車機)",
        "857新北板橋公車站(車機)",
        "925",
        "925厚德派出所",
        "橘19",
        "橘19副",
        "F320",
        "F320捷運三民高中站(復興路一)"
      ],
      "routeCount": 10,
      "routeSource": "gtfs",
      "routeUpdatedAt": "2026-06-14T16:43:41.568Z",
      "routeConfidence": "high"
    },
    {
      "id": 2984526848,
      "name": "空中大學",
      "type": "bus",
      "city": "新北市",
      "district": "蘆洲區",
      "lat": 25.0882844,
      "lng": 121.4697104,
      "routes": [
        "261路",
        "857",
        "857三重客運淡水站(車機)",
        "857新北板橋公車站(車機)",
        "925",
        "925厚德派出所",
        "橘19",
        "橘19副",
        "F320",
        "F320捷運三民高中站(復興路一)"
      ],
      "routeCount": 10,
      "routeSource": "gtfs",
      "routeUpdatedAt": "2026-06-14T16:43:41.568Z",
      "routeConfidence": "high"
    },
    {
      "id": 2984526851,
      "name": "蘆洲區公所",
      "type": "bus",
      "city": "新北市",
      "district": "蘆洲區",
      "lat": 25.0845508,
      "lng": 121.4742823,
      "routes": [
        "261路",
        "857",
        "857三重客運淡水站(車機)",
        "紅9",
        "橘19",
        "橘19副",
        "F312",
        "F317陽明醫院",
        "F317蘆洲區公所",
        "F319",
        "F320"
      ],
      "routeCount": 11,
      "routeSource": "gtfs",
      "routeUpdatedAt": "2026-06-14T16:43:41.568Z",
      "routeConfidence": "high"
    },
    {
      "id": 2984526852,
      "name": "捷運三民高中站",
      "type": "bus",
      "city": "新北市",
      "district": "蘆洲區",
      "lat": 25.0853263,
      "lng": 121.473692,
      "routes": [
        "261路",
        "857",
        "857三重客運淡水站(車機)",
        "857新北板橋公車站(車機)",
        "925",
        "925厚德派出所",
        "紅9",
        "捷運蘆洲站-內湖科技園區",
        "橘17",
        "橘18",
        "橘18福隆路",
        "橘19",
        "橘19副",
        "蘆洲-中正高中",
        "F312",
        "F319",
        "F320",
        "F320捷運三民高中站(復興路一)"
      ],
      "routeCount": 18,
      "routeSource": "gtfs",
      "routeUpdatedAt": "2026-06-14T16:43:41.569Z",
      "routeConfidence": "high"
    },
    {
      "id": 2984526853,
      "name": "蘆洲國小",
      "type": "bus",
      "city": "新北市",
      "district": "蘆洲區",
      "lat": 25.0831282,
      "lng": 121.4703252,
      "routes": [
        "14",
        "225",
        "225狗狗公車",
        "225區",
        "232快",
        "306(三重)",
        "306(大都會)",
        "508",
        "508區(三重)",
        "581五林路口",
        "581御史路",
        "704",
        "785",
        "806板橋後站",
        "806蘆洲總站",
        "忠孝幹線",
        "蘆洲中正路-士林中正路"
      ],
      "routeCount": 17,
      "routeSource": "gtfs",
      "routeUpdatedAt": "2026-06-14T16:43:41.569Z",
      "routeConfidence": "high"
    },
    {
      "id": 2984526855,
      "name": "蘆洲派出所",
      "type": "bus",
      "city": "新北市",
      "district": "蘆洲區",
      "lat": 25.0818969,
      "lng": 121.4732399,
      "routes": [
        "225",
        "225狗狗公車",
        "225區",
        "232",
        "232快",
        "306(三重)",
        "306(大都會)",
        "508",
        "508區(三重)",
        "508區(三重一)",
        "508區(大)",
        "704",
        "785",
        "816",
        "927",
        "927水興公(車機)",
        "927去程繞台北港",
        "927自然公園(車機)",
        "927返程繞台北港",
        "928吉祥街口",
        "928廖添丁廟",
        "忠孝幹線",
        "通勤9",
        "橘13",
        "F319"
      ],
      "routeCount": 25,
      "routeSource": "gtfs",
      "routeUpdatedAt": "2026-06-14T16:43:41.569Z",
      "routeConfidence": "high"
    },
    {
      "id": 2984526857,
      "name": "蘆洲監理站",
      "type": "bus",
      "city": "新北市",
      "district": "蘆洲區",
      "lat": 25.0816346,
      "lng": 121.4722096,
      "routes": [
        "14",
        "225",
        "225狗狗公車",
        "225區",
        "232",
        "232快",
        "306(三重)",
        "306(大都會)",
        "508",
        "508區(三重)",
        "508區(三重一)",
        "508區(大)",
        "581五林路口",
        "581御史路",
        "704",
        "785",
        "806板橋後站",
        "806蘆洲總站",
        "816",
        "927",
        "927水興公(車機)",
        "927去程繞台北港",
        "927自然公園(車機)",
        "927返程繞台北港",
        "928吉祥街口",
        "928廖添丁廟",
        "忠孝幹線",
        "通勤9",
        "橘13",
        "蘆洲-內湖",
        "蘆洲中正路-士林中正路",
        "F319"
      ],
      "routeCount": 32,
      "routeSource": "gtfs",
      "routeUpdatedAt": "2026-06-14T16:43:41.570Z",
      "routeConfidence": "high"
    },
    {
      "id": 2984526859,
      "name": "蘆洲總站",
      "type": "bus",
      "city": "新北市",
      "district": "蘆洲區",
      "lat": 25.0890995,
      "lng": 121.4658257,
      "routes": [
        "225",
        "225狗狗公車",
        "225區",
        "232",
        "232快",
        "261路",
        "306(三重)",
        "306(大都會)",
        "508",
        "508區(三重)",
        "581五林路口",
        "581御史路",
        "704",
        "785",
        "806板橋後站",
        "806蘆洲總站",
        "811",
        "899",
        "內科6(內科-蘆洲站)",
        "內科6(蘆洲站-內科)",
        "忠孝幹線",
        "橘25",
        "藍1",
        "蘆洲-內湖",
        "蘆洲中正路-士林中正路",
        "F312",
        "F319"
      ],
      "routeCount": 27,
      "routeSource": "gtfs",
      "routeUpdatedAt": "2026-06-14T16:43:41.570Z",
      "routeConfidence": "high"
    },
    {
      "id": 2984526861,
      "name": "鷺江國小(三民路)",
      "type": "bus",
      "city": "新北市",
      "district": "蘆洲區",
      "lat": 25.0827942,
      "lng": 121.4757237,
      "routes": [
        "221",
        "261路",
        "264捷運蘆洲站",
        "857",
        "857三重客運淡水站(車機)",
        "857新北板橋公車站(車機)",
        "925",
        "925厚德派出所",
        "紅9",
        "橘17",
        "橘19",
        "橘19副",
        "F312",
        "F319",
        "F320"
      ],
      "routeCount": 15,
      "routeSource": "gtfs",
      "routeUpdatedAt": "2026-06-14T16:43:41.571Z",
      "routeConfidence": "high"
    },
    {
      "id": 3071973733,
      "name": "三重站",
      "type": "bus",
      "city": "新北市",
      "district": "蘆洲區",
      "lat": 25.0743198,
      "lng": 121.4727696
    },
    {
      "id": 3071973742,
      "name": "首都客運二重站",
      "type": "bus",
      "city": "新北市",
      "district": "蘆洲區",
      "lat": 25.074159,
      "lng": 121.4734129,
      "routes": [
        "211",
        "292",
        "292副",
        "621"
      ],
      "routeCount": 4,
      "routeSource": "gtfs",
      "routeUpdatedAt": "2026-06-14T16:43:41.571Z",
      "routeConfidence": "high"
    },
    {
      "id": 3350300484,
      "name": "仁愛國小",
      "type": "bus",
      "city": "新北市",
      "district": "蘆洲區",
      "lat": 25.0898156,
      "lng": 121.4690417,
      "routes": [
        "221",
        "264",
        "264捷運蘆洲站",
        "264歡仔園",
        "紅9",
        "橘10",
        "橘17",
        "F312"
      ],
      "routeCount": 8,
      "routeSource": "gtfs",
      "routeUpdatedAt": "2026-06-14T16:43:41.571Z",
      "routeConfidence": "high"
    },
    {
      "id": 3350300485,
      "name": "仁愛國小",
      "type": "bus",
      "city": "新北市",
      "district": "蘆洲區",
      "lat": 25.0905208,
      "lng": 121.4696655,
      "routes": [
        "264",
        "264歡仔園"
      ],
      "routeCount": 2,
      "routeSource": "gtfs",
      "routeUpdatedAt": "2026-06-14T15:08:26.620Z",
      "routeConfidence": "high"
    },
    {
      "id": 3350300486,
      "name": "仁愛街口",
      "type": "bus",
      "city": "新北市",
      "district": "蘆洲區",
      "lat": 25.091822,
      "lng": 121.4723163,
      "routes": [
        "221",
        "264",
        "264捷運蘆洲站",
        "264歡仔園",
        "紅9",
        "橘10",
        "橘17",
        "F312"
      ],
      "routeCount": 8,
      "routeSource": "gtfs",
      "routeUpdatedAt": "2026-06-14T16:43:41.571Z",
      "routeConfidence": "high"
    },
    {
      "id": 3350300488,
      "name": "信義路",
      "type": "bus",
      "city": "新北市",
      "district": "蘆洲區",
      "lat": 25.0851493,
      "lng": 121.479043,
      "routes": [
        "264",
        "264歡仔園"
      ],
      "routeCount": 2,
      "routeSource": "gtfs",
      "routeUpdatedAt": "2026-06-14T15:08:26.621Z",
      "routeConfidence": "high"
    },
    {
      "id": 3350300489,
      "name": "信義路口",
      "type": "bus",
      "city": "新北市",
      "district": "蘆洲區",
      "lat": 25.0827875,
      "lng": 121.4796396,
      "routes": [
        "264",
        "264歡仔園",
        "橘18",
        "橘18福隆路"
      ],
      "routeCount": 4,
      "routeSource": "gtfs",
      "routeUpdatedAt": "2026-06-14T16:43:41.572Z",
      "routeConfidence": "high"
    },
    {
      "id": 3350300491,
      "name": "復興路",
      "type": "bus",
      "city": "新北市",
      "district": "蘆洲區",
      "lat": 25.0887665,
      "lng": 121.4781823,
      "routes": [
        "264",
        "264歡仔園",
        "紅9",
        "橘10",
        "橘18",
        "橘18福隆路",
        "F312"
      ],
      "routeCount": 7,
      "routeSource": "gtfs",
      "routeUpdatedAt": "2026-06-14T16:43:41.572Z",
      "routeConfidence": "high"
    },
    {
      "id": 3350300493,
      "name": "民族民義街口",
      "type": "bus",
      "city": "新北市",
      "district": "蘆洲區",
      "lat": 25.0914082,
      "lng": 121.4748586,
      "routes": [
        "264",
        "264歡仔園"
      ],
      "routeCount": 2,
      "routeSource": "gtfs",
      "routeUpdatedAt": "2026-06-14T15:08:26.621Z",
      "routeConfidence": "high"
    },
    {
      "id": 3350300541,
      "name": "樓厝一",
      "type": "bus",
      "city": "新北市",
      "district": "蘆洲區",
      "lat": 25.0898814,
      "lng": 121.4774529,
      "routes": [
        "221",
        "264",
        "264捷運蘆洲站",
        "264歡仔園",
        "紅9",
        "橘10",
        "橘17"
      ],
      "routeCount": 7,
      "routeSource": "gtfs",
      "routeUpdatedAt": "2026-06-14T16:43:41.572Z",
      "routeConfidence": "high"
    },
    {
      "id": 3350431779,
      "name": "九芎廟",
      "type": "bus",
      "city": "新北市",
      "district": "蘆洲區",
      "lat": 25.0789644,
      "lng": 121.4666436,
      "routes": [
        "14",
        "232",
        "811",
        "橘17",
        "橘18",
        "橘18福隆路",
        "藍1"
      ],
      "routeCount": 7,
      "routeSource": "gtfs",
      "routeUpdatedAt": "2026-06-14T16:43:41.572Z",
      "routeConfidence": "high"
    },
    {
      "id": 3350431782,
      "name": "九芎街",
      "type": "bus",
      "city": "新北市",
      "district": "蘆洲區",
      "lat": 25.0789599,
      "lng": 121.4648462,
      "routes": [
        "F319"
      ],
      "routeCount": 1,
      "routeSource": "gtfs",
      "routeUpdatedAt": "2026-06-14T15:08:26.621Z",
      "routeConfidence": "high"
    },
    {
      "id": 3350431784,
      "name": "延平里",
      "type": "bus",
      "city": "新北市",
      "district": "蘆洲區",
      "lat": 25.0796607,
      "lng": 121.4631068,
      "routes": [
        "14",
        "232",
        "811",
        "F319"
      ],
      "routeCount": 4,
      "routeSource": "gtfs",
      "routeUpdatedAt": "2026-06-14T16:43:41.572Z",
      "routeConfidence": "high"
    },
    {
      "id": 3350431786,
      "name": "忠義廟",
      "type": "bus",
      "city": "新北市",
      "district": "蘆洲區",
      "lat": 25.0811551,
      "lng": 121.4611556,
      "routes": [
        "14",
        "232",
        "811",
        "F319",
        "F320",
        "F320捷運三民高中站(復興路一)"
      ],
      "routeCount": 6,
      "routeSource": "gtfs",
      "routeUpdatedAt": "2026-06-14T16:43:41.572Z",
      "routeConfidence": "high"
    },
    {
      "id": 3350431788,
      "name": "成功國小",
      "type": "bus",
      "city": "新北市",
      "district": "蘆洲區",
      "lat": 25.0862304,
      "lng": 121.4576207,
      "routes": [
        "14",
        "232",
        "811",
        "F319",
        "F320",
        "F320捷運三民高中站(復興路一)"
      ],
      "routeCount": 6,
      "routeSource": "gtfs",
      "routeUpdatedAt": "2026-06-14T16:43:41.572Z",
      "routeConfidence": "high"
    },
    {
      "id": 3350431791,
      "name": "永平市場",
      "type": "bus",
      "city": "新北市",
      "district": "蘆洲區",
      "lat": 25.0899998,
      "lng": 121.4596581,
      "routes": [
        "14",
        "221",
        "225",
        "225狗狗公車",
        "225區",
        "232",
        "811",
        "紅9",
        "橘10",
        "橘17",
        "橘25",
        "藍1",
        "F319",
        "F320",
        "F320捷運三民高中站(復興路一)"
      ],
      "routeCount": 15,
      "routeSource": "gtfs",
      "routeUpdatedAt": "2026-06-14T16:43:41.572Z",
      "routeConfidence": "high"
    },
    {
      "id": 3350433693,
      "name": "永康公園",
      "type": "bus",
      "city": "新北市",
      "district": "蘆洲區",
      "lat": 25.0847069,
      "lng": 121.4582077,
      "routes": [
        "14",
        "232",
        "811",
        "F319",
        "F320",
        "F320捷運三民高中站(復興路一)"
      ],
      "routeCount": 6,
      "routeSource": "gtfs",
      "routeUpdatedAt": "2026-06-14T16:43:41.573Z",
      "routeConfidence": "high"
    },
    {
      "id": 3350433695,
      "name": "永樂街",
      "type": "bus",
      "city": "新北市",
      "district": "蘆洲區",
      "lat": 25.0881711,
      "lng": 121.4584197,
      "routes": [
        "14",
        "232",
        "811",
        "橘25",
        "F320",
        "F320捷運三民高中站(復興路一)"
      ],
      "routeCount": 6,
      "routeSource": "gtfs",
      "routeUpdatedAt": "2026-06-14T16:43:41.573Z",
      "routeConfidence": "high"
    },
    {
      "id": 3350433709,
      "name": "長安街一",
      "type": "bus",
      "city": "新北市",
      "district": "蘆洲區",
      "lat": 25.0827149,
      "lng": 121.4594381,
      "routes": [
        "14",
        "232",
        "811",
        "蘆洲-南港",
        "F319",
        "F320",
        "F320捷運三民高中站(復興路一)"
      ],
      "routeCount": 7,
      "routeSource": "gtfs",
      "routeUpdatedAt": "2026-06-14T16:43:41.573Z",
      "routeConfidence": "high"
    },
    {
      "id": 3350433715,
      "name": "長安街",
      "type": "bus",
      "city": "新北市",
      "district": "蘆洲區",
      "lat": 25.0878083,
      "lng": 121.4573825,
      "routes": [
        "14",
        "232",
        "811",
        "F319",
        "F320",
        "F320捷運三民高中站(復興路一)"
      ],
      "routeCount": 6,
      "routeSource": "gtfs",
      "routeUpdatedAt": "2026-06-14T16:43:41.573Z",
      "routeConfidence": "high"
    },
    {
      "id": 3350433717,
      "name": "長榮路",
      "type": "bus",
      "city": "新北市",
      "district": "蘆洲區",
      "lat": 25.09223,
      "lng": 121.4602813,
      "routes": [
        "14",
        "221",
        "225",
        "225狗狗公車",
        "225區",
        "232",
        "811",
        "紅9",
        "橘10",
        "橘17",
        "橘25",
        "藍1",
        "F320",
        "F320捷運三民高中站(復興路一)"
      ],
      "routeCount": 14,
      "routeSource": "gtfs",
      "routeUpdatedAt": "2026-06-14T16:43:41.573Z",
      "routeConfidence": "high"
    },
    {
      "id": 3351131235,
      "name": "九芎街口",
      "type": "bus",
      "city": "新北市",
      "district": "蘆洲區",
      "lat": 25.0784978,
      "lng": 121.468527,
      "routes": [
        "14",
        "232",
        "811",
        "橘17",
        "橘18",
        "橘18福隆路",
        "藍1"
      ],
      "routeCount": 7,
      "routeSource": "gtfs",
      "routeUpdatedAt": "2026-06-14T16:43:41.573Z",
      "routeConfidence": "high"
    },
    {
      "id": 3351131239,
      "name": "永安里",
      "type": "bus",
      "city": "新北市",
      "district": "蘆洲區",
      "lat": 25.0778814,
      "lng": 121.4689431,
      "routes": [
        "14",
        "274",
        "581五林路口",
        "581御史路",
        "806板橋後站",
        "806蘆洲總站",
        "816",
        "通勤9",
        "橘17"
      ],
      "routeCount": 9,
      "routeSource": "gtfs",
      "routeUpdatedAt": "2026-06-14T16:43:41.574Z",
      "routeConfidence": "high"
    },
    {
      "id": 3700823293,
      "name": "和平路口",
      "type": "bus",
      "city": "新北市",
      "district": "蘆洲區",
      "lat": 25.079374,
      "lng": 121.4693785,
      "routes": [
        "14",
        "232",
        "508區(三重一)",
        "508區(大)",
        "581五林路口",
        "581御史路",
        "806板橋後站",
        "806蘆洲總站",
        "816",
        "927",
        "927水興公(車機)",
        "927去程繞台北港",
        "927自然公園(車機)",
        "927返程繞台北港",
        "928吉祥街口",
        "928廖添丁廟",
        "通勤9",
        "橘13"
      ],
      "routeCount": 18,
      "routeSource": "gtfs",
      "routeUpdatedAt": "2026-06-14T16:43:41.574Z",
      "routeConfidence": "high"
    },
    {
      "id": 3700965676,
      "name": "中山一路",
      "type": "bus",
      "city": "新北市",
      "district": "蘆洲區",
      "lat": 25.0805938,
      "lng": 121.4735484,
      "routes": [
        "261路",
        "811",
        "藍1",
        "F320"
      ],
      "routeCount": 4,
      "routeSource": "gtfs",
      "routeUpdatedAt": "2026-06-14T16:43:41.574Z",
      "routeConfidence": "high"
    },
    {
      "id": 3700965681,
      "name": "民生街口",
      "type": "bus",
      "city": "新北市",
      "district": "蘆洲區",
      "lat": 25.079392,
      "lng": 121.4719228,
      "routes": [
        "261路",
        "811",
        "藍1"
      ],
      "routeCount": 3,
      "routeSource": "gtfs",
      "routeUpdatedAt": "2026-06-14T16:43:41.574Z",
      "routeConfidence": "high"
    },
    {
      "id": 3700965688,
      "name": "萬全市場",
      "type": "bus",
      "city": "新北市",
      "district": "蘆洲區",
      "lat": 25.0810516,
      "lng": 121.4648433,
      "routes": [
        "橘17",
        "橘18",
        "橘18福隆路",
        "藍1",
        "F319"
      ],
      "routeCount": 5,
      "routeSource": "gtfs",
      "routeUpdatedAt": "2026-06-14T16:43:41.574Z",
      "routeConfidence": "high"
    },
    {
      "id": 3700965691,
      "name": "長榮中原路口",
      "type": "bus",
      "city": "新北市",
      "district": "蘆洲區",
      "lat": 25.0843543,
      "lng": 121.4613839,
      "routes": [
        "221",
        "225",
        "225狗狗公車",
        "225區",
        "紅9",
        "橘10",
        "橘17",
        "藍1",
        "F319"
      ],
      "routeCount": 9,
      "routeSource": "gtfs",
      "routeUpdatedAt": "2026-06-14T16:43:41.575Z",
      "routeConfidence": "high"
    },
    {
      "id": 3700965693,
      "name": "長榮光明路口",
      "type": "bus",
      "city": "新北市",
      "district": "蘆洲區",
      "lat": 25.086703,
      "lng": 121.4601605,
      "routes": [
        "221",
        "225",
        "225狗狗公車",
        "225區",
        "紅9",
        "橘10",
        "橘17",
        "藍1",
        "蘆洲-中正高中",
        "F319"
      ],
      "routeCount": 10,
      "routeSource": "gtfs",
      "routeUpdatedAt": "2026-06-14T16:43:41.575Z",
      "routeConfidence": "high"
    },
    {
      "id": 3700965695,
      "name": "長榮光華路口",
      "type": "bus",
      "city": "新北市",
      "district": "蘆洲區",
      "lat": 25.0822733,
      "lng": 121.4634403,
      "routes": [
        "927",
        "927水興公(車機)",
        "927去程繞台北港",
        "927自然公園(車機)",
        "927返程繞台北港",
        "928吉祥街口",
        "928廖添丁廟",
        "橘13",
        "橘17",
        "藍1",
        "蘆洲-中正高中"
      ],
      "routeCount": 11,
      "routeSource": "gtfs",
      "routeUpdatedAt": "2026-06-14T16:43:41.575Z",
      "routeConfidence": "high"
    },
    {
      "id": 3720429064,
      "name": "永安南路",
      "type": "bus",
      "city": "新北市",
      "district": "蘆洲區",
      "lat": 25.0777372,
      "lng": 121.465942
    },
    {
      "id": 3720429066,
      "name": "永安圖書館",
      "type": "bus",
      "city": "新北市",
      "district": "蘆洲區",
      "lat": 25.0785103,
      "lng": 121.4626291,
      "routes": [
        "橘25"
      ],
      "routeCount": 1,
      "routeSource": "gtfs",
      "routeUpdatedAt": "2026-06-14T15:08:26.623Z",
      "routeConfidence": "high"
    },
    {
      "id": 3720429068,
      "name": "永德里",
      "type": "bus",
      "city": "新北市",
      "district": "蘆洲區",
      "lat": 25.0826725,
      "lng": 121.4568861,
      "routes": [
        "橘25"
      ],
      "routeCount": 1,
      "routeSource": "gtfs",
      "routeUpdatedAt": "2026-06-14T15:08:26.623Z",
      "routeConfidence": "high"
    },
    {
      "id": 3720429070,
      "name": "環堤大道",
      "type": "bus",
      "city": "新北市",
      "district": "蘆洲區",
      "lat": 25.0845622,
      "lng": 121.4557097
    },
    {
      "id": 3720429192,
      "name": "長安里",
      "type": "bus",
      "city": "新北市",
      "district": "蘆洲區",
      "lat": 25.0804377,
      "lng": 121.4593064,
      "routes": [
        "橘25"
      ],
      "routeCount": 1,
      "routeSource": "gtfs",
      "routeUpdatedAt": "2026-06-14T15:08:26.623Z",
      "routeConfidence": "high"
    },
    {
      "id": 3724576607,
      "name": "中原長安街口",
      "type": "bus",
      "city": "新北市",
      "district": "蘆洲區",
      "lat": 25.0822802,
      "lng": 121.4593746,
      "routes": [
        "927",
        "927水興公(車機)",
        "927去程繞台北港",
        "927自然公園(車機)",
        "927返程繞台北港",
        "928吉祥街口",
        "928廖添丁廟",
        "橘10",
        "橘13"
      ],
      "routeCount": 9,
      "routeSource": "gtfs",
      "routeUpdatedAt": "2026-06-14T16:43:41.575Z",
      "routeConfidence": "high"
    },
    {
      "id": 3724576610,
      "name": "正和街口",
      "type": "bus",
      "city": "新北市",
      "district": "蘆洲區",
      "lat": 25.0803738,
      "lng": 121.4669986,
      "routes": [
        "927",
        "927水興公(車機)",
        "927去程繞台北港",
        "927自然公園(車機)",
        "927返程繞台北港",
        "928吉祥街口",
        "928廖添丁廟",
        "橘13",
        "F319"
      ],
      "routeCount": 9,
      "routeSource": "gtfs",
      "routeUpdatedAt": "2026-06-14T16:43:41.575Z",
      "routeConfidence": "high"
    },
    {
      "id": 3724576612,
      "name": "正義公園",
      "type": "bus",
      "city": "新北市",
      "district": "蘆洲區",
      "lat": 25.0831728,
      "lng": 121.4610297,
      "routes": [
        "927",
        "927水興公(車機)",
        "927去程繞台北港",
        "927自然公園(車機)",
        "927返程繞台北港",
        "928吉祥街口",
        "928廖添丁廟",
        "橘10",
        "橘13"
      ],
      "routeCount": 9,
      "routeSource": "gtfs",
      "routeUpdatedAt": "2026-06-14T16:43:41.576Z",
      "routeConfidence": "high"
    },
    {
      "id": 3724617687,
      "name": "尼加拉瓜公園",
      "type": "bus",
      "city": "新北市",
      "district": "蘆洲區",
      "lat": 25.0841189,
      "lng": 121.4812678,
      "routes": [
        "811",
        "815",
        "816",
        "927",
        "927水興公(車機)",
        "927去程繞台北港",
        "927自然公園(車機)",
        "927返程繞台北港",
        "928吉祥街口",
        "928廖添丁廟",
        "紅9",
        "通勤9",
        "橘13",
        "橘19",
        "橘19副",
        "F317陽明醫院",
        "F317蘆洲區公所",
        "F320"
      ],
      "routeCount": 18,
      "routeSource": "gtfs",
      "routeUpdatedAt": "2026-06-14T16:43:41.576Z",
      "routeConfidence": "high"
    },
    {
      "id": 3724617694,
      "name": "集賢路",
      "type": "bus",
      "city": "新北市",
      "district": "蘆洲區",
      "lat": 25.087095,
      "lng": 121.4833607,
      "routes": [
        "811",
        "815",
        "816",
        "927",
        "927水興公(車機)",
        "927去程繞台北港",
        "927自然公園(車機)",
        "927返程繞台北港",
        "928吉祥街口",
        "928廖添丁廟",
        "三重-內科去",
        "三重-內科返",
        "紅9",
        "通勤9",
        "橘13",
        "橘19",
        "橘19副",
        "蘆洲中正路-士林中正路"
      ],
      "routeCount": 18,
      "routeSource": "gtfs",
      "routeUpdatedAt": "2026-06-14T16:43:41.576Z",
      "routeConfidence": "high"
    },
    {
      "id": 3724617695,
      "name": "民權路口",
      "type": "bus",
      "city": "新北市",
      "district": "蘆洲區",
      "lat": 25.0873008,
      "lng": 121.4763434,
      "routes": [
        "紅9",
        "橘10",
        "橘18",
        "橘18福隆路",
        "F312"
      ],
      "routeCount": 5,
      "routeSource": "gtfs",
      "routeUpdatedAt": "2026-06-14T16:43:41.576Z",
      "routeConfidence": "high"
    },
    {
      "id": 3734714094,
      "name": "信義里",
      "type": "bus",
      "city": "新北市",
      "district": "蘆洲區",
      "lat": 25.0882499,
      "lng": 121.4792705,
      "routes": [
        "221",
        "264捷運蘆洲站",
        "橘17"
      ],
      "routeCount": 3,
      "routeSource": "gtfs",
      "routeUpdatedAt": "2026-06-14T16:43:41.577Z",
      "routeConfidence": "high"
    },
    {
      "id": 3734714098,
      "name": "大慶社區",
      "type": "bus",
      "city": "新北市",
      "district": "蘆洲區",
      "lat": 25.0852462,
      "lng": 121.4784381,
      "routes": [
        "221",
        "264捷運蘆洲站",
        "橘17",
        "F312",
        "F320"
      ],
      "routeCount": 5,
      "routeSource": "gtfs",
      "routeUpdatedAt": "2026-06-14T16:43:41.577Z",
      "routeConfidence": "high"
    },
    {
      "id": 3734714100,
      "name": "樓厝",
      "type": "bus",
      "city": "新北市",
      "district": "蘆洲區",
      "lat": 25.0879332,
      "lng": 121.4773842,
      "routes": [
        "264",
        "264歡仔園"
      ],
      "routeCount": 2,
      "routeSource": "gtfs",
      "routeUpdatedAt": "2026-06-14T15:08:26.624Z",
      "routeConfidence": "high"
    },
    {
      "id": 3734714101,
      "name": "玉清宮",
      "type": "bus",
      "city": "新北市",
      "district": "蘆洲區",
      "lat": 25.0861756,
      "lng": 121.4796126,
      "routes": [
        "221",
        "264捷運蘆洲站",
        "橘17",
        "橘18",
        "橘18福隆路",
        "F312",
        "F320"
      ],
      "routeCount": 7,
      "routeSource": "gtfs",
      "routeUpdatedAt": "2026-06-14T16:43:41.577Z",
      "routeConfidence": "high"
    },
    {
      "id": 3734717533,
      "name": "鷺江國小 (民族路)",
      "type": "bus",
      "city": "新北市",
      "district": "蘆洲區",
      "lat": 25.0838894,
      "lng": 121.4756469,
      "routes": [
        "221",
        "261路",
        "264捷運蘆洲站",
        "857",
        "857三重客運淡水站(車機)",
        "857新北板橋公車站(車機)",
        "925",
        "925厚德派出所",
        "紅9",
        "橘17",
        "橘19",
        "橘19副",
        "F312",
        "F319",
        "F320"
      ],
      "routeCount": 15,
      "routeSource": "gtfs",
      "routeUpdatedAt": "2026-06-14T16:43:41.577Z",
      "routeConfidence": "high"
    },
    {
      "id": 3735927527,
      "name": "水河里",
      "type": "bus",
      "city": "新北市",
      "district": "蘆洲區",
      "lat": 25.0906762,
      "lng": 121.4761773,
      "routes": [
        "221",
        "264捷運蘆洲站",
        "紅9",
        "橘10",
        "橘17"
      ],
      "routeCount": 5,
      "routeSource": "gtfs",
      "routeUpdatedAt": "2026-06-14T16:43:41.577Z",
      "routeConfidence": "high"
    },
    {
      "id": 3744245322,
      "name": "蘆洲總站",
      "type": "bus",
      "city": "新北市",
      "district": "蘆洲區",
      "lat": 25.0902206,
      "lng": 121.4648642,
      "routes": [
        "225",
        "225狗狗公車",
        "225區",
        "232",
        "232快",
        "261路",
        "306(三重)",
        "306(大都會)",
        "508",
        "508區(三重)",
        "581五林路口",
        "581御史路",
        "704",
        "785",
        "806板橋後站",
        "806蘆洲總站",
        "811",
        "899",
        "內科6(內科-蘆洲站)",
        "內科6(蘆洲站-內科)",
        "忠孝幹線",
        "橘25",
        "藍1",
        "蘆洲-內湖",
        "蘆洲中正路-士林中正路",
        "F312",
        "F319"
      ],
      "routeCount": 27,
      "routeSource": "gtfs",
      "routeUpdatedAt": "2026-06-14T16:43:41.578Z",
      "routeConfidence": "high"
    },
    {
      "id": 3812564388,
      "name": "三民高中",
      "type": "metro",
      "city": "新北市",
      "district": "蘆洲區",
      "lat": 25.0855048,
      "lng": 121.4732993,
      "lines": [
        "中和新蘆線"
      ],
      "lineCount": 1,
      "lineSource": "gtfs",
      "lineUpdatedAt": "2026-06-14T16:43:41.578Z",
      "lineConfidence": "high"
    },
    {
      "id": 3812564400,
      "name": "徐匯中學",
      "type": "metro",
      "city": "新北市",
      "district": "蘆洲區",
      "lat": 25.0803359,
      "lng": 121.4802265,
      "lines": [
        "中和新蘆線"
      ],
      "lineCount": 1,
      "lineSource": "gtfs",
      "lineUpdatedAt": "2026-06-14T16:43:41.578Z",
      "lineConfidence": "high"
    },
    {
      "id": 3812564423,
      "name": "蘆洲",
      "type": "metro",
      "city": "新北市",
      "district": "蘆洲區",
      "lat": 25.091278,
      "lng": 121.465104,
      "lines": [
        "中和新蘆線"
      ],
      "lineCount": 1,
      "lineSource": "gtfs",
      "lineUpdatedAt": "2026-06-14T16:43:41.578Z",
      "lineConfidence": "high"
    },
    {
      "id": 4235840392,
      "name": "忠義國小",
      "type": "bus",
      "city": "新北市",
      "district": "蘆洲區",
      "lat": 25.0888305,
      "lng": 121.4637232,
      "routes": [
        "225",
        "225狗狗公車",
        "225區",
        "紅9"
      ],
      "routeCount": 4,
      "routeSource": "gtfs",
      "routeUpdatedAt": "2026-06-14T16:43:41.578Z",
      "routeConfidence": "high"
    },
    {
      "id": 7128492119,
      "name": "中原公園",
      "type": "bus",
      "city": "新北市",
      "district": "蘆洲區",
      "lat": 25.0846029,
      "lng": 121.4629287,
      "routes": [
        "221",
        "225",
        "225狗狗公車",
        "225區",
        "紅9",
        "F319"
      ],
      "routeCount": 6,
      "routeSource": "gtfs",
      "routeUpdatedAt": "2026-06-14T16:43:41.579Z",
      "routeConfidence": "high"
    },
    {
      "id": 7128492121,
      "name": "柳堤公園",
      "type": "bus",
      "city": "新北市",
      "district": "蘆洲區",
      "lat": 25.087275,
      "lng": 121.462537,
      "routes": [
        "225",
        "225狗狗公車",
        "225區",
        "紅9",
        "F319"
      ],
      "routeCount": 5,
      "routeSource": "gtfs",
      "routeUpdatedAt": "2026-06-14T16:43:41.579Z",
      "routeConfidence": "high"
    },
    {
      "id": 7216221694,
      "name": "蘆洲站",
      "type": "bus",
      "city": "新北市",
      "district": "蘆洲區",
      "lat": 25.0783961,
      "lng": 121.4693606,
      "routes": [
        "14",
        "274",
        "508區(三重一)",
        "508區(大)",
        "橘18",
        "橘18福隆路"
      ],
      "routeCount": 6,
      "routeSource": "gtfs",
      "routeUpdatedAt": "2026-06-14T16:43:41.579Z",
      "routeConfidence": "high"
    },
    {
      "id": 8432380488,
      "name": "和成新村",
      "type": "bus",
      "city": "新北市",
      "district": "蘆洲區",
      "lat": 25.0767077,
      "lng": 121.475696,
      "routes": [
        "F320"
      ],
      "routeCount": 1,
      "routeSource": "gtfs",
      "routeUpdatedAt": "2026-06-14T15:08:26.625Z",
      "routeConfidence": "high"
    },
    {
      "id": 8432400034,
      "name": "九芎街光華路口",
      "type": "bus",
      "city": "新北市",
      "district": "蘆洲區",
      "lat": 25.081915,
      "lng": 121.4647254,
      "routes": [
        "F320",
        "F320捷運三民高中站(復興路一)"
      ],
      "routeCount": 2,
      "routeSource": "gtfs",
      "routeUpdatedAt": "2026-06-14T15:08:26.626Z",
      "routeConfidence": "high"
    },
    {
      "id": 8432400274,
      "name": "光華中正路口",
      "type": "bus",
      "city": "新北市",
      "district": "蘆洲區",
      "lat": 25.083207,
      "lng": 121.469094,
      "routes": [
        "F320",
        "F320捷運三民高中站(復興路一)"
      ],
      "routeCount": 2,
      "routeSource": "gtfs",
      "routeUpdatedAt": "2026-06-14T15:08:26.626Z",
      "routeConfidence": "high"
    },
    {
      "id": 8432400276,
      "name": "正和街58號",
      "type": "bus",
      "city": "新北市",
      "district": "蘆洲區",
      "lat": 25.081369,
      "lng": 121.468846,
      "routes": [
        "F319"
      ],
      "routeCount": 1,
      "routeSource": "gtfs",
      "routeUpdatedAt": "2026-06-14T15:08:26.626Z",
      "routeConfidence": "high"
    },
    {
      "id": 8432400277,
      "name": "正和街18號",
      "type": "bus",
      "city": "新北市",
      "district": "蘆洲區",
      "lat": 25.082276,
      "lng": 121.4698986,
      "routes": [
        "F319"
      ],
      "routeCount": 1,
      "routeSource": "gtfs",
      "routeUpdatedAt": "2026-06-14T15:08:26.626Z",
      "routeConfidence": "high"
    },
    {
      "id": 8432400278,
      "name": "和平路光華路口",
      "type": "bus",
      "city": "新北市",
      "district": "蘆洲區",
      "lat": 25.081962,
      "lng": 121.4658104
    },
    {
      "id": 8432400279,
      "name": "光華和平路口",
      "type": "bus",
      "city": "新北市",
      "district": "蘆洲區",
      "lat": 25.082357,
      "lng": 121.466092,
      "routes": [
        "橘18",
        "橘18福隆路",
        "F320",
        "F320捷運三民高中站(復興路一)"
      ],
      "routeCount": 4,
      "routeSource": "gtfs",
      "routeUpdatedAt": "2026-06-14T16:43:41.579Z",
      "routeConfidence": "high"
    },
    {
      "id": 8432400281,
      "name": "民生社區",
      "type": "bus",
      "city": "新北市",
      "district": "蘆洲區",
      "lat": 25.078688,
      "lng": 121.4744009,
      "routes": [
        "F320"
      ],
      "routeCount": 1,
      "routeSource": "gtfs",
      "routeUpdatedAt": "2026-06-14T15:08:26.626Z",
      "routeConfidence": "high"
    },
    {
      "id": 8432400304,
      "name": "五年千歲",
      "type": "bus",
      "city": "新北市",
      "district": "蘆洲區",
      "lat": 25.0775,
      "lng": 121.47775,
      "routes": [
        "F320"
      ],
      "routeCount": 1,
      "routeSource": "gtfs",
      "routeUpdatedAt": "2026-06-14T15:08:26.626Z",
      "routeConfidence": "high"
    },
    {
      "id": 8432401056,
      "name": "仁愛街93巷口",
      "type": "bus",
      "city": "新北市",
      "district": "蘆洲區",
      "lat": 25.094026,
      "lng": 121.47105,
      "routes": [
        "F312"
      ],
      "routeCount": 1,
      "routeSource": "gtfs",
      "routeUpdatedAt": "2026-06-14T15:08:26.626Z",
      "routeConfidence": "high"
    },
    {
      "id": 8432401057,
      "name": "仁愛街101巷口",
      "type": "bus",
      "city": "新北市",
      "district": "蘆洲區",
      "lat": 25.094088,
      "lng": 121.4705726,
      "routes": [
        "F312"
      ],
      "routeCount": 1,
      "routeSource": "gtfs",
      "routeUpdatedAt": "2026-06-14T15:08:26.626Z",
      "routeConfidence": "high"
    },
    {
      "id": 8432401256,
      "name": "盧森堡社區",
      "type": "bus",
      "city": "新北市",
      "district": "蘆洲區",
      "lat": 25.08605,
      "lng": 121.4631667
    },
    {
      "id": 8432401257,
      "name": "蘆洲站",
      "type": "bus",
      "city": "新北市",
      "district": "蘆洲區",
      "lat": 25.088445,
      "lng": 121.464588
    }
  ]
}
