{
  "city": "屏東縣",
  "category": "family",
  "updatedAt": "2026-06-16T12:55:03.699519Z",
  "items": [
    {
      "id": "tdx:C1_376530000A_000082",
      "name": "陽光綠堤休閒農場",
      "facilityType": "farm",
      "facilityLabel": "🌾 農場",
      "lat": 22.710649,
      "lng": 120.624199,
      "source": "tdx",
      "sourceId": "C1_376530000A_000082",
      "sourceCategory": "休閒農業類",
      "reviewed": true,
      "updatedAt": "2026-06-16T08:46:47.655475Z",
      "address": "屏東縣912內埔鄉三和路305巷16號之一"
    },
    {
      "id": "coa:494",
      "name": "萬屋休閒農場",
      "facilityType": "farm",
      "facilityLabel": "🌾 農場",
      "lat": 22.612341,
      "lng": 120.554321,
      "source": "coa",
      "sourceId": "494",
      "sourceCategory": "許可登記休閒農場",
      "reviewed": true,
      "updatedAt": "2026-06-16T12:08:38.871900Z",
      "address": "屏東縣內埔鄉大發路265號",
      "phone": "0980-676526"
    },
    {
      "id": "coa:484",
      "name": "福爾摩莎可可休閒農場",
      "facilityType": "farm",
      "facilityLabel": "🌾 農場",
      "lat": 22.623412,
      "lng": 120.587654,
      "source": "coa",
      "reviewed": true,
      "updatedAt": "2026-06-16T12:08:38.871900Z",
      "address": "屏東縣內埔鄉東勢村大同路三段榮和巷80號",
      "sourceId": "484",
      "sourceCategory": "許可登記休閒農場"
    },
    {
      "id": "manual:可茵山可可莊園休閒農場",
      "name": "可茵山可可莊園休閒農場",
      "facilityType": "farm",
      "facilityLabel": "🌾 農場",
      "lat": 22.614532,
      "lng": 120.554321,
      "source": "manual",
      "reviewed": true,
      "updatedAt": "2026-06-16T12:08:38.871900Z",
      "address": "屏東縣內埔鄉仁和路一段100號"
    },
    {
      "id": "coa:462",
      "name": "茶花湘休閒農場",
      "facilityType": "farm",
      "facilityLabel": "🌾 農場",
      "lat": 22.646539,
      "lng": 120.528414,
      "source": "coa",
      "sourceId": "462",
      "sourceCategory": "許可登記休閒農場",
      "reviewed": true,
      "updatedAt": "2026-06-16T12:53:15.116318Z",
      "address": "屏東縣內埔鄉富田村里和路103號"
    },
    {
      "id": "coa:545",
      "name": "芝林莊園休閒農場",
      "facilityType": "farm",
      "facilityLabel": "🌾 農場",
      "lat": 22.646539,
      "lng": 120.574512,
      "source": "coa",
      "sourceId": "545",
      "sourceCategory": "許可登記休閒農場",
      "reviewed": true,
      "updatedAt": "2026-06-16T12:53:15.116318Z",
      "address": "屏東縣內埔鄉建興路218巷2號",
      "phone": "08-7703757"
    }
  ]
}