{
  "city": "屏東縣",
  "category": "family",
  "updatedAt": "2026-06-16T13:02:17.396491Z",
  "items": [
    {
      "id": "tdx:C1_376530000A_000192",
      "name": "根源自然生態休閒農場",
      "facilityType": "farm",
      "facilityLabel": "🌾 農場",
      "lat": 22.0515,
      "lng": 120.724167,
      "source": "tdx",
      "sourceId": "C1_376530000A_000192",
      "sourceCategory": "休閒農業類",
      "reviewed": true,
      "updatedAt": "2026-06-16T08:46:47.655475Z",
      "address": "屏東縣946恆春鎮省北路2段568號"
    },
    {
      "id": "tdx:C1_376530000A_000196",
      "name": "阿嘉的家",
      "facilityType": "factory",
      "facilityLabel": "🏭 觀光工廠",
      "lat": 22.002333,
      "lng": 120.743286,
      "source": "tdx",
      "sourceId": "C1_376530000A_000196",
      "sourceCategory": "觀光工廠類",
      "reviewed": true,
      "updatedAt": "2026-06-16T08:46:47.655475Z",
      "address": "屏東縣946恆春鎮光明路90號"
    },
    {
      "id": "tdx:C1_376530000A_000198",
      "name": "恆春生態休閒農場",
      "facilityType": "farm",
      "facilityLabel": "🌾 農場",
      "lat": 21.992767,
      "lng": 120.759819,
      "source": "tdx",
      "sourceId": "C1_376530000A_000198",
      "sourceCategory": "休閒農業類",
      "reviewed": true,
      "updatedAt": "2026-06-16T08:46:47.655475Z",
      "address": "屏東縣946恆春鎮山腳路28-5號"
    },
    {
      "id": "tdx:C1_376530000A_000272",
      "name": "恆春搶孤",
      "facilityType": "factory",
      "facilityLabel": "🏭 觀光工廠",
      "lat": 22.004332,
      "lng": 120.749023,
      "source": "tdx",
      "sourceId": "C1_376530000A_000272",
      "sourceCategory": "觀光工廠類",
      "reviewed": true,
      "updatedAt": "2026-06-16T08:46:47.655475Z",
      "address": "屏東縣恆春鎮東門路"
    },
    {
      "id": "coa:577",
      "name": "沐麓休閒農場",
      "facilityType": "farm",
      "facilityLabel": "🌾 農場",
      "lat": 21.923412,
      "lng": 120.732145,
      "source": "coa",
      "sourceId": "577",
      "sourceCategory": "許可登記休閒農場",
      "reviewed": true,
      "updatedAt": "2026-06-16T12:08:38.871900Z",
      "address": "屏東縣恆春鎮大光里9鄰貓鼻頭路101號"
    },
    {
      "id": "coa:488",
      "name": "墾丁親子休閒農場",
      "facilityType": "farm",
      "facilityLabel": "🌾 農場",
      "lat": 21.991234,
      "lng": 120.743214,
      "source": "coa",
      "sourceId": "488",
      "sourceCategory": "許可登記休閒農場",
      "reviewed": true,
      "updatedAt": "2026-06-16T12:08:38.871900Z",
      "address": "屏東縣恆春鎮槺林南路135巷128號",
      "phone": "0983-768853"
    },
    {
      "id": "manual:鹿境梅花鹿生態園區",
      "name": "鹿境梅花鹿生態園區",
      "facilityType": "farm",
      "facilityLabel": "🌾 農場",
      "lat": 22.012354,
      "lng": 120.744123,
      "source": "manual",
      "reviewed": true,
      "updatedAt": "2026-06-16T12:08:38.871900Z",
      "address": "屏東縣恆春鎮恆公路1097-1號"
    },
    {
      "id": "manual:墾丁石牛溪農場",
      "name": "墾丁石牛溪農場",
      "facilityType": "farm",
      "facilityLabel": "🌾 農場",
      "lat": 21.946351,
      "lng": 120.812354,
      "source": "manual",
      "reviewed": true,
      "updatedAt": "2026-06-16T12:08:38.871900Z",
      "address": "屏東縣恆春鎮墾丁路石牛巷1-1號"
    },
    {
      "id": "manual:墾丁鹿ㄦ島水豚生態園區",
      "name": "墾丁鹿ㄦ島水豚生態園區",
      "facilityType": "farm",
      "facilityLabel": "🌾 農場",
      "lat": 22.028124,
      "lng": 120.738124,
      "source": "manual",
      "reviewed": true,
      "updatedAt": "2026-06-16T12:08:38.871900Z",
      "address": "屏東縣恆春鎮省北路275之1號"
    },
    {
      "id": "coa:347",
      "name": "阿信巧克力休閒農場",
      "facilityType": "farm",
      "facilityLabel": "🌾 農場",
      "lat": 22.001234,
      "lng": 120.712354,
      "source": "coa",
      "sourceId": "347",
      "sourceCategory": "許可登記休閒農場",
      "reviewed": true,
      "updatedAt": "2026-06-16T12:53:15.116318Z",
      "address": "屏東縣恆春鎮山海里萬里路27之8號",
      "phone": "08-886-9696"
    },
    {
      "id": "coa:524",
      "name": "鹿境休閒農場",
      "facilityType": "farm",
      "facilityLabel": "🌾 農場",
      "lat": 22.912599,
      "lng": 120.747222,
      "source": "coa",
      "sourceId": "524",
      "sourceCategory": "許可登記休閒農場",
      "reviewed": true,
      "updatedAt": "2026-06-16T12:53:15.116318Z",
      "address": "屏東縣恆春鎮恆公路1097-1號",
      "phone": "08-8881940"
    },
    {
      "id": "coa:543",
      "name": "趣漫步休閒農場",
      "facilityType": "farm",
      "facilityLabel": "🌾 農場",
      "lat": 21.974411,
      "lng": 120.724167,
      "source": "coa",
      "sourceId": "543",
      "sourceCategory": "許可登記休閒農場",
      "reviewed": true,
      "updatedAt": "2026-06-16T13:02:17.396491Z",
      "address": "屏東縣恆春鎮水泉里12鄰樹林路1之10號",
      "phone": "08-8866558"
    }
  ]
}