{
  "city": "屏東縣",
  "category": "family",
  "updatedAt": "2026-06-12T22:30:10.544Z",
  "items": [
    {
      "id": 945727711,
      "name": "凌霄亭",
      "facilityType": "tourist_attraction",
      "facilityLabel": "🧭 旅遊景點",
      "lat": 21.9533176,
      "lng": 120.8233433,
      "source": "OpenStreetMap",
      "updatedAt": "2026-06-12T22:30:10.485Z"
    },
    {
      "id": 945771280,
      "name": "北門",
      "facilityType": "tourist_attraction",
      "facilityLabel": "🧭 旅遊景點",
      "lat": 22.0080127,
      "lng": 120.7479631,
      "source": "OpenStreetMap",
      "updatedAt": "2026-06-12T22:30:10.488Z"
    },
    {
      "id": 1741566804,
      "name": "墾丁大街",
      "facilityType": "tourist_attraction",
      "facilityLabel": "🧭 旅遊景點",
      "lat": 21.9450865,
      "lng": 120.7989736,
      "source": "OpenStreetMap",
      "updatedAt": "2026-06-12T22:30:10.490Z"
    },
    {
      "id": 1741568521,
      "name": "出火",
      "facilityType": "tourist_attraction",
      "facilityLabel": "🧭 旅遊景點",
      "lat": 22.0082758,
      "lng": 120.757652,
      "source": "OpenStreetMap",
      "updatedAt": "2026-06-12T22:30:10.492Z"
    },
    {
      "id": 2922220245,
      "name": "香蕉灣",
      "facilityType": "tourist_attraction",
      "facilityLabel": "🧭 旅遊景點",
      "lat": 21.9252585,
      "lng": 120.8316323,
      "source": "OpenStreetMap",
      "updatedAt": "2026-06-12T22:30:10.493Z"
    },
    {
      "id": 3052023164,
      "name": "巨石",
      "facilityType": "tourist_attraction",
      "facilityLabel": "🧭 旅遊景點",
      "lat": 21.9996653,
      "lng": 120.7023265,
      "source": "OpenStreetMap",
      "updatedAt": "2026-06-12T22:30:10.494Z"
    },
    {
      "id": 3516767689,
      "name": "阿嘉的家 (海角七號場景)",
      "facilityType": "tourist_attraction",
      "facilityLabel": "🧭 旅遊景點",
      "lat": 22.0024403,
      "lng": 120.7432494,
      "source": "OpenStreetMap",
      "updatedAt": "2026-06-12T22:30:10.496Z",
      "address": "946屏東縣恆春鎮光明路90號"
    },
    {
      "id": 3566339263,
      "name": "涵碧亭",
      "facilityType": "tourist_attraction",
      "facilityLabel": "🧭 旅遊景點",
      "lat": 21.9529872,
      "lng": 120.8256006,
      "source": "OpenStreetMap",
      "updatedAt": "2026-06-12T22:30:10.497Z"
    },
    {
      "id": 3948073576,
      "name": "茄苳巨木",
      "facilityType": "tourist_attraction",
      "facilityLabel": "🧭 旅遊景點",
      "lat": 21.9617577,
      "lng": 120.8120385,
      "source": "OpenStreetMap",
      "updatedAt": "2026-06-12T22:30:10.497Z"
    },
    {
      "id": 3948073620,
      "name": "望海台",
      "facilityType": "tourist_attraction",
      "facilityLabel": "🧭 旅遊景點",
      "lat": 21.9666537,
      "lng": 120.8136133,
      "source": "OpenStreetMap",
      "updatedAt": "2026-06-12T22:30:10.498Z"
    },
    {
      "id": 3948073625,
      "name": "棲猿崖",
      "facilityType": "tourist_attraction",
      "facilityLabel": "🧭 旅遊景點",
      "lat": 21.9701578,
      "lng": 120.8162889,
      "source": "OpenStreetMap",
      "updatedAt": "2026-06-12T22:30:10.499Z"
    },
    {
      "id": 3948073647,
      "name": "垂榕谷",
      "facilityType": "tourist_attraction",
      "facilityLabel": "🧭 旅遊景點",
      "lat": 21.9695223,
      "lng": 120.8166989,
      "source": "OpenStreetMap",
      "updatedAt": "2026-06-12T22:30:10.500Z"
    },
    {
      "id": 4132374589,
      "name": "哈利波特",
      "facilityType": "tourist_attraction",
      "facilityLabel": "🧭 旅遊景點",
      "lat": 21.9751143,
      "lng": 120.7542029,
      "source": "OpenStreetMap",
      "updatedAt": "2026-06-12T22:30:10.500Z"
    },
    {
      "id": 4199652389,
      "name": "水到魚行浮潛館",
      "facilityType": "tourist_attraction",
      "facilityLabel": "🧭 旅遊景點",
      "lat": 21.9963892,
      "lng": 120.7047891,
      "source": "OpenStreetMap",
      "updatedAt": "2026-06-12T22:30:10.501Z"
    },
    {
      "id": 4220585393,
      "name": "星砂灣",
      "facilityType": "tourist_attraction",
      "facilityLabel": "🧭 旅遊景點",
      "lat": 21.942463,
      "lng": 120.7452354,
      "source": "OpenStreetMap",
      "updatedAt": "2026-06-12T22:30:10.502Z"
    },
    {
      "id": 4252465641,
      "name": "赤崁",
      "facilityType": "tourist_attraction",
      "facilityLabel": "🧭 旅遊景點",
      "lat": 21.980556,
      "lng": 120.733889,
      "source": "OpenStreetMap",
      "updatedAt": "2026-06-12T22:30:10.503Z"
    },
    {
      "id": 4357667347,
      "name": "鵝鑾鼻公園",
      "facilityType": "visitor_center",
      "facilityLabel": "🛎 旅客中心",
      "lat": 21.9042047,
      "lng": 120.850872,
      "source": "OpenStreetMap",
      "updatedAt": "2026-06-12T22:30:10.504Z"
    },
    {
      "id": 4357712873,
      "name": "砂島",
      "facilityType": "visitor_center",
      "facilityLabel": "🛎 旅客中心",
      "lat": 21.9129101,
      "lng": 120.8476366,
      "source": "OpenStreetMap",
      "updatedAt": "2026-06-12T22:30:10.505Z"
    },
    {
      "id": 4357712874,
      "name": "砂島 展示館周邊植物相",
      "facilityType": "visitor_center",
      "facilityLabel": "🛎 旅客中心",
      "lat": 21.9129674,
      "lng": 120.8475964,
      "source": "OpenStreetMap",
      "updatedAt": "2026-06-12T22:30:10.505Z"
    },
    {
      "id": 4357712875,
      "name": "砂島 遠眺",
      "facilityType": "visitor_center",
      "facilityLabel": "🛎 旅客中心",
      "lat": 21.9131689,
      "lng": 120.8475655,
      "source": "OpenStreetMap",
      "updatedAt": "2026-06-12T22:30:10.506Z"
    },
    {
      "id": 4369488597,
      "name": "入口",
      "facilityType": "visitor_center",
      "facilityLabel": "🛎 旅客中心",
      "lat": 21.9222518,
      "lng": 120.7379315,
      "source": "OpenStreetMap",
      "updatedAt": "2026-06-12T22:30:10.507Z"
    },
    {
      "id": 4369488598,
      "name": "出口",
      "facilityType": "visitor_center",
      "facilityLabel": "🛎 旅客中心",
      "lat": 21.9222885,
      "lng": 120.7380951,
      "source": "OpenStreetMap",
      "updatedAt": "2026-06-12T22:30:10.507Z"
    },
    {
      "id": 4369488599,
      "name": "出口",
      "facilityType": "visitor_center",
      "facilityLabel": "🛎 旅客中心",
      "lat": 21.9223611,
      "lng": 120.7380661,
      "source": "OpenStreetMap",
      "updatedAt": "2026-06-12T22:30:10.508Z"
    },
    {
      "id": 4369542544,
      "name": "猫鼻頭",
      "facilityType": "visitor_center",
      "facilityLabel": "🛎 旅客中心",
      "lat": 21.9222452,
      "lng": 120.7383188,
      "source": "OpenStreetMap",
      "updatedAt": "2026-06-12T22:30:10.509Z"
    },
    {
      "id": 4369709793,
      "name": "地景遠眺",
      "facilityType": "visitor_center",
      "facilityLabel": "🛎 旅客中心",
      "lat": 21.9220307,
      "lng": 120.7390265,
      "source": "OpenStreetMap",
      "updatedAt": "2026-06-12T22:30:10.509Z"
    },
    {
      "id": 4369709794,
      "name": "多様的海岸地景",
      "facilityType": "visitor_center",
      "facilityLabel": "🛎 旅客中心",
      "lat": 21.9215994,
      "lng": 120.7386275,
      "source": "OpenStreetMap",
      "updatedAt": "2026-06-12T22:30:10.510Z"
    },
    {
      "id": 4369709795,
      "name": "岬角遠眺",
      "facilityType": "visitor_center",
      "facilityLabel": "🛎 旅客中心",
      "lat": 21.9220169,
      "lng": 120.7390533,
      "source": "OpenStreetMap",
      "updatedAt": "2026-06-12T22:30:10.510Z"
    },
    {
      "id": 4369709796,
      "name": "猫岩",
      "facilityType": "visitor_center",
      "facilityLabel": "🛎 旅客中心",
      "lat": 21.9219767,
      "lng": 120.7390246,
      "source": "OpenStreetMap",
      "updatedAt": "2026-06-12T22:30:10.511Z"
    },
    {
      "id": 4369709797,
      "name": "黒潮暖流",
      "facilityType": "visitor_center",
      "facilityLabel": "🛎 旅客中心",
      "lat": 21.9219771,
      "lng": 120.7390577,
      "source": "OpenStreetMap",
      "updatedAt": "2026-06-12T22:30:10.511Z"
    },
    {
      "id": 4369771069,
      "name": "猫鼻頭公園遊客中心",
      "facilityType": "visitor_center",
      "facilityLabel": "🛎 旅客中心",
      "lat": 21.9222534,
      "lng": 120.7380345,
      "source": "OpenStreetMap",
      "updatedAt": "2026-06-12T22:30:10.512Z"
    },
    {
      "id": 4903195521,
      "name": "船帆石",
      "facilityType": "tourist_attraction",
      "facilityLabel": "🧭 旅遊景點",
      "lat": 21.9311981,
      "lng": 120.8237555,
      "source": "OpenStreetMap",
      "updatedAt": "2026-06-12T22:30:10.512Z"
    },
    {
      "id": 4906595186,
      "name": "車輛請勿進入",
      "facilityType": "visitor_center",
      "facilityLabel": "🛎 旅客中心",
      "lat": 21.9030721,
      "lng": 120.8536297,
      "source": "OpenStreetMap",
      "updatedAt": "2026-06-12T22:30:10.513Z"
    },
    {
      "id": 5123592881,
      "name": "一線天",
      "facilityType": "tourist_attraction",
      "facilityLabel": "🧭 旅遊景點",
      "lat": 21.9708298,
      "lng": 120.8177014,
      "source": "OpenStreetMap",
      "updatedAt": "2026-06-12T22:30:10.514Z"
    },
    {
      "id": 5354288012,
      "name": "旅宿中心",
      "facilityType": "visitor_center",
      "facilityLabel": "🛎 旅客中心",
      "lat": 21.9405815,
      "lng": 120.7993927,
      "source": "OpenStreetMap",
      "updatedAt": "2026-06-12T22:30:10.514Z"
    },
    {
      "id": 5369665636,
      "name": "銀葉板根",
      "facilityType": "tourist_attraction",
      "facilityLabel": "🧭 旅遊景點",
      "lat": 21.9660108,
      "lng": 120.8111394,
      "source": "OpenStreetMap",
      "updatedAt": "2026-06-12T22:30:10.515Z"
    },
    {
      "id": 5474615521,
      "name": "後壁湖海洋資源保護示範區",
      "facilityType": "tourist_attraction",
      "facilityLabel": "🧭 旅遊景點",
      "lat": 21.9388925,
      "lng": 120.7448105,
      "source": "OpenStreetMap",
      "updatedAt": "2026-06-12T22:30:10.515Z"
    },
    {
      "id": 6067648552,
      "name": "林業及自然保育署",
      "facilityType": "visitor_center",
      "facilityLabel": "🛎 旅客中心",
      "lat": 21.969396,
      "lng": 120.8165949,
      "source": "OpenStreetMap",
      "updatedAt": "2026-06-12T22:30:10.516Z"
    },
    {
      "id": 6067648553,
      "name": "林業及自然保育署",
      "facilityType": "visitor_center",
      "facilityLabel": "🛎 旅客中心",
      "lat": 21.9663968,
      "lng": 120.8159984,
      "source": "OpenStreetMap",
      "updatedAt": "2026-06-12T22:30:10.517Z"
    },
    {
      "id": 6067648554,
      "name": "林業及自然保育署",
      "facilityType": "visitor_center",
      "facilityLabel": "🛎 旅客中心",
      "lat": 21.9676923,
      "lng": 120.8114942,
      "source": "OpenStreetMap",
      "updatedAt": "2026-06-12T22:30:10.517Z"
    },
    {
      "id": 6067648555,
      "name": "林業及自然保育署",
      "facilityType": "visitor_center",
      "facilityLabel": "🛎 旅客中心",
      "lat": 21.9665928,
      "lng": 120.8135968,
      "source": "OpenStreetMap",
      "updatedAt": "2026-06-12T22:30:10.518Z"
    },
    {
      "id": 6067648556,
      "name": "林業及自然保育署",
      "facilityType": "visitor_center",
      "facilityLabel": "🛎 旅客中心",
      "lat": 21.9664927,
      "lng": 120.8128998,
      "source": "OpenStreetMap",
      "updatedAt": "2026-06-12T22:30:10.518Z"
    },
    {
      "id": 6067648557,
      "name": "林業及自然保育署",
      "facilityType": "visitor_center",
      "facilityLabel": "🛎 旅客中心",
      "lat": 21.9659939,
      "lng": 120.8111963,
      "source": "OpenStreetMap",
      "updatedAt": "2026-06-12T22:30:10.519Z"
    },
    {
      "id": 6067648558,
      "name": "林業及自然保育署",
      "facilityType": "visitor_center",
      "facilityLabel": "🛎 旅客中心",
      "lat": 21.9653988,
      "lng": 120.811991,
      "source": "OpenStreetMap",
      "updatedAt": "2026-06-12T22:30:10.519Z"
    },
    {
      "id": 6067648559,
      "name": "林業及自然保育署",
      "facilityType": "visitor_center",
      "facilityLabel": "🛎 旅客中心",
      "lat": 21.9647947,
      "lng": 120.8128923,
      "source": "OpenStreetMap",
      "updatedAt": "2026-06-12T22:30:10.520Z"
    },
    {
      "id": 6067648560,
      "name": "林業及自然保育署",
      "facilityType": "visitor_center",
      "facilityLabel": "🛎 旅客中心",
      "lat": 21.9629948,
      "lng": 120.8106967,
      "source": "OpenStreetMap",
      "updatedAt": "2026-06-12T22:30:10.520Z"
    },
    {
      "id": 6067648561,
      "name": "林業及自然保育署",
      "facilityType": "visitor_center",
      "facilityLabel": "🛎 旅客中心",
      "lat": 21.961795,
      "lng": 120.8119958,
      "source": "OpenStreetMap",
      "updatedAt": "2026-06-12T22:30:10.521Z"
    },
    {
      "id": 6169720085,
      "name": "坦克",
      "facilityType": "tourist_attraction",
      "facilityLabel": "🧭 旅遊景點",
      "lat": 22.0142975,
      "lng": 120.7437945,
      "source": "OpenStreetMap",
      "updatedAt": "2026-06-12T22:30:10.521Z"
    },
    {
      "id": 6615527273,
      "name": "林業及自然保育署",
      "facilityType": "visitor_center",
      "facilityLabel": "🛎 旅客中心",
      "lat": 21.9663962,
      "lng": 120.8154949,
      "source": "OpenStreetMap",
      "updatedAt": "2026-06-12T22:30:10.522Z"
    },
    {
      "id": 6615527295,
      "name": "林業及自然保育署",
      "facilityType": "visitor_center",
      "facilityLabel": "🛎 旅客中心",
      "lat": 21.9677954,
      "lng": 120.8147959,
      "source": "OpenStreetMap",
      "updatedAt": "2026-06-12T22:30:10.522Z"
    },
    {
      "id": 6968893380,
      "name": "磯釣岩平台(退潮)",
      "facilityType": "visitor_center",
      "facilityLabel": "🛎 旅客中心",
      "lat": 21.9373943,
      "lng": 120.8009822,
      "source": "OpenStreetMap",
      "updatedAt": "2026-06-12T22:30:10.523Z"
    },
    {
      "id": 6968893381,
      "name": "火成岩景觀區",
      "facilityType": "visitor_center",
      "facilityLabel": "🛎 旅客中心",
      "lat": 21.9377669,
      "lng": 120.800221,
      "source": "OpenStreetMap",
      "updatedAt": "2026-06-12T22:30:10.523Z"
    },
    {
      "id": 6968893382,
      "name": "門票收費停(保全)",
      "facilityType": "visitor_center",
      "facilityLabel": "🛎 旅客中心",
      "lat": 21.942449,
      "lng": 120.8024768,
      "source": "OpenStreetMap",
      "updatedAt": "2026-06-12T22:30:10.524Z"
    },
    {
      "id": 10301927209,
      "name": "小峽谷",
      "facilityType": "tourist_attraction",
      "facilityLabel": "🧭 旅遊景點",
      "lat": 21.9561193,
      "lng": 120.8231606,
      "source": "OpenStreetMap",
      "updatedAt": "2026-06-12T22:30:10.524Z"
    },
    {
      "id": 10301931609,
      "name": "迎風門",
      "facilityType": "tourist_attraction",
      "facilityLabel": "🧭 旅遊景點",
      "lat": 21.9563262,
      "lng": 120.8242098,
      "source": "OpenStreetMap",
      "updatedAt": "2026-06-12T22:30:10.525Z"
    },
    {
      "id": 10301935109,
      "name": "大草原",
      "facilityType": "tourist_attraction",
      "facilityLabel": "🧭 旅遊景點",
      "lat": 21.9558718,
      "lng": 120.8253315,
      "source": "OpenStreetMap",
      "updatedAt": "2026-06-12T22:30:10.525Z"
    },
    {
      "id": 10308229109,
      "name": "珊瑚礁步道",
      "facilityType": "tourist_attraction",
      "facilityLabel": "🧭 旅遊景點",
      "lat": 21.9665638,
      "lng": 120.8162612,
      "source": "OpenStreetMap",
      "updatedAt": "2026-06-12T22:30:10.526Z"
    },
    {
      "id": 10308229110,
      "name": "仙洞步道",
      "facilityType": "tourist_attraction",
      "facilityLabel": "🧭 旅遊景點",
      "lat": 21.9667027,
      "lng": 120.8143744,
      "source": "OpenStreetMap",
      "updatedAt": "2026-06-12T22:30:10.526Z"
    },
    {
      "id": 10308229111,
      "name": "森林浴步道",
      "facilityType": "tourist_attraction",
      "facilityLabel": "🧭 旅遊景點",
      "lat": 21.959452,
      "lng": 120.8118354,
      "source": "OpenStreetMap",
      "updatedAt": "2026-06-12T22:30:10.527Z"
    },
    {
      "id": 10308229309,
      "name": "花榭小徑",
      "facilityType": "tourist_attraction",
      "facilityLabel": "🧭 旅遊景點",
      "lat": 21.9643978,
      "lng": 120.813668,
      "source": "OpenStreetMap",
      "updatedAt": "2026-06-12T22:30:10.527Z"
    },
    {
      "id": 10308229310,
      "name": "福榕步道",
      "facilityType": "tourist_attraction",
      "facilityLabel": "🧭 旅遊景點",
      "lat": 21.9587223,
      "lng": 120.8116811,
      "source": "OpenStreetMap",
      "updatedAt": "2026-06-12T22:30:10.528Z"
    },
    {
      "id": 10308229509,
      "name": "蕨類及地被植物區",
      "facilityType": "tourist_attraction",
      "facilityLabel": "🧭 旅遊景點",
      "lat": 21.9608045,
      "lng": 120.8112793,
      "source": "OpenStreetMap",
      "updatedAt": "2026-06-12T22:30:10.528Z"
    },
    {
      "id": 10308823410,
      "name": "天南星科植物區",
      "facilityType": "tourist_attraction",
      "facilityLabel": "🧭 旅遊景點",
      "lat": 21.9617831,
      "lng": 120.8114681,
      "source": "OpenStreetMap",
      "updatedAt": "2026-06-12T22:30:10.529Z"
    },
    {
      "id": 10767840628,
      "name": "屏東",
      "facilityType": "visitor_center",
      "facilityLabel": "🛎 旅客中心",
      "lat": 21.9641,
      "lng": 120.8127,
      "source": "OpenStreetMap",
      "updatedAt": "2026-06-12T22:30:10.529Z"
    },
    {
      "id": 10777433805,
      "name": "已無路跡",
      "facilityType": "visitor_center",
      "facilityLabel": "🛎 旅客中心",
      "lat": 21.9650646,
      "lng": 120.7820165,
      "source": "OpenStreetMap",
      "updatedAt": "2026-06-12T22:30:10.530Z"
    },
    {
      "id": 11974552869,
      "name": "圖根點 BPC008",
      "facilityType": "tourist_attraction",
      "facilityLabel": "🧭 旅遊景點",
      "lat": 21.921428,
      "lng": 120.7383768,
      "source": "OpenStreetMap",
      "updatedAt": "2026-06-12T22:30:10.530Z"
    },
    {
      "id": 12672344181,
      "name": "北門",
      "facilityType": "tourist_attraction",
      "facilityLabel": "🧭 旅遊景點",
      "lat": 22.0080936,
      "lng": 120.7479886,
      "source": "OpenStreetMap",
      "updatedAt": "2026-06-12T22:30:10.531Z"
    },
    {
      "id": 13763598818,
      "name": "親吻石",
      "facilityType": "tourist_attraction",
      "facilityLabel": "🧭 旅遊景點",
      "lat": 21.9025713,
      "lng": 120.8485955,
      "source": "OpenStreetMap",
      "updatedAt": "2026-06-12T22:30:10.531Z"
    },
    {
      "id": 13763598844,
      "name": "領海基點 七星岩",
      "facilityType": "visitor_center",
      "facilityLabel": "🛎 旅客中心",
      "lat": 21.9019594,
      "lng": 120.8517189,
      "source": "OpenStreetMap",
      "updatedAt": "2026-06-12T22:30:10.532Z"
    },
    {
      "id": 13789330003,
      "name": "恆春出火地質公園",
      "facilityType": "tourist_attraction",
      "facilityLabel": "🧭 旅遊景點",
      "lat": 22.00711,
      "lng": 120.75674,
      "source": "OpenStreetMap",
      "updatedAt": "2026-06-12T22:30:10.532Z"
    },
    {
      "id": 81152472,
      "name": "第一峽",
      "facilityType": "tourist_attraction",
      "facilityLabel": "🧭 旅遊景點",
      "lat": 21.970987,
      "lng": 120.8185007,
      "source": "OpenStreetMap",
      "updatedAt": "2026-06-12T22:30:10.533Z"
    },
    {
      "id": 81153354,
      "name": "燈塔路",
      "facilityType": "tourist_attraction",
      "facilityLabel": "🧭 旅遊景點",
      "lat": 21.9039298,
      "lng": 120.8519819,
      "source": "OpenStreetMap",
      "updatedAt": "2026-06-12T22:30:10.533Z"
    },
    {
      "id": 226945939,
      "name": "赤崁路",
      "facilityType": "tourist_attraction",
      "facilityLabel": "🧭 旅遊景點",
      "lat": 21.981856,
      "lng": 120.7325233,
      "source": "OpenStreetMap",
      "updatedAt": "2026-06-12T22:30:10.533Z"
    },
    {
      "id": 232607865,
      "name": "台灣電力公司展示館",
      "facilityType": "science",
      "facilityLabel": "🔬 博物館",
      "lat": 21.9490658,
      "lng": 120.7449426,
      "source": "OpenStreetMap",
      "updatedAt": "2026-06-12T22:30:10.534Z"
    },
    {
      "id": 301490041,
      "name": "瓊麻工業歷史展示區",
      "facilityType": "science",
      "facilityLabel": "🔬 博物館",
      "lat": 21.9653998,
      "lng": 120.7420233,
      "source": "OpenStreetMap",
      "updatedAt": "2026-06-12T22:30:10.534Z",
      "address": "946屏東縣恒春鎮草潭路4號"
    },
    {
      "id": 306199310,
      "name": "燈塔路",
      "facilityType": "tourist_attraction",
      "facilityLabel": "🧭 旅遊景點",
      "lat": 21.9026006,
      "lng": 120.8535643,
      "source": "OpenStreetMap",
      "updatedAt": "2026-06-12T22:30:10.535Z"
    },
    {
      "id": 306199721,
      "name": "砂島貝殼砂展示館",
      "facilityType": "science",
      "facilityLabel": "🔬 博物館",
      "lat": 21.9131224,
      "lng": 120.8476324,
      "source": "OpenStreetMap",
      "updatedAt": "2026-06-12T22:30:10.536Z"
    },
    {
      "id": 310320724,
      "name": "鵝鑾鼻燈塔",
      "facilityType": "tourist_attraction",
      "facilityLabel": "🧭 旅遊景點",
      "lat": 21.9022361,
      "lng": 120.8526588,
      "source": "OpenStreetMap",
      "updatedAt": "2026-06-12T22:30:10.536Z"
    },
    {
      "id": 439271810,
      "name": "南門",
      "facilityType": "tourist_attraction",
      "facilityLabel": "🧭 旅遊景點",
      "lat": 22.0008638,
      "lng": 120.7448009,
      "source": "OpenStreetMap",
      "updatedAt": "2026-06-12T22:30:10.537Z"
    },
    {
      "id": 484640767,
      "name": "遊客中心",
      "facilityType": "visitor_center",
      "facilityLabel": "🛎 旅客中心",
      "lat": 21.9635239,
      "lng": 120.8130268,
      "source": "OpenStreetMap",
      "updatedAt": "2026-06-12T22:30:10.537Z"
    },
    {
      "id": 484651459,
      "name": "南灣遊憩區",
      "facilityType": "scenic_area",
      "facilityLabel": "🏞 風景區",
      "lat": 21.9598405,
      "lng": 120.7630045,
      "source": "OpenStreetMap",
      "updatedAt": "2026-06-12T22:30:10.538Z"
    },
    {
      "id": 554998097,
      "name": "平安叢林漆彈場",
      "facilityType": "tourist_attraction",
      "facilityLabel": "🧭 旅遊景點",
      "lat": 21.9472216,
      "lng": 120.7917853,
      "source": "OpenStreetMap",
      "updatedAt": "2026-06-12T22:30:10.538Z"
    },
    {
      "id": 618003175,
      "name": "墾丁國家公園管理處遊客中心",
      "facilityType": "visitor_center",
      "facilityLabel": "🛎 旅客中心",
      "lat": 21.9484155,
      "lng": 120.7802709,
      "source": "OpenStreetMap",
      "updatedAt": "2026-06-12T22:30:10.539Z"
    },
    {
      "id": 771499600,
      "name": "龍鑾潭自然中心",
      "facilityType": "science",
      "facilityLabel": "🔬 博物館",
      "lat": 21.9751424,
      "lng": 120.739937,
      "source": "OpenStreetMap",
      "updatedAt": "2026-06-12T22:30:10.539Z"
    },
    {
      "id": 1146860081,
      "name": "阿信巧克力農場",
      "facilityType": "farm",
      "facilityLabel": "🌾 農場",
      "lat": 21.998891,
      "lng": 120.7060312,
      "source": "OpenStreetMap",
      "updatedAt": "2026-06-12T22:30:10.540Z",
      "address": "屏東縣恆春鎮萬里路27-8號"
    },
    {
      "id": 1379210265,
      "name": "小灣遊客服務中心",
      "facilityType": "visitor_center",
      "facilityLabel": "🛎 旅客中心",
      "lat": 21.9429351,
      "lng": 120.8031575,
      "source": "OpenStreetMap",
      "updatedAt": "2026-06-12T22:30:10.540Z",
      "address": "屏東縣恆春鎮墾丁里8鄰墾丁路12號"
    },
    {
      "id": 1504017901,
      "name": "臺灣極南",
      "facilityType": "tourist_attraction",
      "facilityLabel": "🧭 旅遊景點",
      "lat": 21.8976268,
      "lng": 120.8579348,
      "source": "OpenStreetMap",
      "updatedAt": "2026-06-12T22:30:10.541Z"
    },
    {
      "id": 6999684,
      "name": "墾丁高位珊瑚礁自然保留區",
      "facilityType": "spot",
      "facilityLabel": "📍 親子景點",
      "lat": 21.9677939,
      "lng": 120.8213805,
      "source": "OpenStreetMap",
      "updatedAt": "2026-06-12T22:30:10.541Z"
    },
    {
      "id": 7012171,
      "name": "墾丁國家森林遊樂區",
      "facilityType": "spot",
      "facilityLabel": "📍 親子景點",
      "lat": 21.9637127,
      "lng": 120.8153315,
      "source": "OpenStreetMap",
      "updatedAt": "2026-06-12T22:30:10.542Z"
    },
    {
      "id": 7228698,
      "name": "史蹟保存區",
      "facilityType": "spot",
      "facilityLabel": "📍 親子景點",
      "lat": 21.9982807,
      "lng": 120.8703616,
      "source": "OpenStreetMap",
      "updatedAt": "2026-06-12T22:30:10.542Z"
    },
    {
      "id": 7228699,
      "name": "特別景觀區",
      "facilityType": "spot",
      "facilityLabel": "📍 親子景點",
      "lat": 21.9764112,
      "lng": 120.7817632,
      "source": "OpenStreetMap",
      "updatedAt": "2026-06-12T22:30:10.542Z"
    },
    {
      "id": 7228700,
      "name": "海域特別景觀區",
      "facilityType": "spot",
      "facilityLabel": "📍 親子景點",
      "lat": 21.9343071,
      "lng": 120.7788426,
      "source": "OpenStreetMap",
      "updatedAt": "2026-06-12T22:30:10.543Z"
    },
    {
      "id": 7228701,
      "name": "海域生態保護區",
      "facilityType": "spot",
      "facilityLabel": "📍 親子景點",
      "lat": 21.9518501,
      "lng": 120.7787946,
      "source": "OpenStreetMap",
      "updatedAt": "2026-06-12T22:30:10.543Z"
    },
    {
      "id": 7228702,
      "name": "生態保護區",
      "facilityType": "spot",
      "facilityLabel": "📍 親子景點",
      "lat": 22.0030037,
      "lng": 120.8528293,
      "source": "OpenStreetMap",
      "updatedAt": "2026-06-12T22:30:10.544Z"
    }
  ]
}
