{
  "city": "屏東縣",
  "category": "family",
  "updatedAt": "2026-06-12T22:29:26.890Z",
  "items": [
    {
      "id": 3133420752,
      "name": "大鵬灣國際賽車場",
      "facilityType": "tourist_attraction",
      "facilityLabel": "🧭 旅遊景點",
      "lat": 22.4552865,
      "lng": 120.4809834,
      "source": "OpenStreetMap",
      "updatedAt": "2026-06-12T22:29:26.876Z"
    },
    {
      "id": 3133420753,
      "name": "大鵬灣國家風景區",
      "facilityType": "scenic_area",
      "facilityLabel": "🏞 風景區",
      "lat": 22.4542646,
      "lng": 120.476363,
      "source": "OpenStreetMap",
      "updatedAt": "2026-06-12T22:29:26.878Z"
    },
    {
      "id": 4252467092,
      "name": "共和新村",
      "facilityType": "tourist_attraction",
      "facilityLabel": "🧭 旅遊景點",
      "lat": 22.4628087,
      "lng": 120.4529086,
      "source": "OpenStreetMap",
      "updatedAt": "2026-06-12T22:29:26.880Z"
    },
    {
      "id": 4741525333,
      "name": "燈塔",
      "facilityType": "tourist_attraction",
      "facilityLabel": "🧭 旅遊景點",
      "lat": 22.4636148,
      "lng": 120.4386261,
      "source": "OpenStreetMap",
      "updatedAt": "2026-06-12T22:29:26.882Z"
    },
    {
      "id": 6039703839,
      "name": "交通部觀光局大鵬灣國家風景區管理處",
      "facilityType": "scenic_area",
      "facilityLabel": "🏞 風景區",
      "lat": 22.4569977,
      "lng": 120.4788314,
      "source": "OpenStreetMap",
      "updatedAt": "2026-06-12T22:29:26.883Z"
    },
    {
      "id": 6052990809,
      "name": "蚵殼島",
      "facilityType": "tourist_attraction",
      "facilityLabel": "🧭 旅遊景點",
      "lat": 22.4428628,
      "lng": 120.4711439,
      "source": "OpenStreetMap",
      "updatedAt": "2026-06-12T22:29:26.885Z"
    },
    {
      "id": 8255156659,
      "name": "落日灣",
      "facilityType": "tourist_attraction",
      "facilityLabel": "🧭 旅遊景點",
      "lat": 22.4443383,
      "lng": 120.4856256,
      "source": "OpenStreetMap",
      "updatedAt": "2026-06-12T22:29:26.886Z"
    },
    {
      "id": 463593716,
      "name": "大鵬灣風景區管理處",
      "facilityType": "scenic_area",
      "facilityLabel": "🏞 風景區",
      "lat": 22.4562425,
      "lng": 120.479019,
      "source": "OpenStreetMap",
      "updatedAt": "2026-06-12T22:29:26.887Z"
    },
    {
      "id": 641918269,
      "name": "青洲遊客中心",
      "facilityType": "visitor_center",
      "facilityLabel": "🛎 旅客中心",
      "lat": 22.4467964,
      "lng": 120.4555784,
      "source": "OpenStreetMap",
      "updatedAt": "2026-06-12T22:29:26.888Z"
    },
    {
      "id": 1028536838,
      "name": "屏東縣王船文化館",
      "facilityType": "science",
      "facilityLabel": "🔬 博物館",
      "lat": 22.463793,
      "lng": 120.4600313,
      "source": "OpenStreetMap",
      "updatedAt": "2026-06-12T22:29:26.889Z",
      "address": "928屏東縣東港鎮船頭路9號"
    }
  ]
}
