{
  "city": "屏東縣",
  "category": "family",
  "updatedAt": "2026-06-16T12:55:03.699519Z",
  "items": [
    {
      "id": "tdx:C1_376530000A_000032",
      "name": "耕心植物農場",
      "facilityType": "farm",
      "facilityLabel": "🌾 農場",
      "lat": 22.584999,
      "lng": 120.599686,
      "source": "tdx",
      "sourceId": "C1_376530000A_000032",
      "sourceCategory": "休閒農業類",
      "reviewed": true,
      "updatedAt": "2026-06-16T08:46:47.655475Z",
      "address": "屏東縣923萬巒鄉五溝村大林路27-3號"
    },
    {
      "id": "tdx:C1_376530000A_000033",
      "name": "清波蘭園",
      "facilityType": "farm",
      "facilityLabel": "🌾 農場",
      "lat": 22.633051,
      "lng": 120.6259,
      "source": "tdx",
      "sourceId": "C1_376530000A_000033",
      "sourceCategory": "休閒農業類",
      "reviewed": true,
      "updatedAt": "2026-06-16T08:46:47.655475Z",
      "address": "屏東縣923萬巒鄉成德村新安路2號"
    },
    {
      "id": "tdx:C1_376530000A_000034",
      "name": "穎達生態休閒農場",
      "facilityType": "farm",
      "facilityLabel": "🌾 農場",
      "lat": 22.645283,
      "lng": 120.627419,
      "source": "tdx",
      "sourceId": "C1_376530000A_000034",
      "sourceCategory": "休閒農業類",
      "reviewed": true,
      "updatedAt": "2026-06-16T08:46:47.655475Z",
      "address": "屏東縣923萬巒鄉成德村新安路52號"
    },
    {
      "id": "tdx:C1_376530000A_000035",
      "name": "安巒山莊休閒農場",
      "facilityType": "farm",
      "facilityLabel": "🌾 農場",
      "lat": 22.567133,
      "lng": 120.563782,
      "source": "tdx",
      "sourceId": "C1_376530000A_000035",
      "sourceCategory": "休閒農業類",
      "reviewed": true,
      "updatedAt": "2026-06-16T08:46:47.655475Z",
      "address": "屏東縣923萬巒鄉鹿寮村永康路134號之1"
    },
    {
      "id": "tdx:C1_376530000A_000036",
      "name": "賞月咖啡休閒農場",
      "facilityType": "farm",
      "facilityLabel": "🌾 農場",
      "lat": 22.565599,
      "lng": 120.563271,
      "source": "tdx",
      "sourceId": "C1_376530000A_000036",
      "sourceCategory": "休閒農業類",
      "reviewed": true,
      "updatedAt": "2026-06-16T08:46:47.655475Z",
      "address": "屏東縣923萬巒鄉鹿寮村永康路134-9號"
    },
    {
      "id": "tdx:C1_376530000A_000040",
      "name": "王乾坤有機農園",
      "facilityType": "farm",
      "facilityLabel": "🌾 農場",
      "lat": 22.559401,
      "lng": 120.62735,
      "source": "tdx",
      "sourceId": "C1_376530000A_000040",
      "sourceCategory": "休閒農業類",
      "reviewed": true,
      "updatedAt": "2026-06-16T08:46:47.655475Z",
      "address": "屏東縣923萬巒鄉新厝村新平路73號"
    },
    {
      "id": "coa:331",
      "name": "白鶴咖啡休閒農場",
      "facilityType": "farm",
      "facilityLabel": "🌾 農場",
      "lat": 22.581234,
      "lng": 120.612341,
      "source": "coa",
      "sourceId": "331",
      "sourceCategory": "許可登記休閒農場",
      "reviewed": true,
      "updatedAt": "2026-06-16T12:08:38.871900Z",
      "address": "屏東縣萬巒鄉新置村新光路9號",
      "phone": "08-7851325"
    },
    {
      "id": "coa:566",
      "name": "和華園休閒農場",
      "facilityType": "farm",
      "facilityLabel": "🌾 農場",
      "lat": 22.593412,
      "lng": 120.598124,
      "source": "coa",
      "sourceId": "566",
      "sourceCategory": "許可登記休閒農場",
      "reviewed": true,
      "updatedAt": "2026-06-16T12:08:38.871900Z",
      "address": "屏東縣萬巒鄉五溝村12鄰東興路66之1號"
    },
    {
      "id": "coa:290",
      "name": "台灣金石咖啡休閒農場",
      "facilityType": "farm",
      "facilityLabel": "🌾 農場",
      "lat": 22.593411,
      "lng": 120.627192,
      "source": "coa",
      "sourceId": "290",
      "sourceCategory": "許可登記休閒農場",
      "reviewed": true,
      "updatedAt": "2026-06-16T12:53:15.116318Z",
      "address": "屏東縣萬巒鄉赤山村沿山路1段500號",
      "phone": "08-783-2558"
    },
    {
      "id": "coa:346",
      "name": "乾坤有機生態休閒農場",
      "facilityType": "farm",
      "facilityLabel": "🌾 農場",
      "lat": 22.584167,
      "lng": 120.6125,
      "source": "coa",
      "sourceId": "346",
      "sourceCategory": "許可登記休閒農場",
      "reviewed": true,
      "updatedAt": "2026-06-16T12:53:15.116318Z",
      "address": "屏東縣萬巒鄉新厝村新平路73號",
      "phone": "0937-692-657"
    }
  ]
}