{
  "city": "屏東縣",
  "category": "family",
  "updatedAt": "2026-06-12T22:49:49.461Z",
  "items": [
    {
      "id": 2474870261,
      "name": "歸鶩台 (第一景觀台)",
      "facilityType": "tourist_attraction",
      "facilityLabel": "🧭 旅遊景點",
      "lat": 22.0501953,
      "lng": 120.7013745,
      "source": "OpenStreetMap",
      "updatedAt": "2026-06-12T22:49:49.438Z"
    },
    {
      "id": 3117764713,
      "name": "海口沙漠",
      "facilityType": "tourist_attraction",
      "facilityLabel": "🧭 旅遊景點",
      "lat": 22.0873975,
      "lng": 120.7090424,
      "source": "OpenStreetMap",
      "updatedAt": "2026-06-12T22:49:49.442Z"
    },
    {
      "id": 9659803817,
      "name": "海生亭",
      "facilityType": "tourist_attraction",
      "facilityLabel": "🧭 旅遊景點",
      "lat": 22.0423179,
      "lng": 120.6982555,
      "source": "OpenStreetMap",
      "updatedAt": "2026-06-12T22:49:49.443Z"
    },
    {
      "id": 10181448106,
      "name": "龜山步道導覽圖",
      "facilityType": "visitor_center",
      "facilityLabel": "🛎 旅客中心",
      "lat": 22.049833,
      "lng": 120.7039132,
      "source": "OpenStreetMap",
      "updatedAt": "2026-06-12T22:49:49.445Z"
    },
    {
      "id": 10181484926,
      "name": "指示牌 (↑迎曦亭,坑道休息區↓)",
      "facilityType": "visitor_center",
      "facilityLabel": "🛎 旅客中心",
      "lat": 22.0504035,
      "lng": 120.7015067,
      "source": "OpenStreetMap",
      "updatedAt": "2026-06-12T22:49:49.447Z"
    },
    {
      "id": 10181484941,
      "name": "鎮海台 (第二景觀台)",
      "facilityType": "tourist_attraction",
      "facilityLabel": "🧭 旅遊景點",
      "lat": 22.0499641,
      "lng": 120.7013508,
      "source": "OpenStreetMap",
      "updatedAt": "2026-06-12T22:49:49.449Z"
    },
    {
      "id": 10181519396,
      "name": "指示牌 (↑觀海平台,←第二景觀台,迎曦亭↓)",
      "facilityType": "visitor_center",
      "facilityLabel": "🛎 旅客中心",
      "lat": 22.0517145,
      "lng": 120.7011113,
      "source": "OpenStreetMap",
      "updatedAt": "2026-06-12T22:49:49.450Z"
    },
    {
      "id": 10181519408,
      "name": "仁壽台 (觀海平台)",
      "facilityType": "tourist_attraction",
      "facilityLabel": "🧭 旅遊景點",
      "lat": 22.0518923,
      "lng": 120.701088,
      "source": "OpenStreetMap",
      "updatedAt": "2026-06-12T22:49:49.450Z"
    },
    {
      "id": 11672971535,
      "name": "石門古戰場導覽圖",
      "facilityType": "visitor_center",
      "facilityLabel": "🛎 旅客中心",
      "lat": 22.1091091,
      "lng": 120.7610836,
      "source": "OpenStreetMap",
      "updatedAt": "2026-06-12T22:49:49.451Z"
    },
    {
      "id": 11673076980,
      "name": "手水舍",
      "facilityType": "visitor_center",
      "facilityLabel": "🛎 旅客中心",
      "lat": 22.0945274,
      "lng": 120.7471817,
      "source": "OpenStreetMap",
      "updatedAt": "2026-06-12T22:49:49.452Z"
    },
    {
      "id": 11729973980,
      "name": "四重溪溫泉風景區",
      "facilityType": "visitor_center",
      "facilityLabel": "🛎 旅客中心",
      "lat": 22.0944672,
      "lng": 120.7478823,
      "source": "OpenStreetMap",
      "updatedAt": "2026-06-12T22:49:49.452Z"
    },
    {
      "id": 11730081316,
      "name": "四重溪溫泉公園全區導覽圖",
      "facilityType": "visitor_center",
      "facilityLabel": "🛎 旅客中心",
      "lat": 22.0942638,
      "lng": 120.7455249,
      "source": "OpenStreetMap",
      "updatedAt": "2026-06-12T22:49:49.453Z"
    },
    {
      "id": 11730081364,
      "name": "場域圖",
      "facilityType": "visitor_center",
      "facilityLabel": "🛎 旅客中心",
      "lat": 22.0945105,
      "lng": 120.7471062,
      "source": "OpenStreetMap",
      "updatedAt": "2026-06-12T22:49:49.454Z"
    },
    {
      "id": 11730096082,
      "name": "神社浴佛祈福",
      "facilityType": "visitor_center",
      "facilityLabel": "🛎 旅客中心",
      "lat": 22.0951172,
      "lng": 120.7471171,
      "source": "OpenStreetMap",
      "updatedAt": "2026-06-12T22:49:49.454Z"
    },
    {
      "id": 13463399602,
      "name": "時光溫泉步道",
      "facilityType": "visitor_center",
      "facilityLabel": "🛎 旅客中心",
      "lat": 22.0941622,
      "lng": 120.746378,
      "source": "OpenStreetMap",
      "updatedAt": "2026-06-12T22:49:49.455Z"
    },
    {
      "id": 217847906,
      "name": "遊客中心",
      "facilityType": "visitor_center",
      "facilityLabel": "🛎 旅客中心",
      "lat": 22.0462937,
      "lng": 120.6989066,
      "source": "OpenStreetMap",
      "updatedAt": "2026-06-12T22:49:49.456Z"
    },
    {
      "id": 306782272,
      "name": "統埔琉球民墓(琉球藩民墓)",
      "facilityType": "tourist_attraction",
      "facilityLabel": "🧭 旅遊景點",
      "lat": 22.071192,
      "lng": 120.729441,
      "source": "OpenStreetMap",
      "updatedAt": "2026-06-12T22:49:49.457Z"
    },
    {
      "id": 306782614,
      "name": "四重溪溫泉遊憩區",
      "facilityType": "scenic_area",
      "facilityLabel": "🏞 風景區",
      "lat": 22.0834097,
      "lng": 120.7343249,
      "source": "OpenStreetMap",
      "updatedAt": "2026-06-12T22:49:49.457Z"
    },
    {
      "id": 1112795034,
      "name": "仁壽台",
      "facilityType": "tourist_attraction",
      "facilityLabel": "🧭 旅遊景點",
      "lat": 22.051871,
      "lng": 120.7010787,
      "source": "OpenStreetMap",
      "updatedAt": "2026-06-12T22:49:49.458Z"
    },
    {
      "id": 1255697195,
      "name": "旅客服務中心",
      "facilityType": "visitor_center",
      "facilityLabel": "🛎 旅客中心",
      "lat": 22.0947907,
      "lng": 120.7473136,
      "source": "OpenStreetMap",
      "updatedAt": "2026-06-12T22:49:49.459Z"
    },
    {
      "id": 7074764,
      "name": "尖山沿海保護區",
      "facilityType": "spot",
      "facilityLabel": "📍 親子景點",
      "lat": 22.0892767,
      "lng": 120.7130887,
      "source": "OpenStreetMap",
      "updatedAt": "2026-06-12T22:49:49.459Z"
    },
    {
      "id": 7074765,
      "name": "尖山自然保護區",
      "facilityType": "spot",
      "facilityLabel": "📍 親子景點",
      "lat": 22.0847384,
      "lng": 120.7026487,
      "source": "OpenStreetMap",
      "updatedAt": "2026-06-12T22:49:49.460Z"
    },
    {
      "id": 7228699,
      "name": "特別景觀區",
      "facilityType": "spot",
      "facilityLabel": "📍 親子景點",
      "lat": 21.9764112,
      "lng": 120.7817632,
      "source": "OpenStreetMap",
      "updatedAt": "2026-06-12T22:49:49.461Z"
    }
  ]
}
