{"city":"連江縣","district":"南竿鄉","category":"family","updatedAt":"2026-06-16T15:54:24.202Z","rev":24,"count":37,"items":[{"id":1952647596,"name":"秋桂亭","lat":26.1676835,"lng":119.9253925,"address":null,"hasBabyChanging":false,"hasAccessible":false,"source":"OpenStreetMap","updatedAt":"2026-06-16T15:54:24.202Z","facilityType":"tourist_attraction","facilityLabel":"🧭 旅遊景點","phone":null,"website":null,"wheelchair":false,"paid":null,"needsAddr":true},{"id":1952682995,"name":"北海坑道","lat":26.1424967,"lng":119.9290209,"address":null,"hasBabyChanging":false,"hasAccessible":false,"source":"OpenStreetMap","updatedAt":"2026-06-16T15:54:24.202Z","facilityType":"tourist_attraction","facilityLabel":"🧭 旅遊景點","phone":null,"website":null,"wheelchair":false,"paid":null,"needsAddr":true},{"id":3291847985,"name":"鐵堡","lat":26.1418655,"lng":119.9209167,"address":null,"hasBabyChanging":false,"hasAccessible":false,"source":"OpenStreetMap","updatedAt":"2026-06-16T15:54:24.202Z","facilityType":"tourist_attraction","facilityLabel":"🧭 旅遊景點","phone":null,"website":"http://www.matsu-nsa.gov.tw/User/Attraction-Content.aspx?a=35&l=1","wheelchair":false,"paid":null,"needsAddr":true},{"id":4195574688,"name":"南竿機場服務台","lat":26.1578691,"lng":119.9553809,"address":"連江縣南竿鄉復興村220號","hasBabyChanging":false,"hasAccessible":false,"source":"OpenStreetMap","updatedAt":"2026-06-16T15:54:24.202Z","facilityType":"visitor_center","facilityLabel":"🛎 旅客中心","phone":"+886 836 26402","website":null,"wheelchair":false,"paid":null,"needsAddr":false},{"id":4720530110,"name":"大漢據點","lat":26.140831,"lng":119.9288696,"address":null,"hasBabyChanging":false,"hasAccessible":false,"source":"OpenStreetMap","updatedAt":"2026-06-16T15:54:24.202Z","facilityType":"tourist_attraction","facilityLabel":"🧭 旅遊景點","phone":null,"website":null,"wheelchair":false,"paid":null,"needsAddr":true},{"id":4722106545,"name":"牛角聚落","lat":26.1637603,"lng":119.9527512,"address":null,"hasBabyChanging":false,"hasAccessible":false,"source":"OpenStreetMap","updatedAt":"2026-06-16T15:54:24.202Z","facilityType":"tourist_attraction","facilityLabel":"🧭 旅遊景點","phone":null,"website":null,"wheelchair":false,"paid":null,"needsAddr":true},{"id":5566659158,"name":"觀夕平台","lat":26.1605955,"lng":119.9145532,"address":null,"hasBabyChanging":false,"hasAccessible":false,"source":"OpenStreetMap","updatedAt":"2026-06-16T15:54:24.202Z","facilityType":"tourist_attraction","facilityLabel":"🧭 旅遊景點","phone":null,"website":null,"wheelchair":false,"paid":null,"needsAddr":true},{"id":5566659159,"name":"雲台山觀景點","lat":26.1506059,"lng":119.9230567,"address":null,"hasBabyChanging":false,"hasAccessible":false,"source":"OpenStreetMap","updatedAt":"2026-06-16T15:54:24.202Z","facilityType":"tourist_attraction","facilityLabel":"🧭 旅遊景點","phone":null,"website":null,"wheelchair":false,"paid":null,"needsAddr":true},{"id":7491945085,"name":"勝利堡","lat":26.1588522,"lng":119.9346474,"address":null,"hasBabyChanging":false,"hasAccessible":false,"source":"OpenStreetMap","updatedAt":"2026-06-16T15:54:24.202Z","facilityType":"tourist_attraction","facilityLabel":"🧭 旅遊景點","phone":null,"website":null,"wheelchair":false,"paid":null,"needsAddr":true},{"id":7727962007,"name":"馬祖1青年民宿借問站","lat":26.1455768,"lng":119.9132066,"address":null,"hasBabyChanging":false,"hasAccessible":false,"source":"OpenStreetMap","updatedAt":"2026-06-16T15:54:24.202Z","facilityType":"visitor_center","facilityLabel":"🛎 旅客中心","phone":null,"website":null,"wheelchair":false,"paid":null,"needsAddr":true},{"id":10201933163,"name":"藍眼淚生態館","lat":26.1678765,"lng":119.9192325,"address":"連江縣南竿鄉四維村24號","hasBabyChanging":false,"hasAccessible":false,"source":"OpenStreetMap","updatedAt":"2026-06-16T15:54:24.202Z","facilityType":"eco_center","facilityLabel":"🌱 生態館","phone":"+886 836 23338","website":null,"wheelchair":false,"paid":null,"needsAddr":false},{"id":10201933177,"name":"雲台山軍情館","lat":26.1503902,"lng":119.922877,"address":null,"hasBabyChanging":false,"hasAccessible":false,"source":"OpenStreetMap","updatedAt":"2026-06-16T15:54:24.202Z","facilityType":"science","facilityLabel":"🔬 博物館","phone":null,"website":null,"wheelchair":false,"paid":null,"needsAddr":true},{"id":10583792605,"name":"馬祖劍碑","lat":26.1588308,"lng":119.9186312,"address":null,"hasBabyChanging":false,"hasAccessible":false,"source":"OpenStreetMap","updatedAt":"2026-06-16T15:54:24.202Z","facilityType":"tourist_attraction","facilityLabel":"🧭 旅遊景點","phone":null,"website":null,"wheelchair":false,"paid":null,"needsAddr":true},{"id":10607880104,"name":"官帽山步道","lat":26.1404014,"lng":119.9242647,"address":null,"hasBabyChanging":false,"hasAccessible":false,"source":"OpenStreetMap","updatedAt":"2026-06-16T15:54:24.202Z","facilityType":"tourist_attraction","facilityLabel":"🧭 旅遊景點","phone":null,"website":null,"wheelchair":false,"paid":null,"needsAddr":true},{"id":10608000722,"name":"綠色隧道","lat":26.1396929,"lng":119.9266427,"address":null,"hasBabyChanging":false,"hasAccessible":false,"source":"OpenStreetMap","updatedAt":"2026-06-16T15:54:24.202Z","facilityType":"tourist_attraction","facilityLabel":"🧭 旅遊景點","phone":null,"website":null,"wheelchair":false,"paid":null,"needsAddr":true},{"id":10608000735,"name":"銅門據點石碑","lat":26.1390675,"lng":119.9245737,"address":null,"hasBabyChanging":false,"hasAccessible":false,"source":"OpenStreetMap","updatedAt":"2026-06-16T15:54:24.202Z","facilityType":"tourist_attraction","facilityLabel":"🧭 旅遊景點","phone":null,"website":null,"wheelchair":false,"paid":null,"needsAddr":true},{"id":10608000747,"name":"青蛙石 (俯看)","lat":26.1396531,"lng":119.9262845,"address":null,"hasBabyChanging":false,"hasAccessible":false,"source":"OpenStreetMap","updatedAt":"2026-06-16T15:54:24.202Z","facilityType":"tourist_attraction","facilityLabel":"🧭 旅遊景點","phone":null,"website":null,"wheelchair":false,"paid":null,"needsAddr":true},{"id":10608000748,"name":"馬祖地質公園展示館","lat":26.141191,"lng":119.9275484,"address":null,"hasBabyChanging":false,"hasAccessible":true,"source":"OpenStreetMap","updatedAt":"2026-06-16T15:54:24.202Z","facilityType":"tourist_attraction","facilityLabel":"🧭 旅遊景點","phone":null,"website":null,"wheelchair":true,"paid":null,"needsAddr":true},{"id":13463740384,"name":"腰山遊憩區（規劃中）","lat":26.1487517,"lng":119.9328684,"address":null,"hasBabyChanging":false,"hasAccessible":false,"source":"OpenStreetMap","updatedAt":"2026-06-16T15:54:24.202Z","facilityType":"scenic_area","facilityLabel":"🏞 風景區","phone":null,"website":null,"wheelchair":false,"paid":null,"needsAddr":true},{"id":13710647976,"name":"海天之丘","lat":26.1513519,"lng":119.9549065,"address":null,"hasBabyChanging":false,"hasAccessible":false,"source":"OpenStreetMap","updatedAt":"2026-06-16T15:54:24.202Z","facilityType":"tourist_attraction","facilityLabel":"🧭 旅遊景點","phone":null,"website":null,"wheelchair":false,"paid":null,"needsAddr":true},{"id":13710647980,"name":"觀夕平台","lat":26.1512172,"lng":119.954619,"address":null,"hasBabyChanging":false,"hasAccessible":false,"source":"OpenStreetMap","updatedAt":"2026-06-16T15:54:24.202Z","facilityType":"tourist_attraction","facilityLabel":"🧭 旅遊景點","phone":null,"website":null,"wheelchair":false,"paid":null,"needsAddr":true},{"id":236254515,"name":"媽祖宗教文化園區","lat":26.160782,"lng":119.91686680000001,"address":null,"hasBabyChanging":false,"hasAccessible":false,"source":"OpenStreetMap","updatedAt":"2026-06-16T15:54:24.202Z","facilityType":"park","facilityLabel":"🌳 小型公園","phone":null,"website":null,"wheelchair":false,"paid":null,"needsAddr":true},{"id":391510595,"name":"福澳港遊客服務中心","lat":26.1606952,"lng":119.94410264999999,"address":null,"hasBabyChanging":false,"hasAccessible":false,"source":"OpenStreetMap","updatedAt":"2026-06-16T15:54:24.202Z","facilityType":"visitor_center","facilityLabel":"🛎 旅客中心","phone":null,"website":null,"wheelchair":false,"paid":null,"needsAddr":true},{"id":466390902,"name":"枕戈待旦紀念公園","lat":26.15602255,"lng":119.94030635,"address":null,"hasBabyChanging":false,"hasAccessible":false,"source":"OpenStreetMap","updatedAt":"2026-06-16T15:54:24.202Z","facilityType":"park","facilityLabel":"🌳 小型公園","phone":null,"website":null,"wheelchair":false,"paid":null,"needsAddr":true},{"id":478866131,"name":"南竿遊客中心","lat":26.14121515,"lng":119.927558,"address":"連江縣南竿鄉仁愛村95-2號","hasBabyChanging":false,"hasAccessible":true,"source":"OpenStreetMap","updatedAt":"2026-06-16T15:54:24.202Z","facilityType":"visitor_center","facilityLabel":"🛎 旅客中心","phone":"+886 836 25630","website":"https://www.matsu-nsa.gov.tw/Attraction-Content.aspx?a=2741&l=1","wheelchair":true,"paid":null,"needsAddr":false},{"id":478868210,"name":"馬祖民俗文物館","lat":26.1503569,"lng":119.93547745,"address":"連江縣南竿鄉清水村135號","hasBabyChanging":false,"hasAccessible":false,"source":"OpenStreetMap","updatedAt":"2026-06-16T15:54:24.202Z","facilityType":"culture","facilityLabel":"🎨 藝文場館","phone":"+886 836 22167","website":null,"wheelchair":false,"paid":null,"needsAddr":false},{"id":493519728,"name":"八八坑道","lat":26.160326050000002,"lng":119.95343015,"address":null,"hasBabyChanging":false,"hasAccessible":false,"source":"OpenStreetMap","updatedAt":"2026-06-16T15:54:24.202Z","facilityType":"tourist_attraction","facilityLabel":"🧭 旅遊景點","phone":null,"website":null,"wheelchair":false,"paid":null,"needsAddr":true},{"id":570128182,"name":"白馬王公園","lat":26.154423,"lng":119.9517425,"address":null,"hasBabyChanging":false,"hasAccessible":false,"source":"OpenStreetMap","updatedAt":"2026-06-16T15:54:24.202Z","facilityType":"park","facilityLabel":"🌳 中型公園","phone":null,"website":null,"wheelchair":false,"paid":null,"needsAddr":true},{"id":804509940,"name":"勝天公園","lat":26.1534914,"lng":119.9162965,"address":null,"hasBabyChanging":false,"hasAccessible":false,"source":"OpenStreetMap","updatedAt":"2026-06-16T15:54:24.202Z","facilityType":"park","facilityLabel":"🌳 小型公園","phone":null,"website":null,"wheelchair":false,"paid":null,"needsAddr":true},{"id":804509943,"name":"李小石紀念公園","lat":26.1456462,"lng":119.91543275000001,"address":null,"hasBabyChanging":false,"hasAccessible":false,"source":"OpenStreetMap","updatedAt":"2026-06-16T15:54:24.202Z","facilityType":"park","facilityLabel":"🌳 小型公園","phone":null,"website":null,"wheelchair":false,"paid":null,"needsAddr":true},{"id":830188877,"name":"馬祖國家風景區管理處行政中心","lat":26.1420724,"lng":119.9281976,"address":"連江縣南竿鄉仁愛村95-1號","hasBabyChanging":false,"hasAccessible":false,"source":"OpenStreetMap","updatedAt":"2026-06-16T15:54:24.202Z","facilityType":"scenic_area","facilityLabel":"🏞 風景區","phone":"+886 836 25631","website":"https://admin.taiwan.net.tw/matsu-nsa/","wheelchair":false,"paid":null,"needsAddr":false},{"id":1115505227,"name":"經國先生紀念堂","lat":26.150395699999997,"lng":119.93419134999999,"address":null,"hasBabyChanging":false,"hasAccessible":false,"source":"OpenStreetMap","updatedAt":"2026-06-16T15:54:24.202Z","facilityType":"science","facilityLabel":"🔬 博物館","phone":"+886 836 23146","website":"https://www.matsu-nsa.gov.tw/Attraction-Content.aspx?a=2728&l=1","wheelchair":false,"paid":null,"needsAddr":true},{"id":1137959296,"name":"津沙海灘","lat":26.14530515,"lng":119.9127475,"address":null,"hasBabyChanging":false,"hasAccessible":false,"source":"OpenStreetMap","updatedAt":"2026-06-16T15:54:24.202Z","facilityType":"beach","facilityLabel":"🏖 沙灘","phone":null,"website":null,"wheelchair":false,"paid":null,"needsAddr":true},{"id":1167907301,"name":"清水公園","lat":26.15366225,"lng":119.93777915,"address":null,"hasBabyChanging":false,"hasAccessible":false,"source":"OpenStreetMap","updatedAt":"2026-06-16T15:54:24.202Z","facilityType":"park","facilityLabel":"🌳 小型公園","phone":null,"website":null,"wheelchair":false,"paid":null,"needsAddr":true},{"id":1359871404,"name":"蔣公紀念園區","lat":26.156685500000002,"lng":119.93978095,"address":null,"hasBabyChanging":false,"hasAccessible":false,"source":"OpenStreetMap","updatedAt":"2026-06-16T15:54:24.202Z","facilityType":"park","facilityLabel":"🌳 小型公園","phone":null,"website":null,"wheelchair":false,"paid":null,"needsAddr":true},{"id":7039489,"name":"福建省政府、連江縣政府","lat":26.164662649999997,"lng":120.20157845,"address":null,"hasBabyChanging":false,"hasAccessible":false,"source":"OpenStreetMap","updatedAt":"2026-06-16T15:54:24.202Z","facilityType":"spot","facilityLabel":"📍 親子景點","phone":null,"website":"https://conservation.forest.gov.tw/0000142","wheelchair":false,"paid":null,"needsAddr":true},{"id":7075828,"name":"馬祖列島燕鷗保護區","lat":26.1648018,"lng":120.2015787,"address":null,"hasBabyChanging":false,"hasAccessible":false,"source":"OpenStreetMap","updatedAt":"2026-06-16T15:54:24.202Z","facilityType":"spot","facilityLabel":"📍 親子景點","phone":null,"website":"https://conservation.forest.gov.tw/0000142","wheelchair":false,"paid":null,"needsAddr":true}]}