{"city":"宜蘭縣","district":"羅東鎮","category":"toilets","updatedAt":"2026-06-12T07:40:23.325Z","rev":1,"count":104,"items":[{"id":289440212,"name":"羅東 7160","lat":24.6779776,"lng":121.7745987,"address":null,"hasBabyChanging":false,"hasAccessible":true,"source":"OpenStreetMap","updatedAt":"2026-06-12T07:40:23.325Z","facilityType":"train","facilityLabel":"🚂 火車站","changingTable":false,"wheelchair":true,"needsAddr":false},{"id":2536766165,"name":"開羅派出所","lat":24.671781,"lng":121.7773263,"address":"宜蘭縣羅東鎮南昌東街1號","hasBabyChanging":false,"hasAccessible":false,"source":"OpenStreetMap","updatedAt":"2026-06-12T07:40:23.325Z","facilityType":"police","facilityLabel":"🚔 派出所","changingTable":false,"wheelchair":false,"needsAddr":false},{"id":3520790438,"name":"羅東福德廟","lat":24.6760686,"lng":121.7680827,"address":null,"hasBabyChanging":false,"hasAccessible":true,"source":"OpenStreetMap","updatedAt":"2026-06-12T07:40:23.325Z","facilityType":"temple","facilityLabel":"🛕 廟宇","changingTable":false,"wheelchair":true,"needsAddr":false},{"id":3553212737,"name":"東興婦產科診所","lat":24.6839783,"lng":121.7703387,"address":"26541宜蘭縣羅東鎮興東路269號","hasBabyChanging":false,"hasAccessible":false,"source":"OpenStreetMap","updatedAt":"2026-06-12T07:40:23.325Z","facilityType":"clinic","facilityLabel":"🩺 診所","changingTable":false,"wheelchair":false,"needsAddr":false},{"id":4352017773,"name":"大新社區活動中心","lat":24.6760462,"lng":121.7715648,"address":"宜蘭縣羅東鎮大新里中正路128號2樓","hasBabyChanging":false,"hasAccessible":false,"source":"OpenStreetMap","updatedAt":"2026-06-12T07:40:23.325Z","facilityType":"community","facilityLabel":"🏘️ 活動中心","changingTable":false,"wheelchair":false,"needsAddr":false},{"id":4794246822,"name":"羅莊櫻花步道","lat":24.6684866,"lng":121.7782037,"address":"宜蘭縣羅東鎮羅莊一街22號","hasBabyChanging":false,"hasAccessible":false,"source":"OpenStreetMap","updatedAt":"2026-06-12T07:40:23.325Z","facilityType":"attraction","facilityLabel":"🏞️ 景點","changingTable":false,"wheelchair":false,"needsAddr":false},{"id":4890935576,"name":"竹林社區活動中心","lat":24.6883,"lng":121.7658,"address":"宜蘭縣羅東鎮復興路二段122號","hasBabyChanging":false,"hasAccessible":false,"source":"OpenStreetMap","updatedAt":"2026-06-12T07:40:23.325Z","facilityType":"community","facilityLabel":"🏘️ 活動中心","changingTable":false,"wheelchair":false,"needsAddr":false},{"id":4890935577,"name":"仁和社區活動中心","lat":24.6724683,"lng":121.7709268,"address":"宜蘭縣羅東鎮清潭路146號2樓","hasBabyChanging":false,"hasAccessible":false,"source":"OpenStreetMap","updatedAt":"2026-06-12T07:40:23.325Z","facilityType":"community","facilityLabel":"🏘️ 活動中心","changingTable":false,"wheelchair":false,"needsAddr":false},{"id":4890948952,"name":"羅東鎮老人館","lat":24.6733,"lng":121.7682,"address":"宜蘭縣羅東鎮公園路13號","hasBabyChanging":false,"hasAccessible":false,"source":"OpenStreetMap","updatedAt":"2026-06-12T07:40:23.325Z","facilityType":"community","facilityLabel":"🏘️ 活動中心","changingTable":false,"wheelchair":false,"needsAddr":false},{"id":334821075,"name":"羅東夜市","lat":24.6764821,"lng":121.7687918,"address":null,"hasBabyChanging":false,"hasAccessible":false,"source":"OpenStreetMap","updatedAt":"2026-06-12T07:40:23.325Z","facilityType":"nightmarket","facilityLabel":"🍢 夜市","changingTable":false,"wheelchair":false,"needsAddr":false},{"id":5379800192,"name":"福德廟","lat":24.6897742,"lng":121.7582875,"address":null,"hasBabyChanging":false,"hasAccessible":false,"source":"OpenStreetMap","updatedAt":"2026-06-12T07:40:23.325Z","facilityType":"temple","facilityLabel":"🛕 廟宇","changingTable":false,"wheelchair":false,"needsAddr":false},{"id":5379800199,"name":"福德廟","lat":24.6900594,"lng":121.7607818,"address":null,"hasBabyChanging":false,"hasAccessible":false,"source":"OpenStreetMap","updatedAt":"2026-06-12T07:40:23.325Z","facilityType":"temple","facilityLabel":"🛕 廟宇","changingTable":false,"wheelchair":false,"needsAddr":false},{"id":5379800200,"name":"萬仙爺廟","lat":24.6885954,"lng":121.755857,"address":null,"hasBabyChanging":false,"hasAccessible":false,"source":"OpenStreetMap","updatedAt":"2026-06-12T07:40:23.325Z","facilityType":"temple","facilityLabel":"🛕 廟宇","changingTable":false,"wheelchair":false,"needsAddr":false},{"id":5403620045,"name":"星巴克 (宜蘭縣羅東鎮興東路97號)","lat":24.6786866,"lng":121.7685311,"address":"宜蘭縣羅東鎮興東路97號","hasBabyChanging":false,"hasAccessible":false,"source":"OpenStreetMap","updatedAt":"2026-06-12T07:40:23.325Z","facilityType":"starbucks","facilityLabel":"☕ 星巴克","changingTable":false,"wheelchair":false,"openingHours":"Mo-Su 07:00-21:30","needsAddr":false},{"id":5425930161,"name":"北成福德廟","lat":24.6806721,"lng":121.7560647,"address":null,"hasBabyChanging":false,"hasAccessible":false,"source":"OpenStreetMap","updatedAt":"2026-06-12T07:40:23.325Z","facilityType":"temple","facilityLabel":"🛕 廟宇","changingTable":false,"wheelchair":false,"needsAddr":false},{"id":5425930237,"name":"玉照天","lat":24.6786398,"lng":121.7575455,"address":null,"hasBabyChanging":false,"hasAccessible":false,"source":"OpenStreetMap","updatedAt":"2026-06-12T07:40:23.325Z","facilityType":"temple","facilityLabel":"🛕 廟宇","changingTable":false,"wheelchair":false,"needsAddr":false},{"id":5425930238,"name":"正德佛堂 宜蘭分院","lat":24.6788071,"lng":121.7574057,"address":null,"hasBabyChanging":false,"hasAccessible":false,"source":"OpenStreetMap","updatedAt":"2026-06-12T07:40:23.325Z","facilityType":"temple","facilityLabel":"🛕 廟宇","changingTable":false,"wheelchair":false,"needsAddr":false},{"id":6810846805,"name":"寶雅","lat":24.6812422,"lng":121.7687461,"address":null,"hasBabyChanging":false,"hasAccessible":false,"source":"OpenStreetMap","updatedAt":"2026-06-12T07:40:23.325Z","facilityType":"poya","facilityLabel":"💄 寶雅","changingTable":false,"wheelchair":false,"needsAddr":false},{"id":6810846806,"name":"倉前寶雅","lat":24.6811923,"lng":121.7686609,"address":null,"hasBabyChanging":false,"hasAccessible":false,"source":"OpenStreetMap","updatedAt":"2026-06-12T07:40:23.325Z","facilityType":"poya","facilityLabel":"💄 寶雅","changingTable":false,"wheelchair":false,"needsAddr":false},{"id":6810846809,"name":"山隆加油站","lat":24.6859045,"lng":121.7670938,"address":null,"hasBabyChanging":false,"hasAccessible":false,"source":"OpenStreetMap","updatedAt":"2026-06-12T07:40:23.325Z","facilityType":"fuel","facilityLabel":"⛽ 加油站","changingTable":false,"wheelchair":false,"needsAddr":false},{"id":6810846810,"name":"台塑石油","lat":24.6855657,"lng":121.7668337,"address":null,"hasBabyChanging":false,"hasAccessible":false,"source":"OpenStreetMap","updatedAt":"2026-06-12T07:40:23.325Z","facilityType":"fuel","facilityLabel":"⛽ 加油站","changingTable":false,"wheelchair":false,"needsAddr":false},{"id":7782684671,"name":"公共廁所","lat":24.6763974,"lng":121.769285,"address":null,"hasBabyChanging":false,"hasAccessible":false,"source":"OpenStreetMap","updatedAt":"2026-06-12T07:40:23.325Z","facilityType":"toilet","facilityLabel":null,"changingTable":false,"wheelchair":false,"needsAddr":true},{"id":7782696046,"name":"公共廁所","lat":24.675991,"lng":121.7684008,"address":null,"hasBabyChanging":false,"hasAccessible":false,"source":"OpenStreetMap","updatedAt":"2026-06-12T07:40:23.325Z","facilityType":"toilet","facilityLabel":null,"changingTable":false,"wheelchair":false,"fee":"no","needsAddr":true},{"id":7796881636,"name":"公共廁所","lat":24.683078,"lng":121.771805,"address":null,"hasBabyChanging":false,"hasAccessible":false,"source":"OpenStreetMap","updatedAt":"2026-06-12T07:40:23.325Z","facilityType":"toilet","facilityLabel":null,"changingTable":false,"wheelchair":false,"fee":"no","needsAddr":true},{"id":7802459728,"name":"晉揚中醫診所","lat":24.6837101,"lng":121.7701826,"address":"宜蘭縣羅東鎮興東路263號","hasBabyChanging":false,"hasAccessible":false,"source":"OpenStreetMap","updatedAt":"2026-06-12T07:40:23.325Z","facilityType":"clinic","facilityLabel":"🩺 診所","changingTable":false,"wheelchair":false,"needsAddr":false},{"id":7803774455,"name":"忠欣骨科診所","lat":24.680212,"lng":121.758098,"address":null,"hasBabyChanging":false,"hasAccessible":false,"source":"OpenStreetMap","updatedAt":"2026-06-12T07:40:23.325Z","facilityType":"clinic","facilityLabel":"🩺 診所","changingTable":false,"wheelchair":false,"needsAddr":false},{"id":7809979137,"name":"得福中醫診所","lat":24.6782711,"lng":121.7704691,"address":null,"hasBabyChanging":false,"hasAccessible":false,"source":"OpenStreetMap","updatedAt":"2026-06-12T07:40:23.325Z","facilityType":"clinic","facilityLabel":"🩺 診所","changingTable":false,"wheelchair":false,"needsAddr":false},{"id":7809979139,"name":"黃耀發小兒科診所","lat":24.6786782,"lng":121.7699359,"address":null,"hasBabyChanging":false,"hasAccessible":false,"source":"OpenStreetMap","updatedAt":"2026-06-12T07:40:23.325Z","facilityType":"clinic","facilityLabel":"🩺 診所","changingTable":false,"wheelchair":false,"needsAddr":false},{"id":7817207410,"name":"吳振華小兒科診所","lat":24.669643,"lng":121.7715177,"address":null,"hasBabyChanging":false,"hasAccessible":false,"source":"OpenStreetMap","updatedAt":"2026-06-12T07:40:23.325Z","facilityType":"clinic","facilityLabel":"🩺 診所","changingTable":false,"wheelchair":false,"needsAddr":false},{"id":8011967743,"name":"竹林車站","lat":24.6839213,"lng":121.7726331,"address":null,"hasBabyChanging":false,"hasAccessible":false,"source":"OpenStreetMap","updatedAt":"2026-06-12T07:40:23.325Z","facilityType":"attraction","facilityLabel":"🏞️ 景點","changingTable":false,"wheelchair":false,"needsAddr":false},{"id":8627828235,"name":"公共廁所","lat":24.6861994,"lng":121.7516656,"address":null,"hasBabyChanging":false,"hasAccessible":true,"source":"OpenStreetMap","updatedAt":"2026-06-12T07:40:23.325Z","facilityType":"toilet","facilityLabel":null,"changingTable":false,"wheelchair":true,"needsAddr":true},{"id":8627832923,"name":"公共廁所","lat":24.684539,"lng":121.7518013,"address":null,"hasBabyChanging":false,"hasAccessible":false,"source":"OpenStreetMap","updatedAt":"2026-06-12T07:40:23.325Z","facilityType":"toilet","facilityLabel":null,"changingTable":false,"wheelchair":false,"needsAddr":true},{"id":8627840625,"name":"公共廁所","lat":24.6844377,"lng":121.7545526,"address":null,"hasBabyChanging":false,"hasAccessible":true,"source":"OpenStreetMap","updatedAt":"2026-06-12T07:40:23.325Z","facilityType":"toilet","facilityLabel":null,"changingTable":false,"wheelchair":true,"needsAddr":true},{"id":8937276739,"name":"公共廁所","lat":24.6752299,"lng":121.7626037,"address":null,"hasBabyChanging":false,"hasAccessible":false,"source":"OpenStreetMap","updatedAt":"2026-06-12T07:40:23.325Z","facilityType":"toilet","facilityLabel":null,"changingTable":false,"wheelchair":false,"needsAddr":true},{"id":9604623589,"name":"公共廁所","lat":24.6878259,"lng":121.7703617,"address":null,"hasBabyChanging":false,"hasAccessible":false,"source":"OpenStreetMap","updatedAt":"2026-06-12T07:40:23.325Z","facilityType":"toilet","facilityLabel":null,"changingTable":false,"wheelchair":false,"needsAddr":true},{"id":9663585491,"name":"羅東民生-爾本購物廣場","lat":24.6768361,"lng":121.7707328,"address":"宜蘭縣羅東鎮民生路6號3、4樓","hasBabyChanging":true,"hasAccessible":false,"source":"OpenStreetMap","updatedAt":"2026-06-12T07:40:23.325Z","facilityType":"department","facilityLabel":"🏬 百貨","changingTable":true,"wheelchair":false,"openingHours":"Mo-Su 11:00-22:00","needsAddr":false},{"id":9705178349,"name":"羅東運動公園落羽松","lat":24.6825753,"lng":121.75757,"address":null,"hasBabyChanging":false,"hasAccessible":false,"source":"OpenStreetMap","updatedAt":"2026-06-12T07:40:23.325Z","facilityType":"attraction","facilityLabel":"🏞️ 景點","changingTable":false,"wheelchair":false,"needsAddr":false},{"id":9705178373,"name":"東丘","lat":24.6828958,"lng":121.757404,"address":null,"hasBabyChanging":false,"hasAccessible":false,"source":"OpenStreetMap","updatedAt":"2026-06-12T07:40:23.325Z","facilityType":"attraction","facilityLabel":"🏞️ 景點","changingTable":false,"wheelchair":false,"needsAddr":false},{"id":9705178720,"name":"水上舞台","lat":24.6832132,"lng":121.7554609,"address":null,"hasBabyChanging":false,"hasAccessible":false,"source":"OpenStreetMap","updatedAt":"2026-06-12T07:40:23.325Z","facilityType":"attraction","facilityLabel":"🏞️ 景點","changingTable":false,"wheelchair":false,"needsAddr":false},{"id":10199846790,"name":"林正權婦產科診所","lat":24.6790707,"lng":121.7698374,"address":null,"hasBabyChanging":false,"hasAccessible":false,"source":"OpenStreetMap","updatedAt":"2026-06-12T07:40:23.325Z","facilityType":"clinic","facilityLabel":"🩺 診所","changingTable":false,"wheelchair":false,"needsAddr":false},{"id":11158829786,"name":"爭鮮","lat":24.6790488,"lng":121.768439,"address":null,"hasBabyChanging":false,"hasAccessible":false,"source":"OpenStreetMap","updatedAt":"2026-06-12T07:40:23.325Z","facilityType":"sushi","facilityLabel":"🍣 迴轉壽司","changingTable":false,"wheelchair":false,"needsAddr":false},{"id":12609603033,"name":"公共廁所","lat":24.6808258,"lng":121.7561511,"address":null,"hasBabyChanging":false,"hasAccessible":false,"source":"OpenStreetMap","updatedAt":"2026-06-12T07:40:23.325Z","facilityType":"toilet","facilityLabel":null,"changingTable":false,"wheelchair":false,"needsAddr":true},{"id":12612719076,"name":"宜蘭縣羅東鎮大新社區發展協會","lat":24.6760768,"lng":121.7734331,"address":"265宜蘭縣羅東鎮站前路56巷3-3號","hasBabyChanging":false,"hasAccessible":false,"source":"OpenStreetMap","updatedAt":"2026-06-12T07:40:23.325Z","facilityType":"community","facilityLabel":"🏘️ 活動中心","changingTable":false,"wheelchair":false,"needsAddr":false},{"id":13049868035,"name":"百貨公司 羅東廣場","lat":24.6778619,"lng":121.7747837,"address":null,"hasBabyChanging":true,"hasAccessible":false,"source":"OpenStreetMap","updatedAt":"2026-06-12T07:40:23.325Z","facilityType":"department","facilityLabel":"🏬 百貨","changingTable":true,"wheelchair":false,"needsAddr":true},{"id":13315614212,"name":"勉民堂","lat":24.6749629,"lng":121.7702644,"address":"宜蘭縣羅東鎮中山路三段190號","hasBabyChanging":false,"hasAccessible":false,"source":"OpenStreetMap","updatedAt":"2026-06-12T07:40:23.325Z","facilityType":"temple","facilityLabel":"🛕 廟宇","changingTable":false,"wheelchair":false,"needsAddr":false},{"id":244032834,"name":"羅東稽徵所","lat":24.6781908,"lng":121.7687097,"address":"26541宜蘭縣羅東鎮興東路32號","hasBabyChanging":false,"hasAccessible":false,"source":"OpenStreetMap","updatedAt":"2026-06-12T07:40:23.325Z","facilityType":"government","facilityLabel":"🏛 公務機關","changingTable":false,"wheelchair":false,"needsAddr":false},{"id":244032992,"name":"羅東衛生所","lat":24.6774241,"lng":121.7669697,"address":"265宜蘭縣羅東鎮民生路79號","hasBabyChanging":false,"hasAccessible":false,"source":"OpenStreetMap","updatedAt":"2026-06-12T07:40:23.325Z","facilityType":"clinic","facilityLabel":"🩺 診所","changingTable":false,"wheelchair":false,"needsAddr":false},{"id":244033517,"name":"戶政事務所","lat":24.6773736,"lng":121.7672562,"address":"265宜蘭縣羅東鎮公正路159-1號","hasBabyChanging":false,"hasAccessible":false,"source":"OpenStreetMap","updatedAt":"2026-06-12T07:40:23.325Z","facilityType":"government","facilityLabel":"🏛 公務機關","changingTable":false,"wheelchair":false,"needsAddr":false},{"id":244033533,"name":"羅東鎮公所","lat":24.6769614,"lng":121.7668666,"address":"265宜蘭縣羅東鎮中興路3號","hasBabyChanging":false,"hasAccessible":false,"source":"OpenStreetMap","updatedAt":"2026-06-12T07:40:23.325Z","facilityType":"government","facilityLabel":"🏛 公務機關","changingTable":false,"wheelchair":false,"needsAddr":false},{"id":355236744,"name":"救安宮","lat":24.672946,"lng":121.7894002,"address":null,"hasBabyChanging":false,"hasAccessible":false,"source":"OpenStreetMap","updatedAt":"2026-06-12T07:40:23.325Z","facilityType":"temple","facilityLabel":"🛕 廟宇","changingTable":false,"wheelchair":false,"needsAddr":false},{"id":468650335,"name":"羅東文化工場本館","lat":24.6718533,"lng":121.764627,"address":"宜蘭縣羅東鎮純精路一段96號","hasBabyChanging":false,"hasAccessible":false,"source":"OpenStreetMap","updatedAt":"2026-06-12T07:40:23.325Z","facilityType":"arts","facilityLabel":"🎭 藝文場館","changingTable":false,"wheelchair":false,"needsAddr":false},{"id":468651427,"name":"羅東鎮立圖書館","lat":24.6701954,"lng":121.7652835,"address":null,"hasBabyChanging":false,"hasAccessible":false,"source":"OpenStreetMap","updatedAt":"2026-06-12T07:40:23.325Z","facilityType":"library","facilityLabel":"📚 圖書館","changingTable":false,"wheelchair":false,"needsAddr":false},{"id":547788286,"name":"勸世堂","lat":24.6850186,"lng":121.7676423,"address":null,"hasBabyChanging":false,"hasAccessible":false,"source":"OpenStreetMap","updatedAt":"2026-06-12T07:40:23.325Z","facilityType":"temple","facilityLabel":"🛕 廟宇","changingTable":false,"wheelchair":false,"needsAddr":false},{"id":547788805,"name":"蘭陽靈糧堂","lat":24.6825482,"lng":121.7711294,"address":null,"hasBabyChanging":false,"hasAccessible":false,"source":"OpenStreetMap","updatedAt":"2026-06-12T07:40:23.325Z","facilityType":"temple","facilityLabel":"🛕 廟宇","changingTable":false,"wheelchair":false,"needsAddr":false},{"id":547852079,"name":"望天丘","lat":24.6835528,"lng":121.7523348,"address":null,"hasBabyChanging":false,"hasAccessible":false,"source":"OpenStreetMap","updatedAt":"2026-06-12T07:40:23.325Z","facilityType":"attraction","facilityLabel":"🏞️ 景點","changingTable":false,"wheelchair":false,"needsAddr":false},{"id":583388921,"name":"林業及自然保育署宜蘭分署","lat":24.6840521,"lng":121.7718952,"address":"宜蘭縣羅東鎮中正北路118號","hasBabyChanging":false,"hasAccessible":false,"source":"OpenStreetMap","updatedAt":"2026-06-12T07:40:23.325Z","facilityType":"government","facilityLabel":"🏛 公務機關","changingTable":false,"wheelchair":false,"needsAddr":false},{"id":658998245,"name":"聖母醫護專校羅東校區","lat":24.6707907,"lng":121.7728984,"address":null,"hasBabyChanging":false,"hasAccessible":false,"source":"OpenStreetMap","updatedAt":"2026-06-12T07:40:23.325Z","facilityType":"university","facilityLabel":"🎓 大專院校","changingTable":false,"wheelchair":false,"needsAddr":false},{"id":659219005,"name":"耶穌聖心堂","lat":24.6713249,"lng":121.7710853,"address":null,"hasBabyChanging":false,"hasAccessible":false,"source":"OpenStreetMap","updatedAt":"2026-06-12T07:40:23.325Z","facilityType":"temple","facilityLabel":"🛕 廟宇","changingTable":false,"wheelchair":false,"needsAddr":false},{"id":736898832,"name":"公共廁所","lat":24.6821977,"lng":121.7722299,"address":null,"hasBabyChanging":false,"hasAccessible":true,"source":"OpenStreetMap","updatedAt":"2026-06-12T07:40:23.325Z","facilityType":"toilet","facilityLabel":null,"changingTable":false,"wheelchair":true,"fee":"no","needsAddr":true},{"id":736898833,"name":"公共廁所","lat":24.6844394,"lng":121.7721005,"address":null,"hasBabyChanging":true,"hasAccessible":true,"source":"OpenStreetMap","updatedAt":"2026-06-12T07:40:23.325Z","facilityType":"toilet","facilityLabel":null,"changingTable":true,"wheelchair":true,"fee":"no","needsAddr":true},{"id":833725445,"name":"兒美館","lat":24.6759122,"lng":121.7686576,"address":null,"hasBabyChanging":false,"hasAccessible":false,"source":"OpenStreetMap","updatedAt":"2026-06-12T07:40:23.325Z","facilityType":"museum","facilityLabel":"🖼️ 博物館","changingTable":false,"wheelchair":false,"needsAddr":false},{"id":864956421,"name":"仁愛社區活動中心","lat":24.7014365,"lng":121.755985,"address":"宜蘭縣羅東鎮仁愛里復興路三段557號","hasBabyChanging":false,"hasAccessible":false,"source":"OpenStreetMap","updatedAt":"2026-06-12T07:40:23.325Z","facilityType":"community","facilityLabel":"🏘️ 活動中心","changingTable":false,"wheelchair":false,"needsAddr":false},{"id":865191266,"name":"新群社區活動中心","lat":24.6673152,"lng":121.7921049,"address":"宜蘭縣羅東鎮新群里月眉路300號","hasBabyChanging":false,"hasAccessible":false,"source":"OpenStreetMap","updatedAt":"2026-06-12T07:40:23.325Z","facilityType":"community","facilityLabel":"🏘️ 活動中心","changingTable":false,"wheelchair":false,"needsAddr":false},{"id":865200362,"name":"北成社區活動中心","lat":24.6790682,"lng":121.7526436,"address":"宜蘭縣羅東鎮北成路二段57巷6號","hasBabyChanging":false,"hasAccessible":false,"source":"OpenStreetMap","updatedAt":"2026-06-12T07:40:23.325Z","facilityType":"community","facilityLabel":"🏘️ 活動中心","changingTable":false,"wheelchair":false,"needsAddr":false},{"id":865201830,"name":"東安社區活動中心","lat":24.6743918,"lng":121.7762163,"address":"宜蘭縣羅東鎮東安里天祥路171號","hasBabyChanging":false,"hasAccessible":false,"source":"OpenStreetMap","updatedAt":"2026-06-12T07:40:23.325Z","facilityType":"community","facilityLabel":"🏘️ 活動中心","changingTable":false,"wheelchair":false,"needsAddr":false},{"id":865203755,"name":"維安社區活動中心","lat":24.6675413,"lng":121.7543683,"address":"宜蘭縣羅東鎮西安里西安街468號","hasBabyChanging":false,"hasAccessible":false,"source":"OpenStreetMap","updatedAt":"2026-06-12T07:40:23.325Z","facilityType":"community","facilityLabel":"🏘️ 活動中心","changingTable":false,"wheelchair":false,"needsAddr":false},{"id":936317799,"name":"信義社區活動中心","lat":24.6835324,"lng":121.7684483,"address":"宜蘭縣羅東鎮中華路189號","hasBabyChanging":false,"hasAccessible":false,"source":"OpenStreetMap","updatedAt":"2026-06-12T07:40:23.325Z","facilityType":"community","facilityLabel":"🏘️ 活動中心","changingTable":false,"wheelchair":false,"needsAddr":false},{"id":966069788,"name":"善法寺","lat":24.6752845,"lng":121.7627452,"address":null,"hasBabyChanging":false,"hasAccessible":false,"source":"OpenStreetMap","updatedAt":"2026-06-12T07:40:23.325Z","facilityType":"temple","facilityLabel":"🛕 廟宇","changingTable":false,"wheelchair":false,"needsAddr":false},{"id":1113723900,"name":"真耶穌教會羅東教會","lat":24.6725595,"lng":121.7676728,"address":null,"hasBabyChanging":false,"hasAccessible":false,"source":"OpenStreetMap","updatedAt":"2026-06-12T07:40:23.325Z","facilityType":"temple","facilityLabel":"🛕 廟宇","changingTable":false,"wheelchair":false,"needsAddr":false},{"id":1113723922,"name":"羅東聖安宮","lat":24.6755653,"lng":121.7649588,"address":"宜蘭縣羅東鎮忠孝路48號","hasBabyChanging":false,"hasAccessible":false,"source":"OpenStreetMap","updatedAt":"2026-06-12T07:40:23.325Z","facilityType":"temple","facilityLabel":"🛕 廟宇","changingTable":false,"wheelchair":false,"needsAddr":false},{"id":1113733171,"name":"財政部北區國稅局羅東稽徵所第二辦公室","lat":24.6784869,"lng":121.7688459,"address":null,"hasBabyChanging":false,"hasAccessible":false,"source":"OpenStreetMap","updatedAt":"2026-06-12T07:40:23.325Z","facilityType":"government","facilityLabel":"🏛 公務機關","changingTable":false,"wheelchair":false,"needsAddr":false},{"id":1113733172,"name":"羅東分局","lat":24.6784452,"lng":121.7693594,"address":null,"hasBabyChanging":false,"hasAccessible":false,"source":"OpenStreetMap","updatedAt":"2026-06-12T07:40:23.325Z","facilityType":"government","facilityLabel":"🏛 公務機關","changingTable":false,"wheelchair":false,"needsAddr":false},{"id":1113733173,"name":"宜蘭縣羅東鎮戶政事務所","lat":24.6785218,"lng":121.7691405,"address":null,"hasBabyChanging":false,"hasAccessible":false,"source":"OpenStreetMap","updatedAt":"2026-06-12T07:40:23.325Z","facilityType":"government","facilityLabel":"🏛 公務機關","changingTable":false,"wheelchair":false,"needsAddr":false},{"id":1113733178,"name":"成功派出所","lat":24.6696377,"lng":121.7708146,"address":"宜蘭縣羅東鎮南豪里興東南路46號","hasBabyChanging":false,"hasAccessible":false,"source":"OpenStreetMap","updatedAt":"2026-06-12T07:40:23.325Z","facilityType":"police","facilityLabel":"🚔 派出所","changingTable":false,"wheelchair":false,"needsAddr":false},{"id":1113733184,"name":"聖母升天堂","lat":24.6758082,"lng":121.7621928,"address":"265035宜蘭縣羅東鎮北成路一段20號","hasBabyChanging":false,"hasAccessible":false,"source":"OpenStreetMap","updatedAt":"2026-06-12T07:40:23.325Z","facilityType":"temple","facilityLabel":"🛕 廟宇","changingTable":false,"wheelchair":false,"needsAddr":false},{"id":1113733185,"name":"羅東孔廟","lat":24.6757021,"lng":121.761663,"address":null,"hasBabyChanging":false,"hasAccessible":false,"source":"OpenStreetMap","updatedAt":"2026-06-12T07:40:23.325Z","facilityType":"temple","facilityLabel":"🛕 廟宇","changingTable":false,"wheelchair":false,"needsAddr":false},{"id":1113733189,"name":"中油純精站","lat":24.6720428,"lng":121.7635748,"address":null,"hasBabyChanging":false,"hasAccessible":false,"source":"OpenStreetMap","updatedAt":"2026-06-12T07:40:23.325Z","facilityType":"fuel","facilityLabel":"⛽ 加油站","changingTable":false,"wheelchair":false,"needsAddr":false},{"id":1113733190,"name":"中油 中正南路站","lat":24.668255,"lng":121.7720673,"address":null,"hasBabyChanging":false,"hasAccessible":false,"source":"OpenStreetMap","updatedAt":"2026-06-12T07:40:23.325Z","facilityType":"fuel","facilityLabel":"⛽ 加油站","changingTable":false,"wheelchair":false,"needsAddr":false},{"id":1115258344,"name":"麥當勞 羅東興東","lat":24.6778788,"lng":121.7681766,"address":null,"hasBabyChanging":false,"hasAccessible":false,"source":"OpenStreetMap","updatedAt":"2026-06-12T07:40:23.325Z","facilityType":"mcdonalds","facilityLabel":"🍔 麥當勞","changingTable":false,"wheelchair":false,"needsAddr":true},{"id":1115258359,"name":"羅東興安宮","lat":24.6792422,"lng":121.753934,"address":"265宜蘭縣羅東鎮北成路二段38號","hasBabyChanging":false,"hasAccessible":false,"source":"OpenStreetMap","updatedAt":"2026-06-12T07:40:23.325Z","facilityType":"temple","facilityLabel":"🛕 廟宇","changingTable":false,"wheelchair":false,"needsAddr":false},{"id":1115258361,"name":"協天宮","lat":24.6708603,"lng":121.7613224,"address":null,"hasBabyChanging":false,"hasAccessible":false,"source":"OpenStreetMap","updatedAt":"2026-06-12T07:40:23.325Z","facilityType":"temple","facilityLabel":"🛕 廟宇","changingTable":false,"wheelchair":false,"needsAddr":false},{"id":1115258362,"name":"爐源寺","lat":24.6711836,"lng":121.7617358,"address":null,"hasBabyChanging":false,"hasAccessible":false,"source":"OpenStreetMap","updatedAt":"2026-06-12T07:40:23.325Z","facilityType":"temple","facilityLabel":"🛕 廟宇","changingTable":false,"wheelchair":false,"needsAddr":false},{"id":1115267194,"name":"樹林里社區活動中心","lat":24.6833176,"lng":121.7613932,"address":"宜蘭縣羅東鎮文林路130號","hasBabyChanging":false,"hasAccessible":false,"source":"OpenStreetMap","updatedAt":"2026-06-12T07:40:23.325Z","facilityType":"community","facilityLabel":"🏘️ 活動中心","changingTable":false,"wheelchair":false,"needsAddr":false},{"id":1115495819,"name":"天主教靈醫修女會","lat":24.6761037,"lng":121.775987,"address":null,"hasBabyChanging":false,"hasAccessible":false,"source":"OpenStreetMap","updatedAt":"2026-06-12T07:40:23.325Z","facilityType":"temple","facilityLabel":"🛕 廟宇","changingTable":false,"wheelchair":false,"needsAddr":false},{"id":1115517163,"name":"羅東震安宮","lat":24.6735783,"lng":121.7703513,"address":"265宜蘭縣羅東鎮中正路33號","hasBabyChanging":false,"hasAccessible":false,"source":"OpenStreetMap","updatedAt":"2026-06-12T07:40:23.325Z","facilityType":"temple","facilityLabel":"🛕 廟宇","changingTable":false,"wheelchair":false,"openingHours":"24/7","needsAddr":false},{"id":1115534107,"name":"公共廁所","lat":24.6828182,"lng":121.7568924,"address":null,"hasBabyChanging":false,"hasAccessible":true,"source":"OpenStreetMap","updatedAt":"2026-06-12T07:40:23.325Z","facilityType":"toilet","facilityLabel":null,"changingTable":false,"wheelchair":true,"needsAddr":true},{"id":1116430293,"name":"老街碼頭","lat":24.6818883,"lng":121.7532388,"address":null,"hasBabyChanging":false,"hasAccessible":false,"source":"OpenStreetMap","updatedAt":"2026-06-12T07:40:23.325Z","facilityType":"oldstreet","facilityLabel":"🏮 老街","changingTable":false,"wheelchair":false,"needsAddr":false},{"id":1116435980,"name":"公共廁所","lat":24.6813727,"lng":121.7531024,"address":null,"hasBabyChanging":false,"hasAccessible":true,"source":"OpenStreetMap","updatedAt":"2026-06-12T07:40:23.325Z","facilityType":"toilet","facilityLabel":null,"changingTable":false,"wheelchair":true,"needsAddr":true},{"id":1165115258,"name":"萬靈公","lat":24.6672013,"lng":121.7550351,"address":null,"hasBabyChanging":false,"hasAccessible":false,"source":"OpenStreetMap","updatedAt":"2026-06-12T07:40:23.325Z","facilityType":"temple","facilityLabel":"🛕 廟宇","changingTable":false,"wheelchair":false,"needsAddr":false},{"id":1165115259,"name":"慈惠堂","lat":24.6684243,"lng":121.7574721,"address":null,"hasBabyChanging":false,"hasAccessible":false,"source":"OpenStreetMap","updatedAt":"2026-06-12T07:40:23.325Z","facilityType":"temple","facilityLabel":"🛕 廟宇","changingTable":false,"wheelchair":false,"needsAddr":false},{"id":1165115260,"name":"鎮安廟","lat":24.6693158,"lng":121.7588983,"address":null,"hasBabyChanging":false,"hasAccessible":false,"source":"OpenStreetMap","updatedAt":"2026-06-12T07:40:23.325Z","facilityType":"temple","facilityLabel":"🛕 廟宇","changingTable":false,"wheelchair":false,"needsAddr":false},{"id":1165115261,"name":"基督教協同會羅東教會","lat":24.6724059,"lng":121.7623528,"address":null,"hasBabyChanging":false,"hasAccessible":false,"source":"OpenStreetMap","updatedAt":"2026-06-12T07:40:23.325Z","facilityType":"temple","facilityLabel":"🛕 廟宇","changingTable":false,"wheelchair":false,"needsAddr":false},{"id":1165115264,"name":"樹林福德廟","lat":24.6711288,"lng":121.7538934,"address":null,"hasBabyChanging":false,"hasAccessible":false,"source":"OpenStreetMap","updatedAt":"2026-06-12T07:40:23.325Z","facilityType":"temple","facilityLabel":"🛕 廟宇","changingTable":false,"wheelchair":false,"needsAddr":false},{"id":1165115266,"name":"永福宮","lat":24.6740662,"lng":121.7517231,"address":null,"hasBabyChanging":false,"hasAccessible":false,"source":"OpenStreetMap","updatedAt":"2026-06-12T07:40:23.325Z","facilityType":"temple","facilityLabel":"🛕 廟宇","changingTable":false,"wheelchair":false,"needsAddr":false},{"id":1165115267,"name":"羅東福安宮","lat":24.6684311,"lng":121.7632138,"address":null,"hasBabyChanging":false,"hasAccessible":false,"source":"OpenStreetMap","updatedAt":"2026-06-12T07:40:23.325Z","facilityType":"temple","facilityLabel":"🛕 廟宇","changingTable":false,"wheelchair":false,"needsAddr":false},{"id":1288040392,"name":"藏壽司 羅東中山路店","lat":24.674602,"lng":121.7788757,"address":"宜蘭縣羅東鎮中山路二段346號","hasBabyChanging":false,"hasAccessible":true,"source":"OpenStreetMap","updatedAt":"2026-06-12T07:40:23.325Z","facilityType":"sushi","facilityLabel":"🍣 迴轉壽司","changingTable":false,"wheelchair":true,"needsAddr":false},{"id":1313144607,"name":"羅東轉運站","lat":24.6772184,"lng":121.7788646,"address":null,"hasBabyChanging":false,"hasAccessible":true,"source":"OpenStreetMap","updatedAt":"2026-06-12T07:40:23.325Z","facilityType":"bus","facilityLabel":"🚌 客運站","changingTable":false,"wheelchair":true,"needsAddr":false},{"id":1347745025,"name":"麥當勞 羅東光榮餐廳","lat":24.6798535,"lng":121.7775146,"address":"宜蘭縣羅東鎮光榮路403號","hasBabyChanging":false,"hasAccessible":false,"source":"OpenStreetMap","updatedAt":"2026-06-12T07:40:23.325Z","facilityType":"mcdonalds","facilityLabel":"🍔 麥當勞","changingTable":false,"wheelchair":false,"openingHours":"Mo-Su 06:00-24:00","needsAddr":false},{"id":1361045342,"name":"仁德社區活動中心","lat":24.6737869,"lng":121.7663306,"address":"宜蘭縣羅東鎮忠義巷92之1號","hasBabyChanging":false,"hasAccessible":false,"source":"OpenStreetMap","updatedAt":"2026-06-12T07:40:23.325Z","facilityType":"community","facilityLabel":"🏘️ 活動中心","changingTable":false,"wheelchair":false,"needsAddr":false},{"id":1361045343,"name":"羅莊社區活動中心","lat":24.6715983,"lng":121.7796824,"address":"宜蘭縣羅東鎮羅莊街357號","hasBabyChanging":false,"hasAccessible":false,"source":"OpenStreetMap","updatedAt":"2026-06-12T07:40:23.325Z","facilityType":"community","facilityLabel":"🏘️ 活動中心","changingTable":false,"wheelchair":false,"needsAddr":false},{"id":1361045344,"name":"南昌社區活動中心","lat":24.6690388,"lng":121.7724358,"address":"宜蘭縣羅東鎮站前南路1號","hasBabyChanging":false,"hasAccessible":false,"source":"OpenStreetMap","updatedAt":"2026-06-12T07:40:23.325Z","facilityType":"community","facilityLabel":"🏘️ 活動中心","changingTable":false,"wheelchair":false,"needsAddr":false},{"id":1361045345,"name":"漢民社區活動中心","lat":24.6737493,"lng":121.7633643,"address":"宜蘭縣羅東鎮漢民里純精路一段219號","hasBabyChanging":false,"hasAccessible":false,"source":"OpenStreetMap","updatedAt":"2026-06-12T07:40:23.325Z","facilityType":"community","facilityLabel":"🏘️ 活動中心","changingTable":false,"wheelchair":false,"needsAddr":false},{"id":1381592548,"name":"永和寺","lat":24.6922301,"lng":121.7629366,"address":null,"hasBabyChanging":false,"hasAccessible":false,"source":"OpenStreetMap","updatedAt":"2026-06-12T07:40:23.325Z","facilityType":"temple","facilityLabel":"🛕 廟宇","changingTable":false,"wheelchair":false,"needsAddr":false},{"id":8824218,"name":"羅東聖母醫院","lat":24.671182,"lng":121.7720279,"address":"宜蘭縣羅東鎮中正南路160號","hasBabyChanging":false,"hasAccessible":false,"source":"OpenStreetMap","updatedAt":"2026-06-12T07:40:23.325Z","facilityType":"hospital","facilityLabel":"🏥 醫院","changingTable":false,"wheelchair":false,"needsAddr":false}]}