{
  "city": "台南市",
  "category": "family",
  "updatedAt": "2026-06-12T19:21:47.946Z",
  "items": [
    {
      "id": 2131991702,
      "name": "水火同源",
      "facilityType": "tourist_attraction",
      "facilityLabel": "🧭 旅遊景點",
      "lat": 23.3222008,
      "lng": 120.4851802,
      "source": "OpenStreetMap",
      "updatedAt": "2026-06-12T19:21:47.924Z"
    },
    {
      "id": 2429176328,
      "name": "景大渡假莊園",
      "facilityType": "farm",
      "facilityLabel": "🌾 農場",
      "lat": 23.332375,
      "lng": 120.5059052,
      "source": "OpenStreetMap",
      "updatedAt": "2026-06-12T19:21:47.927Z"
    },
    {
      "id": 2893024799,
      "name": "埤肚仔九曲橋",
      "facilityType": "tourist_attraction",
      "facilityLabel": "🧭 旅遊景點",
      "lat": 23.385982,
      "lng": 120.4098559,
      "source": "OpenStreetMap",
      "updatedAt": "2026-06-12T19:21:47.928Z"
    },
    {
      "id": 3243943378,
      "name": "M-41 坦克",
      "facilityType": "tourist_attraction",
      "facilityLabel": "🧭 旅遊景點",
      "lat": 23.3434291,
      "lng": 120.4771132,
      "source": "OpenStreetMap",
      "updatedAt": "2026-06-12T19:21:47.930Z"
    },
    {
      "id": 3364999377,
      "name": "蔗埕觀景平台",
      "facilityType": "tourist_attraction",
      "facilityLabel": "🧭 旅遊景點",
      "lat": 23.3814473,
      "lng": 120.4174317,
      "source": "OpenStreetMap",
      "updatedAt": "2026-06-12T19:21:47.931Z"
    },
    {
      "id": 4294756612,
      "name": "心靈平台",
      "facilityType": "tourist_attraction",
      "facilityLabel": "🧭 旅遊景點",
      "lat": 23.358184,
      "lng": 120.4676559,
      "source": "OpenStreetMap",
      "updatedAt": "2026-06-12T19:21:47.933Z"
    },
    {
      "id": 4294756625,
      "name": "甘為霖",
      "facilityType": "visitor_center",
      "facilityLabel": "🛎 旅客中心",
      "lat": 23.3576173,
      "lng": 120.4673632,
      "source": "OpenStreetMap",
      "updatedAt": "2026-06-12T19:21:47.934Z"
    },
    {
      "id": 4294756866,
      "name": "紅仙水",
      "facilityType": "tourist_attraction",
      "facilityLabel": "🧭 旅遊景點",
      "lat": 23.3612337,
      "lng": 120.4689749,
      "source": "OpenStreetMap",
      "updatedAt": "2026-06-12T19:21:47.935Z"
    },
    {
      "id": 4854838918,
      "name": "往心靈故鄉林子內5公里",
      "facilityType": "visitor_center",
      "facilityLabel": "🛎 旅客中心",
      "lat": 23.3762616,
      "lng": 120.4466973,
      "source": "OpenStreetMap",
      "updatedAt": "2026-06-12T19:21:47.936Z"
    },
    {
      "id": 5465833223,
      "name": "小南海吊橋",
      "facilityType": "tourist_attraction",
      "facilityLabel": "🧭 旅遊景點",
      "lat": 23.3906079,
      "lng": 120.3934808,
      "source": "OpenStreetMap",
      "updatedAt": "2026-06-12T19:21:47.936Z"
    },
    {
      "id": 5466319322,
      "name": "木棉道",
      "facilityType": "tourist_attraction",
      "facilityLabel": "🧭 旅遊景點",
      "lat": 23.3786046,
      "lng": 120.4099419,
      "source": "OpenStreetMap",
      "updatedAt": "2026-06-12T19:21:47.937Z"
    },
    {
      "id": 9385761271,
      "name": "林業及自然保育署",
      "facilityType": "visitor_center",
      "facilityLabel": "🛎 旅客中心",
      "lat": 23.3251,
      "lng": 120.4813,
      "source": "OpenStreetMap",
      "updatedAt": "2026-06-12T19:21:47.937Z"
    },
    {
      "id": 9385761273,
      "name": "林業及自然保育署",
      "facilityType": "visitor_center",
      "facilityLabel": "🛎 旅客中心",
      "lat": 23.3223,
      "lng": 120.4855,
      "source": "OpenStreetMap",
      "updatedAt": "2026-06-12T19:21:47.938Z"
    },
    {
      "id": 9469400014,
      "name": "飲水思源",
      "facilityType": "tourist_attraction",
      "facilityLabel": "🧭 旅遊景點",
      "lat": 23.3187239,
      "lng": 120.4709329,
      "source": "OpenStreetMap",
      "updatedAt": "2026-06-12T19:21:47.938Z"
    },
    {
      "id": 9469400015,
      "name": "遙望",
      "facilityType": "tourist_attraction",
      "facilityLabel": "🧭 旅遊景點",
      "lat": 23.325184,
      "lng": 120.4766208,
      "source": "OpenStreetMap",
      "updatedAt": "2026-06-12T19:21:47.939Z"
    },
    {
      "id": 9671321738,
      "name": "展望",
      "facilityType": "tourist_attraction",
      "facilityLabel": "🧭 旅遊景點",
      "lat": 23.2958327,
      "lng": 120.5260304,
      "source": "OpenStreetMap",
      "updatedAt": "2026-06-12T19:21:47.939Z"
    },
    {
      "id": 9671321765,
      "name": "跋死馬崁",
      "facilityType": "tourist_attraction",
      "facilityLabel": "🧭 旅遊景點",
      "lat": 23.2917617,
      "lng": 120.5249617,
      "source": "OpenStreetMap",
      "updatedAt": "2026-06-12T19:21:47.940Z"
    },
    {
      "id": 10767840672,
      "name": "嘉義",
      "facilityType": "visitor_center",
      "facilityLabel": "🛎 旅客中心",
      "lat": 23.2971,
      "lng": 120.5038,
      "source": "OpenStreetMap",
      "updatedAt": "2026-06-12T19:21:47.940Z"
    },
    {
      "id": 10767840673,
      "name": "嘉義",
      "facilityType": "visitor_center",
      "facilityLabel": "🛎 旅客中心",
      "lat": 23.324,
      "lng": 120.483,
      "source": "OpenStreetMap",
      "updatedAt": "2026-06-12T19:21:47.941Z"
    },
    {
      "id": 10836520576,
      "name": "北由火山碧雲寺路",
      "facilityType": "tourist_attraction",
      "facilityLabel": "🧭 旅遊景點",
      "lat": 23.3127084,
      "lng": 120.4625675,
      "source": "OpenStreetMap",
      "updatedAt": "2026-06-12T19:21:47.941Z"
    },
    {
      "id": 11238535982,
      "name": "指示牌 (←新好漢坡,老街.天梯.舊好漢坡↓)",
      "facilityType": "visitor_center",
      "facilityLabel": "🛎 旅客中心",
      "lat": 23.339443,
      "lng": 120.5043501,
      "source": "OpenStreetMap",
      "updatedAt": "2026-06-12T19:21:47.942Z"
    },
    {
      "id": 11238536011,
      "name": "關子嶺溫泉區導覽圖",
      "facilityType": "visitor_center",
      "facilityLabel": "🛎 旅客中心",
      "lat": 23.339534,
      "lng": 120.503399,
      "source": "OpenStreetMap",
      "updatedAt": "2026-06-12T19:21:47.942Z"
    },
    {
      "id": 11238575057,
      "name": "關子嶺溫泉區",
      "facilityType": "visitor_center",
      "facilityLabel": "🛎 旅客中心",
      "lat": 23.339561,
      "lng": 120.5045676,
      "source": "OpenStreetMap",
      "updatedAt": "2026-06-12T19:21:47.943Z"
    },
    {
      "id": 11958735648,
      "name": "跌死馬崁銘牌",
      "facilityType": "tourist_attraction",
      "facilityLabel": "🧭 旅遊景點",
      "lat": 23.2916361,
      "lng": 120.5244831,
      "source": "OpenStreetMap",
      "updatedAt": "2026-06-12T19:21:47.943Z"
    },
    {
      "id": 285628403,
      "name": "白河鎮蓮花",
      "facilityType": "tourist_attraction",
      "facilityLabel": "🧭 旅遊景點",
      "lat": 23.3624724,
      "lng": 120.4129386,
      "source": "OpenStreetMap",
      "updatedAt": "2026-06-12T19:21:47.944Z"
    },
    {
      "id": 285628930,
      "name": "茂勝休閒生態教育農場",
      "facilityType": "farm",
      "facilityLabel": "🌾 農場",
      "lat": 23.365835,
      "lng": 120.4128515,
      "source": "OpenStreetMap",
      "updatedAt": "2026-06-12T19:21:47.944Z"
    },
    {
      "id": 296781608,
      "name": "白河蓮花產業文化資訊館",
      "facilityType": "tourist_attraction",
      "facilityLabel": "🧭 旅遊景點",
      "lat": 23.3808559,
      "lng": 120.4163856,
      "source": "OpenStreetMap",
      "updatedAt": "2026-06-12T19:21:47.944Z"
    },
    {
      "id": 383604630,
      "name": "關子嶺老街",
      "facilityType": "tourist_attraction",
      "facilityLabel": "🧭 旅遊景點",
      "lat": 23.3386515,
      "lng": 120.5053932,
      "source": "OpenStreetMap",
      "updatedAt": "2026-06-12T19:21:47.945Z"
    },
    {
      "id": 914946822,
      "name": "小南海風景區",
      "facilityType": "scenic_area",
      "facilityLabel": "🏞 風景區",
      "lat": 23.3874728,
      "lng": 120.3925502,
      "source": "OpenStreetMap",
      "updatedAt": "2026-06-12T19:21:47.945Z"
    },
    {
      "id": 1052399466,
      "name": "台灣木材故事館",
      "facilityType": "science",
      "facilityLabel": "🔬 博物館",
      "lat": 23.3370731,
      "lng": 120.5035648,
      "source": "OpenStreetMap",
      "updatedAt": "2026-06-12T19:21:47.946Z",
      "address": "台南市白河區關子嶺30號"
    },
    {
      "id": 1339380681,
      "name": "白河區公園綠化管理中心",
      "facilityType": "visitor_center",
      "facilityLabel": "🛎 旅客中心",
      "lat": 23.3462958,
      "lng": 120.4169702,
      "source": "OpenStreetMap",
      "updatedAt": "2026-06-12T19:21:47.946Z"
    }
  ]
}
