{"city":"金門縣","district":"金沙鎮","category":"family","updatedAt":"2026-06-11T08:39:29.880Z","rev":14,"count":5,"items":[{"id":343518713,"name":"金門歷史民俗博物館","lat":24.4993482,"lng":118.4036276,"address":null,"hasBabyChanging":false,"hasAccessible":false,"source":"OpenStreetMap","updatedAt":"2026-06-11T08:39:29.880Z","facilityType":"science","facilityLabel":"🔬 科學館","phone":null,"website":null,"wheelchair":false,"paid":null,"needsAddr":true},{"id":343520953,"name":"田墩沙灘","lat":24.5045201,"lng":118.39300285,"address":null,"hasBabyChanging":false,"hasAccessible":false,"source":"OpenStreetMap","updatedAt":"2026-06-11T08:39:29.880Z","facilityType":"water","facilityLabel":"💧 戲水親水","phone":null,"website":null,"wheelchair":false,"paid":null,"needsAddr":true},{"id":468850746,"name":"官澳","lat":24.52691155,"lng":118.40771975,"address":null,"hasBabyChanging":false,"hasAccessible":false,"source":"OpenStreetMap","updatedAt":"2026-06-11T08:39:29.880Z","facilityType":"water","facilityLabel":"💧 戲水親水","phone":null,"website":null,"wheelchair":false,"paid":null,"needsAddr":true},{"id":973426577,"name":"後陵公園","lat":24.4724288,"lng":118.43031115,"address":null,"hasBabyChanging":false,"hasAccessible":false,"source":"OpenStreetMap","updatedAt":"2026-06-11T08:39:29.880Z","facilityType":"park","facilityLabel":"🌳 中型公園","phone":null,"website":null,"wheelchair":false,"paid":null,"needsAddr":true},{"id":1047192387,"name":"金門民俗文化村","lat":24.503969050000002,"lng":118.4405108,"address":null,"hasBabyChanging":false,"hasAccessible":false,"source":"OpenStreetMap","updatedAt":"2026-06-11T08:39:29.880Z","facilityType":"theme_park","facilityLabel":"🎡 遊樂園","phone":"+886 8 235 5347","website":"https://kinmen.travel/zh-tw/travel/attraction/517","wheelchair":false,"paid":null,"needsAddr":true}]}