{
  "city": "基隆市",
  "category": "family",
  "updatedAt": "2026-06-12T20:16:56.282Z",
  "items": [
    {
      "id": 4229631769,
      "name": "深澳坑砲台山",
      "facilityType": "tourist_attraction",
      "facilityLabel": "🧭 旅遊景點",
      "lat": 25.1172141,
      "lng": 121.7822561,
      "source": "OpenStreetMap",
      "updatedAt": "2026-06-12T20:16:56.266Z"
    },
    {
      "id": 4536779315,
      "name": "月眉山砲台",
      "facilityType": "tourist_attraction",
      "facilityLabel": "🧭 旅遊景點",
      "lat": 25.1203951,
      "lng": 121.7733595,
      "source": "OpenStreetMap",
      "updatedAt": "2026-06-12T20:16:56.268Z"
    },
    {
      "id": 5305832531,
      "name": "槓子寮砲台",
      "facilityType": "visitor_center",
      "facilityLabel": "🛎 旅客中心",
      "lat": 25.1438921,
      "lng": 121.7790585,
      "source": "OpenStreetMap",
      "updatedAt": "2026-06-12T20:16:56.270Z"
    },
    {
      "id": 9542981790,
      "name": "紅淡山步道導覽圖_A2線",
      "facilityType": "visitor_center",
      "facilityLabel": "🛎 旅客中心",
      "lat": 25.1155913,
      "lng": 121.7519627,
      "source": "OpenStreetMap",
      "updatedAt": "2026-06-12T20:16:56.271Z"
    },
    {
      "id": 12468292601,
      "name": "深澳坑砲台山",
      "facilityType": "tourist_attraction",
      "facilityLabel": "🧭 旅遊景點",
      "lat": 25.1172335,
      "lng": 121.7822603,
      "source": "OpenStreetMap",
      "updatedAt": "2026-06-12T20:16:56.273Z"
    },
    {
      "id": 400701906,
      "name": "中正公園遊客服務中心",
      "facilityType": "visitor_center",
      "facilityLabel": "🛎 旅客中心",
      "lat": 25.1336724,
      "lng": 121.751658,
      "source": "OpenStreetMap",
      "updatedAt": "2026-06-12T20:16:56.274Z"
    },
    {
      "id": 450296566,
      "name": "月眉山砲台路線",
      "facilityType": "tourist_attraction",
      "facilityLabel": "🧭 旅遊景點",
      "lat": 25.1203901,
      "lng": 121.7735048,
      "source": "OpenStreetMap",
      "updatedAt": "2026-06-12T20:16:56.275Z"
    },
    {
      "id": 548644325,
      "name": "槓子寮砲台",
      "facilityType": "tourist_attraction",
      "facilityLabel": "🧭 旅遊景點",
      "lat": 25.1438303,
      "lng": 121.7807966,
      "source": "OpenStreetMap",
      "updatedAt": "2026-06-12T20:16:56.276Z"
    },
    {
      "id": 549286248,
      "name": "槓子寮砲台茅房",
      "facilityType": "tourist_attraction",
      "facilityLabel": "🧭 旅遊景點",
      "lat": 25.143109,
      "lng": 121.781453,
      "source": "OpenStreetMap",
      "updatedAt": "2026-06-12T20:16:56.277Z"
    },
    {
      "id": 771360943,
      "name": "月眉山砲台路線",
      "facilityType": "tourist_attraction",
      "facilityLabel": "🧭 旅遊景點",
      "lat": 25.1159629,
      "lng": 121.7728472,
      "source": "OpenStreetMap",
      "updatedAt": "2026-06-12T20:16:56.278Z"
    },
    {
      "id": 1163659245,
      "name": "平射砲台",
      "facilityType": "tourist_attraction",
      "facilityLabel": "🧭 旅遊景點",
      "lat": 25.1429085,
      "lng": 121.7820067,
      "source": "OpenStreetMap",
      "updatedAt": "2026-06-12T20:16:56.279Z"
    },
    {
      "id": 1209910345,
      "name": "四腳亭砲台登山步道",
      "facilityType": "tourist_attraction",
      "facilityLabel": "🧭 旅遊景點",
      "lat": 25.1166083,
      "lng": 121.7828382,
      "source": "OpenStreetMap",
      "updatedAt": "2026-06-12T20:16:56.280Z"
    },
    {
      "id": 1209910348,
      "name": "月眉山砲台路線",
      "facilityType": "tourist_attraction",
      "facilityLabel": "🧭 旅遊景點",
      "lat": 25.1207138,
      "lng": 121.7739537,
      "source": "OpenStreetMap",
      "updatedAt": "2026-06-12T20:16:56.281Z"
    },
    {
      "id": 1281859055,
      "name": "月眉山砲台路線",
      "facilityType": "tourist_attraction",
      "facilityLabel": "🧭 旅遊景點",
      "lat": 25.1204297,
      "lng": 121.7732536,
      "source": "OpenStreetMap",
      "updatedAt": "2026-06-12T20:16:56.281Z"
    },
    {
      "id": 1281859149,
      "name": "月眉山砲台路線",
      "facilityType": "tourist_attraction",
      "facilityLabel": "🧭 旅遊景點",
      "lat": 25.1204086,
      "lng": 121.773843,
      "source": "OpenStreetMap",
      "updatedAt": "2026-06-12T20:16:56.281Z"
    }
  ]
}
