{"city":"金門縣","district":"金湖鎮","category":"toilets","updatedAt":"2026-06-12T07:40:23.325Z","rev":1,"count":92,"items":[{"id":2298377506,"name":"金湖鎮公所","lat":24.4413871,"lng":118.4170714,"address":null,"hasBabyChanging":false,"hasAccessible":false,"source":"OpenStreetMap","updatedAt":"2026-06-12T07:40:23.325Z","facilityType":"government","facilityLabel":"🏛 公務機關","changingTable":false,"wheelchair":false,"needsAddr":false},{"id":2298391264,"name":"山外車站","lat":24.4422931,"lng":118.4140732,"address":null,"hasBabyChanging":false,"hasAccessible":false,"source":"OpenStreetMap","updatedAt":"2026-06-12T07:40:23.325Z","facilityType":"bus","facilityLabel":"🚌 客運站","changingTable":false,"wheelchair":false,"needsAddr":false},{"id":2357167437,"name":"塔后風獅爺","lat":24.439125,"lng":118.4075975,"address":null,"hasBabyChanging":false,"hasAccessible":false,"source":"OpenStreetMap","updatedAt":"2026-06-12T07:40:23.325Z","facilityType":"temple","facilityLabel":"🛕 廟宇","changingTable":false,"wheelchair":false,"needsAddr":false},{"id":2357167441,"name":"夏興風獅爺","lat":24.4397569,"lng":118.394469,"address":null,"hasBabyChanging":false,"hasAccessible":false,"source":"OpenStreetMap","updatedAt":"2026-06-12T07:40:23.325Z","facilityType":"temple","facilityLabel":"🛕 廟宇","changingTable":false,"wheelchair":false,"needsAddr":false},{"id":2357167455,"name":"山外風獅爺","lat":24.4476082,"lng":118.4148089,"address":null,"hasBabyChanging":false,"hasAccessible":false,"source":"OpenStreetMap","updatedAt":"2026-06-12T07:40:23.325Z","facilityType":"temple","facilityLabel":"🛕 廟宇","changingTable":false,"wheelchair":false,"needsAddr":false},{"id":2357167471,"name":"新市風獅爺","lat":24.4458239,"lng":118.4167664,"address":null,"hasBabyChanging":false,"hasAccessible":false,"source":"OpenStreetMap","updatedAt":"2026-06-12T07:40:23.325Z","facilityType":"temple","facilityLabel":"🛕 廟宇","changingTable":false,"wheelchair":false,"needsAddr":false},{"id":2357167478,"name":"欽旌節牌坊","lat":24.4598861,"lng":118.3822013,"address":null,"hasBabyChanging":false,"hasAccessible":false,"source":"OpenStreetMap","updatedAt":"2026-06-12T07:40:23.325Z","facilityType":"attraction","facilityLabel":"🏞️ 景點","changingTable":false,"wheelchair":false,"needsAddr":false},{"id":2357168204,"name":"西洪風獅爺","lat":24.4451749,"lng":118.4317958,"address":null,"hasBabyChanging":false,"hasAccessible":false,"source":"OpenStreetMap","updatedAt":"2026-06-12T07:40:23.325Z","facilityType":"temple","facilityLabel":"🛕 廟宇","changingTable":false,"wheelchair":false,"needsAddr":false},{"id":2837210310,"name":"金獅影城","lat":24.4417558,"lng":118.3627627,"address":"89150金門縣金湖鎮中山路8-5號3樓","hasBabyChanging":false,"hasAccessible":false,"source":"OpenStreetMap","updatedAt":"2026-06-12T07:40:23.325Z","facilityType":"cinema","facilityLabel":"🎬 電影院","changingTable":false,"wheelchair":false,"needsAddr":false},{"id":2837210311,"name":"國賓影城 金門昇恆昌金湖廣場","lat":24.4394728,"lng":118.418954,"address":"89141金門縣金湖鎮太湖路二段198號6樓","hasBabyChanging":false,"hasAccessible":true,"source":"OpenStreetMap","updatedAt":"2026-06-12T07:40:23.325Z","facilityType":"cinema","facilityLabel":"🎬 電影院","changingTable":false,"wheelchair":true,"needsAddr":false},{"id":2837221727,"name":"成功海灘","lat":24.4353567,"lng":118.3867205,"address":null,"hasBabyChanging":false,"hasAccessible":false,"source":"OpenStreetMap","updatedAt":"2026-06-12T07:40:23.325Z","facilityType":"beach","facilityLabel":"🏖️ 沙灘","changingTable":false,"wheelchair":false,"needsAddr":false},{"id":2845247352,"name":"保護廟","lat":24.456295,"lng":118.3741748,"address":null,"hasBabyChanging":false,"hasAccessible":false,"source":"OpenStreetMap","updatedAt":"2026-06-12T07:40:23.325Z","facilityType":"temple","facilityLabel":"🛕 廟宇","changingTable":false,"wheelchair":false,"needsAddr":false},{"id":2845258114,"name":"瓊林地下坑道","lat":24.4568698,"lng":118.3742483,"address":null,"hasBabyChanging":false,"hasAccessible":false,"source":"OpenStreetMap","updatedAt":"2026-06-12T07:40:23.325Z","facilityType":"attraction","facilityLabel":"🏞️ 景點","changingTable":false,"wheelchair":false,"needsAddr":false},{"id":2845303306,"name":"金門縣養護工程所","lat":24.4287917,"lng":118.429761,"address":null,"hasBabyChanging":false,"hasAccessible":false,"source":"OpenStreetMap","updatedAt":"2026-06-12T07:40:23.325Z","facilityType":"government","facilityLabel":"🏛 公務機關","changingTable":false,"wheelchair":false,"needsAddr":false},{"id":2850729638,"name":"護國寺","lat":24.4390626,"lng":118.4172275,"address":null,"hasBabyChanging":false,"hasAccessible":false,"source":"OpenStreetMap","updatedAt":"2026-06-12T07:40:23.325Z","facilityType":"temple","facilityLabel":"🛕 廟宇","changingTable":false,"wheelchair":false,"needsAddr":false},{"id":2850738760,"name":"監理所","lat":24.4469179,"lng":118.4186437,"address":null,"hasBabyChanging":false,"hasAccessible":false,"source":"OpenStreetMap","updatedAt":"2026-06-12T07:40:23.325Z","facilityType":"government","facilityLabel":"🏛 公務機關","changingTable":false,"wheelchair":false,"needsAddr":false},{"id":2855470992,"name":"迎賓館","lat":24.4478411,"lng":118.417931,"address":null,"hasBabyChanging":false,"hasAccessible":false,"source":"OpenStreetMap","updatedAt":"2026-06-12T07:40:23.325Z","facilityType":"attraction","facilityLabel":"🏞️ 景點","changingTable":false,"wheelchair":false,"needsAddr":false},{"id":2855516665,"name":"金湖衛生所","lat":24.4421249,"lng":118.3986325,"address":null,"hasBabyChanging":false,"hasAccessible":false,"source":"OpenStreetMap","updatedAt":"2026-06-12T07:40:23.325Z","facilityType":"clinic","facilityLabel":"🩺 診所","changingTable":false,"wheelchair":false,"needsAddr":false},{"id":2894792617,"name":"料羅灣龍堡三營區 / 82據點","lat":24.4249628,"lng":118.4277922,"address":null,"hasBabyChanging":false,"hasAccessible":false,"source":"OpenStreetMap","updatedAt":"2026-06-12T07:40:23.325Z","facilityType":"attraction","facilityLabel":"🏞️ 景點","changingTable":false,"wheelchair":false,"needsAddr":false},{"id":3205650190,"name":"榕園","lat":24.443106,"lng":118.432298,"address":null,"hasBabyChanging":false,"hasAccessible":false,"source":"OpenStreetMap","updatedAt":"2026-06-12T07:40:23.325Z","facilityType":"attraction","facilityLabel":"🏞️ 景點","changingTable":false,"wheelchair":false,"needsAddr":false},{"id":3290323686,"name":"公共廁所","lat":24.4355479,"lng":118.3665651,"address":null,"hasBabyChanging":false,"hasAccessible":false,"source":"OpenStreetMap","updatedAt":"2026-06-12T07:40:23.325Z","facilityType":"toilet","facilityLabel":null,"changingTable":false,"wheelchair":false,"needsAddr":true},{"id":3376533791,"name":"金門柳營步兵軍事體驗園區","lat":24.438713,"lng":118.3797811,"address":null,"hasBabyChanging":false,"hasAccessible":false,"source":"OpenStreetMap","updatedAt":"2026-06-12T07:40:23.325Z","facilityType":"attraction","facilityLabel":"🏞️ 景點","changingTable":false,"wheelchair":false,"needsAddr":false},{"id":3496967293,"name":"公共廁所","lat":24.44385,"lng":118.4301193,"address":null,"hasBabyChanging":false,"hasAccessible":false,"source":"OpenStreetMap","updatedAt":"2026-06-12T07:40:23.325Z","facilityType":"toilet","facilityLabel":null,"changingTable":false,"wheelchair":false,"needsAddr":true},{"id":4327970064,"name":"金門縣聯絡處","lat":24.444543,"lng":118.4289363,"address":"89142金門縣金湖鎮高職農場路1號","hasBabyChanging":false,"hasAccessible":false,"source":"OpenStreetMap","updatedAt":"2026-06-12T07:40:23.325Z","facilityType":"government","facilityLabel":"🏛 公務機關","changingTable":false,"wheelchair":false,"needsAddr":false},{"id":4690117427,"name":"公共廁所","lat":24.4356791,"lng":118.3681884,"address":null,"hasBabyChanging":false,"hasAccessible":true,"source":"OpenStreetMap","updatedAt":"2026-06-12T07:40:23.325Z","facilityType":"toilet","facilityLabel":null,"changingTable":false,"wheelchair":true,"needsAddr":true},{"id":5189140983,"name":"景點","lat":24.463393,"lng":118.4162101,"address":null,"hasBabyChanging":false,"hasAccessible":false,"source":"OpenStreetMap","updatedAt":"2026-06-12T07:40:23.325Z","facilityType":"attraction","facilityLabel":"🏞️ 景點","changingTable":false,"wheelchair":false,"needsAddr":true},{"id":5189149884,"name":"景點","lat":24.462044,"lng":118.4137419,"address":null,"hasBabyChanging":false,"hasAccessible":false,"source":"OpenStreetMap","updatedAt":"2026-06-12T07:40:23.325Z","facilityType":"attraction","facilityLabel":"🏞️ 景點","changingTable":false,"wheelchair":false,"needsAddr":true},{"id":6579719888,"name":"瓊林戰鬥坑道入口","lat":24.455081,"lng":118.3728682,"address":null,"hasBabyChanging":false,"hasAccessible":false,"source":"OpenStreetMap","updatedAt":"2026-06-12T07:40:23.325Z","facilityType":"attraction","facilityLabel":"🏞️ 景點","changingTable":false,"wheelchair":false,"needsAddr":false},{"id":6579719889,"name":"一門三節牌坊","lat":24.4539051,"lng":118.3703729,"address":null,"hasBabyChanging":false,"hasAccessible":false,"source":"OpenStreetMap","updatedAt":"2026-06-12T07:40:23.325Z","facilityType":"attraction","facilityLabel":"🏞️ 景點","changingTable":false,"wheelchair":false,"needsAddr":false},{"id":8419650520,"name":"公共廁所","lat":24.4398152,"lng":118.4611106,"address":null,"hasBabyChanging":false,"hasAccessible":false,"source":"OpenStreetMap","updatedAt":"2026-06-12T07:40:23.325Z","facilityType":"toilet","facilityLabel":null,"changingTable":false,"wheelchair":false,"needsAddr":true},{"id":8427321617,"name":"天空之城","lat":24.4352498,"lng":118.4018615,"address":null,"hasBabyChanging":false,"hasAccessible":false,"source":"OpenStreetMap","updatedAt":"2026-06-12T07:40:23.325Z","facilityType":"attraction","facilityLabel":"🏞️ 景點","changingTable":false,"wheelchair":false,"needsAddr":false},{"id":8427362417,"name":"高洞坑道","lat":24.4333353,"lng":118.4066244,"address":null,"hasBabyChanging":false,"hasAccessible":false,"source":"OpenStreetMap","updatedAt":"2026-06-12T07:40:23.325Z","facilityType":"attraction","facilityLabel":"🏞️ 景點","changingTable":false,"wheelchair":false,"needsAddr":false},{"id":8427366717,"name":"消波塊","lat":24.4289154,"lng":118.4106473,"address":null,"hasBabyChanging":false,"hasAccessible":false,"source":"OpenStreetMap","updatedAt":"2026-06-12T07:40:23.325Z","facilityType":"attraction","facilityLabel":"🏞️ 景點","changingTable":false,"wheelchair":false,"needsAddr":false},{"id":8427645517,"name":"鐵堡","lat":24.4121019,"lng":118.4278102,"address":null,"hasBabyChanging":false,"hasAccessible":false,"source":"OpenStreetMap","updatedAt":"2026-06-12T07:40:23.325Z","facilityType":"attraction","facilityLabel":"🏞️ 景點","changingTable":false,"wheelchair":false,"needsAddr":false},{"id":8428172918,"name":"峰上巡檢司城","lat":24.4270594,"lng":118.4601774,"address":null,"hasBabyChanging":false,"hasAccessible":false,"source":"OpenStreetMap","updatedAt":"2026-06-12T07:40:23.325Z","facilityType":"attraction","facilityLabel":"🏞️ 景點","changingTable":false,"wheelchair":false,"needsAddr":false},{"id":8428184117,"name":"三哨","lat":24.4284346,"lng":118.4637508,"address":null,"hasBabyChanging":false,"hasAccessible":false,"source":"OpenStreetMap","updatedAt":"2026-06-12T07:40:23.325Z","facilityType":"attraction","facilityLabel":"🏞️ 景點","changingTable":false,"wheelchair":false,"needsAddr":false},{"id":8442128018,"name":"景點","lat":24.4658855,"lng":118.4271699,"address":null,"hasBabyChanging":false,"hasAccessible":false,"source":"OpenStreetMap","updatedAt":"2026-06-12T07:40:23.325Z","facilityType":"attraction","facilityLabel":"🏞️ 景點","changingTable":false,"wheelchair":false,"needsAddr":true},{"id":8442150717,"name":"景點","lat":24.4639144,"lng":118.4223437,"address":null,"hasBabyChanging":false,"hasAccessible":false,"source":"OpenStreetMap","updatedAt":"2026-06-12T07:40:23.325Z","facilityType":"attraction","facilityLabel":"🏞️ 景點","changingTable":false,"wheelchair":false,"needsAddr":true},{"id":8442164117,"name":"景點","lat":24.4628578,"lng":118.4218468,"address":null,"hasBabyChanging":false,"hasAccessible":false,"source":"OpenStreetMap","updatedAt":"2026-06-12T07:40:23.325Z","facilityType":"attraction","facilityLabel":"🏞️ 景點","changingTable":false,"wheelchair":false,"needsAddr":true},{"id":9401049541,"name":"廢陣地","lat":24.4391552,"lng":118.4085694,"address":null,"hasBabyChanging":false,"hasAccessible":false,"source":"OpenStreetMap","updatedAt":"2026-06-12T07:40:23.325Z","facilityType":"attraction","facilityLabel":"🏞️ 景點","changingTable":false,"wheelchair":false,"needsAddr":false},{"id":9401052641,"name":"公共廁所","lat":24.4389533,"lng":118.4083683,"address":null,"hasBabyChanging":false,"hasAccessible":false,"source":"OpenStreetMap","updatedAt":"2026-06-12T07:40:23.325Z","facilityType":"toilet","facilityLabel":null,"changingTable":false,"wheelchair":false,"needsAddr":true},{"id":9839265898,"name":"尚義風獅爺","lat":24.4383547,"lng":118.3676659,"address":null,"hasBabyChanging":false,"hasAccessible":false,"source":"OpenStreetMap","updatedAt":"2026-06-12T07:40:23.325Z","facilityType":"attraction","facilityLabel":"🏞️ 景點","changingTable":false,"wheelchair":false,"needsAddr":false},{"id":9844393817,"name":"3D彩繪","lat":24.4379507,"lng":118.4285399,"address":null,"hasBabyChanging":false,"hasAccessible":false,"source":"OpenStreetMap","updatedAt":"2026-06-12T07:40:23.325Z","facilityType":"attraction","facilityLabel":"🏞️ 景點","changingTable":false,"wheelchair":false,"needsAddr":false},{"id":10142312664,"name":"皇家酒廠 640","lat":24.4277783,"lng":118.4337133,"address":null,"hasBabyChanging":false,"hasAccessible":false,"source":"OpenStreetMap","updatedAt":"2026-06-12T07:40:23.325Z","facilityType":"winery","facilityLabel":"🍶 酒廠","changingTable":false,"wheelchair":false,"needsAddr":false},{"id":10142312722,"name":"金湖衛生所 965","lat":24.4379678,"lng":118.4176223,"address":null,"hasBabyChanging":false,"hasAccessible":false,"source":"OpenStreetMap","updatedAt":"2026-06-12T07:40:23.325Z","facilityType":"clinic","facilityLabel":"🩺 診所","changingTable":false,"wheelchair":false,"needsAddr":false},{"id":10880520283,"name":"海巡署第十二巡防區指揮部","lat":24.4400087,"lng":118.381653,"address":"金門縣金湖鎮尚義200號","hasBabyChanging":false,"hasAccessible":false,"source":"OpenStreetMap","updatedAt":"2026-06-12T07:40:23.325Z","facilityType":"police","facilityLabel":"🚔 派出所","changingTable":false,"wheelchair":false,"needsAddr":false},{"id":10880520285,"name":"海巡署偵防分署金門查緝隊","lat":24.4400038,"lng":118.3817364,"address":"金門縣金湖鎮尚義200號","hasBabyChanging":false,"hasAccessible":false,"source":"OpenStreetMap","updatedAt":"2026-06-12T07:40:23.325Z","facilityType":"police","facilityLabel":"🚔 派出所","changingTable":false,"wheelchair":false,"needsAddr":false},{"id":11021309226,"name":"麥當勞 昇恆昌金湖廣場店","lat":24.4390867,"lng":118.4187279,"address":"金門縣金湖鎮太湖路二段198號","hasBabyChanging":false,"hasAccessible":false,"source":"OpenStreetMap","updatedAt":"2026-06-12T07:40:23.325Z","facilityType":"mcdonalds","facilityLabel":"🍔 麥當勞","changingTable":false,"wheelchair":false,"openingHours":"24/7","needsAddr":false},{"id":13288572780,"name":"公共廁所","lat":24.4382192,"lng":118.3688303,"address":null,"hasBabyChanging":false,"hasAccessible":false,"source":"OpenStreetMap","updatedAt":"2026-06-12T07:40:23.325Z","facilityType":"toilet","facilityLabel":null,"changingTable":false,"wheelchair":false,"needsAddr":true},{"id":13294910969,"name":"金門縣金湖鎮公所清潔隊","lat":24.4331233,"lng":118.4096979,"address":null,"hasBabyChanging":false,"hasAccessible":false,"source":"OpenStreetMap","updatedAt":"2026-06-12T07:40:23.325Z","facilityType":"government","facilityLabel":"🏛 公務機關","changingTable":false,"wheelchair":false,"needsAddr":false},{"id":13620853411,"name":"怡園假山","lat":24.442892,"lng":118.4230067,"address":null,"hasBabyChanging":false,"hasAccessible":false,"source":"OpenStreetMap","updatedAt":"2026-06-12T07:40:23.325Z","facilityType":"attraction","facilityLabel":"🏞️ 景點","changingTable":false,"wheelchair":false,"needsAddr":false},{"id":264043430,"name":"金門縣政府環境保護局","lat":24.4402314,"lng":118.3691318,"address":null,"hasBabyChanging":false,"hasAccessible":false,"source":"OpenStreetMap","updatedAt":"2026-06-12T07:40:23.325Z","facilityType":"government","facilityLabel":"🏛 公務機關","changingTable":false,"wheelchair":false,"needsAddr":false},{"id":325867876,"name":"廟宇","lat":24.4628375,"lng":118.4183775,"address":null,"hasBabyChanging":false,"hasAccessible":false,"source":"OpenStreetMap","updatedAt":"2026-06-12T07:40:23.325Z","facilityType":"temple","facilityLabel":"🛕 廟宇","changingTable":false,"wheelchair":false,"needsAddr":true},{"id":325867879,"name":"海印寺","lat":24.4626605,"lng":118.4184245,"address":"891金門縣金湖鎮太武山1號","hasBabyChanging":false,"hasAccessible":false,"source":"OpenStreetMap","updatedAt":"2026-06-12T07:40:23.325Z","facilityType":"temple","facilityLabel":"🛕 廟宇","changingTable":false,"wheelchair":false,"needsAddr":false},{"id":325867882,"name":"公共廁所","lat":24.4627035,"lng":118.4171767,"address":null,"hasBabyChanging":false,"hasAccessible":false,"source":"OpenStreetMap","updatedAt":"2026-06-12T07:40:23.325Z","facilityType":"toilet","facilityLabel":null,"changingTable":false,"wheelchair":false,"needsAddr":true},{"id":325877278,"name":"公共廁所","lat":24.456139,"lng":118.4026066,"address":null,"hasBabyChanging":false,"hasAccessible":false,"source":"OpenStreetMap","updatedAt":"2026-06-12T07:40:23.325Z","facilityType":"toilet","facilityLabel":null,"changingTable":false,"wheelchair":false,"needsAddr":true},{"id":342731044,"name":"陳景蘭洋樓","lat":24.4373278,"lng":118.3901249,"address":null,"hasBabyChanging":false,"hasAccessible":false,"source":"OpenStreetMap","updatedAt":"2026-06-12T07:40:23.325Z","facilityType":"attraction","facilityLabel":"🏞️ 景點","changingTable":false,"wheelchair":false,"needsAddr":false},{"id":434881157,"name":"金門縣校外會","lat":24.4444963,"lng":118.4288731,"address":"89142金門縣金湖鎮高職農場路1號","hasBabyChanging":false,"hasAccessible":false,"source":"OpenStreetMap","updatedAt":"2026-06-12T07:40:23.325Z","facilityType":"government","facilityLabel":"🏛 公務機關","changingTable":false,"wheelchair":false,"needsAddr":false},{"id":447854985,"name":"金門醫院 0190030516","lat":24.4408065,"lng":118.4180681,"address":"89148金門縣金湖鎮復興路2號","hasBabyChanging":false,"hasAccessible":false,"source":"OpenStreetMap","updatedAt":"2026-06-12T07:40:23.325Z","facilityType":"hospital","facilityLabel":"🏥 醫院","changingTable":false,"wheelchair":false,"needsAddr":false},{"id":462847566,"name":"海灘","lat":24.423616,"lng":118.4554225,"address":null,"hasBabyChanging":false,"hasAccessible":false,"source":"OpenStreetMap","updatedAt":"2026-06-12T07:40:23.325Z","facilityType":"beach","facilityLabel":"🏖️ 沙灘","changingTable":false,"wheelchair":false,"needsAddr":true},{"id":473759861,"name":"海巡署金馬澎分署第九岸巡隊","lat":24.4398799,"lng":118.3816718,"address":"金門縣金湖鎮尚義200號","hasBabyChanging":false,"hasAccessible":false,"source":"OpenStreetMap","updatedAt":"2026-06-12T07:40:23.325Z","facilityType":"police","facilityLabel":"🚔 派出所","changingTable":false,"wheelchair":false,"needsAddr":false},{"id":473760590,"name":"海灘","lat":24.4346557,"lng":118.4036661,"address":null,"hasBabyChanging":false,"hasAccessible":false,"source":"OpenStreetMap","updatedAt":"2026-06-12T07:40:23.325Z","facilityType":"beach","facilityLabel":"🏖️ 沙灘","changingTable":false,"wheelchair":false,"needsAddr":true},{"id":473763465,"name":"溪邊海水浴場","lat":24.4361084,"lng":118.460296,"address":null,"hasBabyChanging":false,"hasAccessible":false,"source":"OpenStreetMap","updatedAt":"2026-06-12T07:40:23.325Z","facilityType":"beach","facilityLabel":"🏖️ 沙灘","changingTable":false,"wheelchair":false,"needsAddr":false},{"id":473763965,"name":"溪邊海水浴場","lat":24.4410581,"lng":118.4653524,"address":null,"hasBabyChanging":false,"hasAccessible":false,"source":"OpenStreetMap","updatedAt":"2026-06-12T07:40:23.325Z","facilityType":"beach","facilityLabel":"🏖️ 沙灘","changingTable":false,"wheelchair":false,"needsAddr":false},{"id":521716805,"name":"加油站","lat":24.4277437,"lng":118.4294656,"address":null,"hasBabyChanging":false,"hasAccessible":false,"source":"OpenStreetMap","updatedAt":"2026-06-12T07:40:23.325Z","facilityType":"fuel","facilityLabel":"⛽ 加油站","changingTable":false,"wheelchair":false,"needsAddr":true},{"id":701097344,"name":"金湖分局","lat":24.4418682,"lng":118.4137879,"address":"金門縣金湖鎮黃海路90-3號","hasBabyChanging":false,"hasAccessible":false,"source":"OpenStreetMap","updatedAt":"2026-06-12T07:40:23.325Z","facilityType":"police","facilityLabel":"🚔 派出所","changingTable":false,"wheelchair":false,"needsAddr":false},{"id":879136503,"name":"金門縣社會福利館","lat":24.4525763,"lng":118.3809437,"address":"891金門縣金湖鎮瓊徑路35號","hasBabyChanging":false,"hasAccessible":false,"source":"OpenStreetMap","updatedAt":"2026-06-12T07:40:23.325Z","facilityType":"government","facilityLabel":"🏛 公務機關","changingTable":false,"wheelchair":false,"needsAddr":false},{"id":973426578,"name":"復國墩漁港","lat":24.4457616,"lng":118.4715568,"address":null,"hasBabyChanging":false,"hasAccessible":false,"source":"OpenStreetMap","updatedAt":"2026-06-12T07:40:23.325Z","facilityType":"harbour","facilityLabel":"⚓ 漁港","changingTable":false,"wheelchair":false,"needsAddr":false},{"id":974522256,"name":"海灘","lat":24.421129,"lng":118.3589716,"address":null,"hasBabyChanging":false,"hasAccessible":false,"source":"OpenStreetMap","updatedAt":"2026-06-12T07:40:23.325Z","facilityType":"beach","facilityLabel":"🏖️ 沙灘","changingTable":false,"wheelchair":false,"needsAddr":true},{"id":1003279694,"name":"海灘","lat":24.4192748,"lng":118.430148,"address":null,"hasBabyChanging":false,"hasAccessible":false,"source":"OpenStreetMap","updatedAt":"2026-06-12T07:40:23.325Z","facilityType":"beach","facilityLabel":"🏖️ 沙灘","changingTable":false,"wheelchair":false,"needsAddr":true},{"id":1003279695,"name":"海灘","lat":24.4259933,"lng":118.4205736,"address":null,"hasBabyChanging":false,"hasAccessible":false,"source":"OpenStreetMap","updatedAt":"2026-06-12T07:40:23.325Z","facilityType":"beach","facilityLabel":"🏖️ 沙灘","changingTable":false,"wheelchair":false,"needsAddr":true},{"id":1072355534,"name":"特約茶室展示館","lat":24.4483053,"lng":118.384844,"address":null,"hasBabyChanging":false,"hasAccessible":false,"source":"OpenStreetMap","updatedAt":"2026-06-12T07:40:23.325Z","facilityType":"museum","facilityLabel":"🖼️ 博物館","changingTable":false,"wheelchair":false,"needsAddr":false},{"id":1119967294,"name":"大立鴻福加油站","lat":24.4439527,"lng":118.3881086,"address":"金門縣金湖鎮瓊徑路7號","hasBabyChanging":false,"hasAccessible":false,"source":"OpenStreetMap","updatedAt":"2026-06-12T07:40:23.325Z","facilityType":"fuel","facilityLabel":"⛽ 加油站","changingTable":false,"wheelchair":false,"needsAddr":false},{"id":1119967800,"name":"加油站","lat":24.4385731,"lng":118.4051994,"address":null,"hasBabyChanging":false,"hasAccessible":false,"source":"OpenStreetMap","updatedAt":"2026-06-12T07:40:23.325Z","facilityType":"fuel","facilityLabel":"⛽ 加油站","changingTable":false,"wheelchair":false,"needsAddr":true},{"id":1312533418,"name":"峰上天后宮","lat":24.431063,"lng":118.4613116,"address":"金門縣金湖鎮蓮庵里13鄰後峯10號","hasBabyChanging":false,"hasAccessible":false,"source":"OpenStreetMap","updatedAt":"2026-06-12T07:40:23.325Z","facilityType":"temple","facilityLabel":"🛕 廟宇","changingTable":false,"wheelchair":false,"needsAddr":false},{"id":1414046283,"name":"俞大維紀念館","lat":24.4430009,"lng":118.4314893,"address":"金門縣金湖鎮山外里15鄰安民1之10號","hasBabyChanging":false,"hasAccessible":false,"source":"OpenStreetMap","updatedAt":"2026-06-12T07:40:23.325Z","facilityType":"museum","facilityLabel":"🖼️ 博物館","changingTable":false,"wheelchair":false,"needsAddr":false},{"id":1414046285,"name":"八二三砲戰紀念館","lat":24.4431783,"lng":118.4324257,"address":"金門縣金湖鎮山外里15鄰安民1之11號","hasBabyChanging":false,"hasAccessible":false,"source":"OpenStreetMap","updatedAt":"2026-06-12T07:40:23.325Z","facilityType":"museum","facilityLabel":"🖼️ 博物館","changingTable":false,"wheelchair":false,"needsAddr":false},{"id":1436695072,"name":"海灘","lat":24.4110968,"lng":118.4334893,"address":null,"hasBabyChanging":false,"hasAccessible":false,"source":"OpenStreetMap","updatedAt":"2026-06-12T07:40:23.325Z","facilityType":"beach","facilityLabel":"🏖️ 沙灘","changingTable":false,"wheelchair":false,"needsAddr":true},{"id":1436695078,"name":"海灘","lat":24.4102276,"lng":118.4375096,"address":null,"hasBabyChanging":false,"hasAccessible":false,"source":"OpenStreetMap","updatedAt":"2026-06-12T07:40:23.325Z","facilityType":"beach","facilityLabel":"🏖️ 沙灘","changingTable":false,"wheelchair":false,"needsAddr":true},{"id":1436718761,"name":"海灘","lat":24.4122382,"lng":118.4330687,"address":null,"hasBabyChanging":false,"hasAccessible":false,"source":"OpenStreetMap","updatedAt":"2026-06-12T07:40:23.325Z","facilityType":"beach","facilityLabel":"🏖️ 沙灘","changingTable":false,"wheelchair":false,"needsAddr":true},{"id":1436718765,"name":"三魚王廟","lat":24.4123996,"lng":118.4334537,"address":null,"hasBabyChanging":false,"hasAccessible":false,"source":"OpenStreetMap","updatedAt":"2026-06-12T07:40:23.325Z","facilityType":"temple","facilityLabel":"🛕 廟宇","changingTable":false,"wheelchair":false,"needsAddr":false},{"id":1436745534,"name":"料羅順濟宮","lat":24.4196651,"lng":118.4345482,"address":null,"hasBabyChanging":false,"hasAccessible":false,"source":"OpenStreetMap","updatedAt":"2026-06-12T07:40:23.325Z","facilityType":"temple","facilityLabel":"🛕 廟宇","changingTable":false,"wheelchair":false,"needsAddr":false},{"id":1436756210,"name":"海灘","lat":24.4452631,"lng":118.4703419,"address":null,"hasBabyChanging":false,"hasAccessible":false,"source":"OpenStreetMap","updatedAt":"2026-06-12T07:40:23.325Z","facilityType":"beach","facilityLabel":"🏖️ 沙灘","changingTable":false,"wheelchair":false,"needsAddr":true},{"id":1442128337,"name":"海灘","lat":24.4078732,"lng":118.4312548,"address":null,"hasBabyChanging":false,"hasAccessible":false,"source":"OpenStreetMap","updatedAt":"2026-06-12T07:40:23.325Z","facilityType":"beach","facilityLabel":"🏖️ 沙灘","changingTable":false,"wheelchair":false,"needsAddr":true},{"id":1449429427,"name":"慈鑾宮","lat":24.4315365,"lng":118.4092329,"address":null,"hasBabyChanging":false,"hasAccessible":false,"source":"OpenStreetMap","updatedAt":"2026-06-12T07:40:23.325Z","facilityType":"temple","facilityLabel":"🛕 廟宇","changingTable":false,"wheelchair":false,"needsAddr":false},{"id":1449429436,"name":"新湖漁港加油站","lat":24.4308278,"lng":118.4111721,"address":null,"hasBabyChanging":false,"hasAccessible":false,"source":"OpenStreetMap","updatedAt":"2026-06-12T07:40:23.325Z","facilityType":"harbour","facilityLabel":"⚓ 漁港","changingTable":false,"wheelchair":false,"needsAddr":false},{"id":1449433012,"name":"新湖漁港安檢所","lat":24.4303237,"lng":118.410375,"address":null,"hasBabyChanging":false,"hasAccessible":false,"source":"OpenStreetMap","updatedAt":"2026-06-12T07:40:23.325Z","facilityType":"harbour","facilityLabel":"⚓ 漁港","changingTable":false,"wheelchair":false,"needsAddr":false},{"id":1450790638,"name":"中正紀念林","lat":24.4426437,"lng":118.431663,"address":null,"hasBabyChanging":false,"hasAccessible":false,"source":"OpenStreetMap","updatedAt":"2026-06-12T07:40:23.325Z","facilityType":"park","facilityLabel":"🌳 公園","changingTable":false,"wheelchair":false,"needsAddr":false},{"id":19805416,"name":"金門航空站航站大廈","lat":24.4357441,"lng":118.368288,"address":null,"hasBabyChanging":true,"hasAccessible":false,"source":"OpenStreetMap","updatedAt":"2026-06-12T07:40:23.325Z","facilityType":"airport","facilityLabel":"✈️ 機場","changingTable":true,"wheelchair":false,"needsAddr":false},{"id":19805417,"name":"機場","lat":24.4350527,"lng":118.3674123,"address":null,"hasBabyChanging":true,"hasAccessible":false,"source":"OpenStreetMap","updatedAt":"2026-06-12T07:40:23.325Z","facilityType":"airport","facilityLabel":"✈️ 機場","changingTable":true,"wheelchair":false,"needsAddr":true},{"id":19839286,"name":"圖書館","lat":24.4419545,"lng":118.4233405,"address":null,"hasBabyChanging":false,"hasAccessible":false,"source":"OpenStreetMap","updatedAt":"2026-06-12T07:40:23.325Z","facilityType":"library","facilityLabel":"📚 圖書館","changingTable":false,"wheelchair":false,"needsAddr":false},{"id":20286176,"name":"海灘","lat":24.4626924,"lng":118.3648319,"address":null,"hasBabyChanging":false,"hasAccessible":false,"source":"OpenStreetMap","updatedAt":"2026-06-12T07:40:23.325Z","facilityType":"beach","facilityLabel":"🏖️ 沙灘","changingTable":false,"wheelchair":false,"needsAddr":true}]}