{"city":"苗栗縣","district":"銅鑼鄉","category":"toilets","updatedAt":"2026-06-12T07:40:23.325Z","rev":1,"count":103,"items":[{"id":290976119,"name":"銅鑼 3180","lat":24.4863255,"lng":120.7860071,"address":null,"hasBabyChanging":false,"hasAccessible":false,"source":"OpenStreetMap","updatedAt":"2026-06-12T07:40:23.325Z","facilityType":"train","facilityLabel":"🚂 火車站","changingTable":false,"wheelchair":false,"needsAddr":false},{"id":2028866713,"name":"廟宇","lat":24.4915486,"lng":120.809854,"address":null,"hasBabyChanging":false,"hasAccessible":false,"source":"OpenStreetMap","updatedAt":"2026-06-12T07:40:23.325Z","facilityType":"temple","facilityLabel":"🛕 廟宇","changingTable":false,"wheelchair":false,"needsAddr":true},{"id":2536766138,"name":"銅鑼分駐所","lat":24.4871157,"lng":120.7872466,"address":"苗栗縣銅鑼鄉銅鑼村中正路122號","hasBabyChanging":false,"hasAccessible":true,"source":"OpenStreetMap","updatedAt":"2026-06-12T07:40:23.325Z","facilityType":"police","facilityLabel":"🚔 派出所","changingTable":false,"wheelchair":true,"needsAddr":false},{"id":2536766196,"name":"雞隆派出所","lat":24.4289011,"lng":120.8084596,"address":"苗栗縣銅鑼鄉盛隆村35號","hasBabyChanging":false,"hasAccessible":false,"source":"OpenStreetMap","updatedAt":"2026-06-12T07:40:23.325Z","facilityType":"police","facilityLabel":"🚔 派出所","changingTable":false,"wheelchair":false,"needsAddr":false},{"id":2553247500,"name":"五穀宮","lat":24.4986805,"lng":120.8050167,"address":null,"hasBabyChanging":false,"hasAccessible":false,"source":"OpenStreetMap","updatedAt":"2026-06-12T07:40:23.325Z","facilityType":"temple","facilityLabel":"🛕 廟宇","changingTable":false,"wheelchair":false,"needsAddr":false},{"id":2578903927,"name":"客屬大橋","lat":24.4743348,"lng":120.8059314,"address":null,"hasBabyChanging":false,"hasAccessible":false,"source":"OpenStreetMap","updatedAt":"2026-06-12T07:40:23.325Z","facilityType":"attraction","facilityLabel":"🏞️ 景點","changingTable":false,"wheelchair":false,"needsAddr":false},{"id":3302172084,"name":"山隆加油站","lat":24.4486807,"lng":120.7794504,"address":null,"hasBabyChanging":false,"hasAccessible":false,"source":"OpenStreetMap","updatedAt":"2026-06-12T07:40:23.325Z","facilityType":"fuel","facilityLabel":"⛽ 加油站","changingTable":false,"wheelchair":false,"needsAddr":false},{"id":3302237261,"name":"台灣中油","lat":24.4806765,"lng":120.7861465,"address":null,"hasBabyChanging":false,"hasAccessible":false,"source":"OpenStreetMap","updatedAt":"2026-06-12T07:40:23.325Z","facilityType":"fuel","facilityLabel":"⛽ 加油站","changingTable":false,"wheelchair":false,"needsAddr":false},{"id":3302237262,"name":"CPC","lat":24.4879589,"lng":120.7870557,"address":null,"hasBabyChanging":false,"hasAccessible":false,"source":"OpenStreetMap","updatedAt":"2026-06-12T07:40:23.325Z","facilityType":"fuel","facilityLabel":"⛽ 加油站","changingTable":false,"wheelchair":false,"openingHours":"Mo-Su 07:00-21:00","needsAddr":false},{"id":3302237290,"name":"全家便利商店","lat":24.4923116,"lng":120.7888627,"address":null,"hasBabyChanging":false,"hasAccessible":false,"source":"OpenStreetMap","updatedAt":"2026-06-12T07:40:23.325Z","facilityType":"convenience","facilityLabel":"🏪 超商","changingTable":false,"wheelchair":false,"needsAddr":false},{"id":3302237291,"name":"山隆加油站","lat":24.4948638,"lng":120.800784,"address":null,"hasBabyChanging":false,"hasAccessible":false,"source":"OpenStreetMap","updatedAt":"2026-06-12T07:40:23.325Z","facilityType":"fuel","facilityLabel":"⛽ 加油站","changingTable":false,"wheelchair":false,"openingHours":"Mo-Su 00:00-23:59","needsAddr":false},{"id":3303496961,"name":"客家大院","lat":24.4723839,"lng":120.803264,"address":null,"hasBabyChanging":false,"hasAccessible":false,"source":"OpenStreetMap","updatedAt":"2026-06-12T07:40:23.325Z","facilityType":"attraction","facilityLabel":"🏞️ 景點","changingTable":false,"wheelchair":false,"needsAddr":false},{"id":4510455415,"name":"Smile","lat":24.4946001,"lng":120.8015427,"address":null,"hasBabyChanging":false,"hasAccessible":false,"source":"OpenStreetMap","updatedAt":"2026-06-12T07:40:23.325Z","facilityType":"fuel","facilityLabel":"⛽ 加油站","changingTable":false,"wheelchair":false,"needsAddr":false},{"id":4796009984,"name":"水母娘娘廟","lat":24.4745434,"lng":120.8013867,"address":null,"hasBabyChanging":false,"hasAccessible":false,"source":"OpenStreetMap","updatedAt":"2026-06-12T07:40:23.325Z","facilityType":"temple","facilityLabel":"🛕 廟宇","changingTable":false,"wheelchair":false,"needsAddr":false},{"id":4796009985,"name":"泉水福德祠","lat":24.4746196,"lng":120.8012084,"address":null,"hasBabyChanging":false,"hasAccessible":false,"source":"OpenStreetMap","updatedAt":"2026-06-12T07:40:23.325Z","facilityType":"temple","facilityLabel":"🛕 廟宇","changingTable":false,"wheelchair":false,"needsAddr":false},{"id":5212728481,"name":"老街","lat":24.496112,"lng":120.7860564,"address":null,"hasBabyChanging":false,"hasAccessible":false,"source":"OpenStreetMap","updatedAt":"2026-06-12T07:40:23.325Z","facilityType":"oldstreet","facilityLabel":"🏮 老街","changingTable":false,"wheelchair":false,"needsAddr":false},{"id":5443122422,"name":"銅鑼鄉公所","lat":24.4870596,"lng":120.7878856,"address":"366苗栗縣銅鑼鄉永樂路15號","hasBabyChanging":false,"hasAccessible":false,"source":"OpenStreetMap","updatedAt":"2026-06-12T07:40:23.325Z","facilityType":"government","facilityLabel":"🏛 公務機關","changingTable":false,"wheelchair":false,"openingHours":"Mo-Fr 08:00-17:00","needsAddr":false},{"id":5443139424,"name":"銅鑼天空步道","lat":24.4592181,"lng":120.7544132,"address":null,"hasBabyChanging":false,"hasAccessible":false,"source":"OpenStreetMap","updatedAt":"2026-06-12T07:40:23.325Z","facilityType":"attraction","facilityLabel":"🏞️ 景點","changingTable":false,"wheelchair":false,"needsAddr":false},{"id":5443149123,"name":"震災紀念碑","lat":24.4895191,"lng":120.7905866,"address":null,"hasBabyChanging":false,"hasAccessible":false,"source":"OpenStreetMap","updatedAt":"2026-06-12T07:40:23.325Z","facilityType":"attraction","facilityLabel":"🏞️ 景點","changingTable":false,"wheelchair":false,"needsAddr":false},{"id":5443149124,"name":"重光診所","lat":24.4874025,"lng":120.7865197,"address":"366苗栗縣銅鑼鄉武聖街10號","hasBabyChanging":false,"hasAccessible":false,"source":"OpenStreetMap","updatedAt":"2026-06-12T07:40:23.325Z","facilityType":"attraction","facilityLabel":"🏞️ 景點","changingTable":false,"wheelchair":false,"needsAddr":false},{"id":5443229521,"name":"銅鑼杭菊花季會場","lat":24.4717162,"lng":120.7765123,"address":null,"hasBabyChanging":false,"hasAccessible":false,"source":"OpenStreetMap","updatedAt":"2026-06-12T07:40:23.325Z","facilityType":"attraction","facilityLabel":"🏞️ 景點","changingTable":false,"wheelchair":false,"needsAddr":false},{"id":5443229621,"name":"銅鑼自行車道東段","lat":24.4764277,"lng":120.776872,"address":null,"hasBabyChanging":false,"hasAccessible":false,"source":"OpenStreetMap","updatedAt":"2026-06-12T07:40:23.325Z","facilityType":"attraction","facilityLabel":"🏞️ 景點","changingTable":false,"wheelchair":false,"needsAddr":false},{"id":6319024839,"name":"公共廁所","lat":24.4863935,"lng":120.7862058,"address":null,"hasBabyChanging":false,"hasAccessible":true,"source":"OpenStreetMap","updatedAt":"2026-06-12T07:40:23.325Z","facilityType":"toilet","facilityLabel":null,"changingTable":false,"wheelchair":true,"needsAddr":true},{"id":6319061085,"name":"高年福德祠","lat":24.4894499,"lng":120.7905691,"address":null,"hasBabyChanging":false,"hasAccessible":false,"source":"OpenStreetMap","updatedAt":"2026-06-12T07:40:23.325Z","facilityType":"temple","facilityLabel":"🛕 廟宇","changingTable":false,"wheelchair":false,"needsAddr":false},{"id":6319062014,"name":"公共廁所","lat":24.4893615,"lng":120.7914937,"address":null,"hasBabyChanging":false,"hasAccessible":true,"source":"OpenStreetMap","updatedAt":"2026-06-12T07:40:23.325Z","facilityType":"toilet","facilityLabel":null,"changingTable":false,"wheelchair":true,"needsAddr":true},{"id":8296302717,"name":"龍貓土地公","lat":24.4985443,"lng":120.7776267,"address":null,"hasBabyChanging":false,"hasAccessible":false,"source":"OpenStreetMap","updatedAt":"2026-06-12T07:40:23.325Z","facilityType":"attraction","facilityLabel":"🏞️ 景點","changingTable":false,"wheelchair":false,"needsAddr":false},{"id":8478463447,"name":"公共廁所","lat":24.4589841,"lng":120.7740247,"address":null,"hasBabyChanging":false,"hasAccessible":false,"source":"OpenStreetMap","updatedAt":"2026-06-12T07:40:23.325Z","facilityType":"toilet","facilityLabel":null,"changingTable":false,"wheelchair":false,"needsAddr":true},{"id":8891590173,"name":"公共廁所","lat":24.463798,"lng":120.7758172,"address":null,"hasBabyChanging":false,"hasAccessible":false,"source":"OpenStreetMap","updatedAt":"2026-06-12T07:40:23.325Z","facilityType":"toilet","facilityLabel":null,"changingTable":false,"wheelchair":false,"needsAddr":true},{"id":9040098782,"name":"廟宇","lat":24.4861667,"lng":120.8005825,"address":null,"hasBabyChanging":false,"hasAccessible":false,"source":"OpenStreetMap","updatedAt":"2026-06-12T07:40:23.325Z","facilityType":"temple","facilityLabel":"🛕 廟宇","changingTable":false,"wheelchair":false,"needsAddr":true},{"id":9049504590,"name":"廟宇","lat":24.4897825,"lng":120.8033379,"address":null,"hasBabyChanging":false,"hasAccessible":false,"source":"OpenStreetMap","updatedAt":"2026-06-12T07:40:23.325Z","facilityType":"temple","facilityLabel":"🛕 廟宇","changingTable":false,"wheelchair":false,"needsAddr":true},{"id":9049921778,"name":"廟宇","lat":24.4796349,"lng":120.8060051,"address":null,"hasBabyChanging":false,"hasAccessible":false,"source":"OpenStreetMap","updatedAt":"2026-06-12T07:40:23.325Z","facilityType":"temple","facilityLabel":"🛕 廟宇","changingTable":false,"wheelchair":false,"needsAddr":true},{"id":9074189911,"name":"福德祠","lat":24.4977677,"lng":120.7871454,"address":null,"hasBabyChanging":false,"hasAccessible":false,"source":"OpenStreetMap","updatedAt":"2026-06-12T07:40:23.325Z","facilityType":"temple","facilityLabel":"🛕 廟宇","changingTable":false,"wheelchair":false,"needsAddr":false},{"id":9074189912,"name":"萬善祠","lat":24.4981385,"lng":120.7870871,"address":null,"hasBabyChanging":false,"hasAccessible":false,"source":"OpenStreetMap","updatedAt":"2026-06-12T07:40:23.325Z","facilityType":"temple","facilityLabel":"🛕 廟宇","changingTable":false,"wheelchair":false,"needsAddr":false},{"id":9112345538,"name":"懷德祠","lat":24.4923869,"lng":120.788059,"address":null,"hasBabyChanging":false,"hasAccessible":false,"source":"OpenStreetMap","updatedAt":"2026-06-12T07:40:23.325Z","facilityType":"temple","facilityLabel":"🛕 廟宇","changingTable":false,"wheelchair":false,"needsAddr":false},{"id":9112345539,"name":"彌陀祠","lat":24.4924305,"lng":120.788016,"address":null,"hasBabyChanging":false,"hasAccessible":false,"source":"OpenStreetMap","updatedAt":"2026-06-12T07:40:23.325Z","facilityType":"temple","facilityLabel":"🛕 廟宇","changingTable":false,"wheelchair":false,"needsAddr":false},{"id":9112345547,"name":"石母祠","lat":24.49249,"lng":120.7879656,"address":null,"hasBabyChanging":false,"hasAccessible":false,"source":"OpenStreetMap","updatedAt":"2026-06-12T07:40:23.325Z","facilityType":"temple","facilityLabel":"🛕 廟宇","changingTable":false,"wheelchair":false,"needsAddr":false},{"id":9147220782,"name":"廟宇","lat":24.5008666,"lng":120.7753337,"address":null,"hasBabyChanging":false,"hasAccessible":false,"source":"OpenStreetMap","updatedAt":"2026-06-12T07:40:23.325Z","facilityType":"temple","facilityLabel":"🛕 廟宇","changingTable":false,"wheelchair":false,"needsAddr":true},{"id":9147220783,"name":"福德祠","lat":24.4974981,"lng":120.777678,"address":null,"hasBabyChanging":false,"hasAccessible":false,"source":"OpenStreetMap","updatedAt":"2026-06-12T07:40:23.325Z","facilityType":"temple","facilityLabel":"🛕 廟宇","changingTable":false,"wheelchair":false,"needsAddr":false},{"id":9147220793,"name":"廟宇","lat":24.4981003,"lng":120.7791301,"address":null,"hasBabyChanging":false,"hasAccessible":false,"source":"OpenStreetMap","updatedAt":"2026-06-12T07:40:23.325Z","facilityType":"temple","facilityLabel":"🛕 廟宇","changingTable":false,"wheelchair":false,"needsAddr":true},{"id":9147239334,"name":"福德祠","lat":24.4982356,"lng":120.7825831,"address":null,"hasBabyChanging":false,"hasAccessible":false,"source":"OpenStreetMap","updatedAt":"2026-06-12T07:40:23.325Z","facilityType":"temple","facilityLabel":"🛕 廟宇","changingTable":false,"wheelchair":false,"needsAddr":false},{"id":9147239335,"name":"樹泉寺法尊堂","lat":24.4945622,"lng":120.7778359,"address":null,"hasBabyChanging":false,"hasAccessible":false,"source":"OpenStreetMap","updatedAt":"2026-06-12T07:40:23.325Z","facilityType":"temple","facilityLabel":"🛕 廟宇","changingTable":false,"wheelchair":false,"needsAddr":false},{"id":9147239336,"name":"廣德宮","lat":24.5045624,"lng":120.7827612,"address":null,"hasBabyChanging":false,"hasAccessible":false,"source":"OpenStreetMap","updatedAt":"2026-06-12T07:40:23.325Z","facilityType":"temple","facilityLabel":"🛕 廟宇","changingTable":false,"wheelchair":false,"needsAddr":false},{"id":9147239337,"name":"福德祠","lat":24.5070001,"lng":120.7838979,"address":null,"hasBabyChanging":false,"hasAccessible":false,"source":"OpenStreetMap","updatedAt":"2026-06-12T07:40:23.325Z","facilityType":"temple","facilityLabel":"🛕 廟宇","changingTable":false,"wheelchair":false,"needsAddr":false},{"id":9147239341,"name":"宏善堂","lat":24.5141126,"lng":120.7892882,"address":null,"hasBabyChanging":false,"hasAccessible":false,"source":"OpenStreetMap","updatedAt":"2026-06-12T07:40:23.325Z","facilityType":"temple","facilityLabel":"🛕 廟宇","changingTable":false,"wheelchair":false,"needsAddr":false},{"id":9147239346,"name":"福德祠","lat":24.5149518,"lng":120.787486,"address":null,"hasBabyChanging":false,"hasAccessible":false,"source":"OpenStreetMap","updatedAt":"2026-06-12T07:40:23.325Z","facilityType":"temple","facilityLabel":"🛕 廟宇","changingTable":false,"wheelchair":false,"needsAddr":false},{"id":9149404290,"name":"出水坑口福德祠","lat":24.4621349,"lng":120.7762079,"address":null,"hasBabyChanging":false,"hasAccessible":false,"source":"OpenStreetMap","updatedAt":"2026-06-12T07:40:23.325Z","facilityType":"temple","facilityLabel":"🛕 廟宇","changingTable":false,"wheelchair":false,"needsAddr":false},{"id":9149404294,"name":"福德祠","lat":24.4645283,"lng":120.7759523,"address":null,"hasBabyChanging":false,"hasAccessible":false,"source":"OpenStreetMap","updatedAt":"2026-06-12T07:40:23.325Z","facilityType":"temple","facilityLabel":"🛕 廟宇","changingTable":false,"wheelchair":false,"needsAddr":false},{"id":9149404295,"name":"廟宇","lat":24.4722768,"lng":120.7776346,"address":null,"hasBabyChanging":false,"hasAccessible":false,"source":"OpenStreetMap","updatedAt":"2026-06-12T07:40:23.325Z","facilityType":"temple","facilityLabel":"🛕 廟宇","changingTable":false,"wheelchair":false,"needsAddr":true},{"id":9149404296,"name":"萬安橋福德祠","lat":24.4781753,"lng":120.7769484,"address":null,"hasBabyChanging":false,"hasAccessible":false,"source":"OpenStreetMap","updatedAt":"2026-06-12T07:40:23.325Z","facilityType":"temple","facilityLabel":"🛕 廟宇","changingTable":false,"wheelchair":false,"needsAddr":false},{"id":9149404297,"name":"九湖武聖廟","lat":24.4771915,"lng":120.7764356,"address":null,"hasBabyChanging":false,"hasAccessible":false,"source":"OpenStreetMap","updatedAt":"2026-06-12T07:40:23.325Z","facilityType":"temple","facilityLabel":"🛕 廟宇","changingTable":false,"wheelchair":false,"needsAddr":false},{"id":9149404298,"name":"福德祠","lat":24.4845324,"lng":120.7768043,"address":null,"hasBabyChanging":false,"hasAccessible":false,"source":"OpenStreetMap","updatedAt":"2026-06-12T07:40:23.325Z","facilityType":"temple","facilityLabel":"🛕 廟宇","changingTable":false,"wheelchair":false,"needsAddr":false},{"id":9149404299,"name":"廟宇","lat":24.4865587,"lng":120.7829959,"address":null,"hasBabyChanging":false,"hasAccessible":false,"source":"OpenStreetMap","updatedAt":"2026-06-12T07:40:23.325Z","facilityType":"temple","facilityLabel":"🛕 廟宇","changingTable":false,"wheelchair":false,"needsAddr":true},{"id":9149404300,"name":"廟宇","lat":24.487909,"lng":120.7836958,"address":null,"hasBabyChanging":false,"hasAccessible":false,"source":"OpenStreetMap","updatedAt":"2026-06-12T07:40:23.325Z","facilityType":"temple","facilityLabel":"🛕 廟宇","changingTable":false,"wheelchair":false,"needsAddr":true},{"id":9149404309,"name":"明新堂","lat":24.4765603,"lng":120.7890613,"address":null,"hasBabyChanging":false,"hasAccessible":false,"source":"OpenStreetMap","updatedAt":"2026-06-12T07:40:23.325Z","facilityType":"temple","facilityLabel":"🛕 廟宇","changingTable":false,"wheelchair":false,"needsAddr":false},{"id":9149404311,"name":"至倫宮","lat":24.470867,"lng":120.7890019,"address":null,"hasBabyChanging":false,"hasAccessible":false,"source":"OpenStreetMap","updatedAt":"2026-06-12T07:40:23.325Z","facilityType":"temple","facilityLabel":"🛕 廟宇","changingTable":false,"wheelchair":false,"needsAddr":false},{"id":9149404312,"name":"天靈寺","lat":24.4678111,"lng":120.791158,"address":null,"hasBabyChanging":false,"hasAccessible":false,"source":"OpenStreetMap","updatedAt":"2026-06-12T07:40:23.325Z","facilityType":"temple","facilityLabel":"🛕 廟宇","changingTable":false,"wheelchair":false,"needsAddr":false},{"id":9149404313,"name":"廟宇","lat":24.496091,"lng":120.8031208,"address":null,"hasBabyChanging":false,"hasAccessible":false,"source":"OpenStreetMap","updatedAt":"2026-06-12T07:40:23.325Z","facilityType":"temple","facilityLabel":"🛕 廟宇","changingTable":false,"wheelchair":false,"needsAddr":true},{"id":9149404314,"name":"廟宇","lat":24.5037554,"lng":120.8036866,"address":null,"hasBabyChanging":false,"hasAccessible":false,"source":"OpenStreetMap","updatedAt":"2026-06-12T07:40:23.325Z","facilityType":"temple","facilityLabel":"🛕 廟宇","changingTable":false,"wheelchair":false,"needsAddr":true},{"id":9149404316,"name":"福德祠","lat":24.5064973,"lng":120.8051114,"address":null,"hasBabyChanging":false,"hasAccessible":false,"source":"OpenStreetMap","updatedAt":"2026-06-12T07:40:23.325Z","facilityType":"temple","facilityLabel":"🛕 廟宇","changingTable":false,"wheelchair":false,"needsAddr":false},{"id":9156820681,"name":"廟宇","lat":24.5223542,"lng":120.811397,"address":null,"hasBabyChanging":false,"hasAccessible":false,"source":"OpenStreetMap","updatedAt":"2026-06-12T07:40:23.325Z","facilityType":"temple","facilityLabel":"🛕 廟宇","changingTable":false,"wheelchair":false,"needsAddr":true},{"id":9156820691,"name":"福德祠","lat":24.5053434,"lng":120.8088012,"address":null,"hasBabyChanging":false,"hasAccessible":false,"source":"OpenStreetMap","updatedAt":"2026-06-12T07:40:23.325Z","facilityType":"temple","facilityLabel":"🛕 廟宇","changingTable":false,"wheelchair":false,"needsAddr":false},{"id":9156820692,"name":"溪邊福德祠","lat":24.5083134,"lng":120.8089858,"address":null,"hasBabyChanging":false,"hasAccessible":false,"source":"OpenStreetMap","updatedAt":"2026-06-12T07:40:23.325Z","facilityType":"temple","facilityLabel":"🛕 廟宇","changingTable":false,"wheelchair":false,"needsAddr":false},{"id":9156820695,"name":"福德祠","lat":24.5048023,"lng":120.8119027,"address":null,"hasBabyChanging":false,"hasAccessible":false,"source":"OpenStreetMap","updatedAt":"2026-06-12T07:40:23.325Z","facilityType":"temple","facilityLabel":"🛕 廟宇","changingTable":false,"wheelchair":false,"needsAddr":false},{"id":9156820696,"name":"廟宇","lat":24.508122,"lng":120.8109467,"address":null,"hasBabyChanging":false,"hasAccessible":false,"source":"OpenStreetMap","updatedAt":"2026-06-12T07:40:23.325Z","facilityType":"temple","facilityLabel":"🛕 廟宇","changingTable":false,"wheelchair":false,"needsAddr":true},{"id":9156820697,"name":"福德祠","lat":24.5114194,"lng":120.8119062,"address":null,"hasBabyChanging":false,"hasAccessible":false,"source":"OpenStreetMap","updatedAt":"2026-06-12T07:40:23.325Z","facilityType":"temple","facilityLabel":"🛕 廟宇","changingTable":false,"wheelchair":false,"needsAddr":false},{"id":9184309168,"name":"廟宇","lat":24.4677305,"lng":120.7822689,"address":null,"hasBabyChanging":false,"hasAccessible":false,"source":"OpenStreetMap","updatedAt":"2026-06-12T07:40:23.325Z","facilityType":"temple","facilityLabel":"🛕 廟宇","changingTable":false,"wheelchair":false,"needsAddr":true},{"id":9184309169,"name":"福德祠","lat":24.4452001,"lng":120.7750917,"address":null,"hasBabyChanging":false,"hasAccessible":false,"source":"OpenStreetMap","updatedAt":"2026-06-12T07:40:23.325Z","facilityType":"temple","facilityLabel":"🛕 廟宇","changingTable":false,"wheelchair":false,"needsAddr":false},{"id":9392308497,"name":"廟宇","lat":24.4911298,"lng":120.7866204,"address":null,"hasBabyChanging":false,"hasAccessible":false,"source":"OpenStreetMap","updatedAt":"2026-06-12T07:40:23.325Z","facilityType":"temple","facilityLabel":"🛕 廟宇","changingTable":false,"wheelchair":false,"needsAddr":true},{"id":9392317833,"name":"無極聖池宮","lat":24.5054706,"lng":120.7842764,"address":null,"hasBabyChanging":false,"hasAccessible":false,"source":"OpenStreetMap","updatedAt":"2026-06-12T07:40:23.325Z","facilityType":"temple","facilityLabel":"🛕 廟宇","changingTable":false,"wheelchair":false,"needsAddr":false},{"id":9594396043,"name":"公共廁所","lat":24.4476624,"lng":120.7584956,"address":null,"hasBabyChanging":false,"hasAccessible":false,"source":"OpenStreetMap","updatedAt":"2026-06-12T07:40:23.325Z","facilityType":"toilet","facilityLabel":null,"changingTable":false,"wheelchair":false,"needsAddr":true},{"id":9892999119,"name":"公共廁所","lat":24.4664996,"lng":120.7518477,"address":null,"hasBabyChanging":false,"hasAccessible":false,"source":"OpenStreetMap","updatedAt":"2026-06-12T07:40:23.325Z","facilityType":"toilet","facilityLabel":null,"changingTable":false,"wheelchair":false,"needsAddr":true},{"id":10018735970,"name":"福德祠","lat":24.4726988,"lng":120.8041105,"address":null,"hasBabyChanging":false,"hasAccessible":false,"source":"OpenStreetMap","updatedAt":"2026-06-12T07:40:23.325Z","facilityType":"temple","facilityLabel":"🛕 廟宇","changingTable":false,"wheelchair":false,"needsAddr":false},{"id":11078420059,"name":"天佑宮","lat":24.4306977,"lng":120.8086952,"address":null,"hasBabyChanging":false,"hasAccessible":false,"source":"OpenStreetMap","updatedAt":"2026-06-12T07:40:23.325Z","facilityType":"temple","facilityLabel":"🛕 廟宇","changingTable":false,"wheelchair":false,"needsAddr":false},{"id":11757025440,"name":"廟宇","lat":24.5187044,"lng":120.7892167,"address":null,"hasBabyChanging":false,"hasAccessible":false,"source":"OpenStreetMap","updatedAt":"2026-06-12T07:40:23.325Z","facilityType":"temple","facilityLabel":"🛕 廟宇","changingTable":false,"wheelchair":false,"needsAddr":true},{"id":12345970867,"name":"臺灣基督長老教會 銅鑼教會","lat":24.4915654,"lng":120.7886277,"address":null,"hasBabyChanging":false,"hasAccessible":false,"source":"OpenStreetMap","updatedAt":"2026-06-12T07:40:23.325Z","facilityType":"temple","facilityLabel":"🛕 廟宇","changingTable":false,"wheelchair":false,"needsAddr":false},{"id":12345970868,"name":"銅鑼鄉召會","lat":24.4895622,"lng":120.7890326,"address":null,"hasBabyChanging":false,"hasAccessible":false,"source":"OpenStreetMap","updatedAt":"2026-06-12T07:40:23.325Z","facilityType":"temple","facilityLabel":"🛕 廟宇","changingTable":false,"wheelchair":false,"needsAddr":false},{"id":12345970869,"name":"天爵寺(觀音宮)","lat":24.493962,"lng":120.7886425,"address":null,"hasBabyChanging":false,"hasAccessible":false,"source":"OpenStreetMap","updatedAt":"2026-06-12T07:40:23.325Z","facilityType":"temple","facilityLabel":"🛕 廟宇","changingTable":false,"wheelchair":false,"needsAddr":false},{"id":12345970870,"name":"銅鑼五福廟","lat":24.4919732,"lng":120.7900714,"address":null,"hasBabyChanging":false,"hasAccessible":false,"source":"OpenStreetMap","updatedAt":"2026-06-12T07:40:23.325Z","facilityType":"temple","facilityLabel":"🛕 廟宇","changingTable":false,"wheelchair":false,"needsAddr":false},{"id":13340396931,"name":"廟宇","lat":24.513725,"lng":120.8055658,"address":null,"hasBabyChanging":false,"hasAccessible":false,"source":"OpenStreetMap","updatedAt":"2026-06-12T07:40:23.325Z","facilityType":"temple","facilityLabel":"🛕 廟宇","changingTable":false,"wheelchair":false,"needsAddr":true},{"id":13340396939,"name":"廟宇","lat":24.52001,"lng":120.8081309,"address":null,"hasBabyChanging":false,"hasAccessible":false,"source":"OpenStreetMap","updatedAt":"2026-06-12T07:40:23.325Z","facilityType":"temple","facilityLabel":"🛕 廟宇","changingTable":false,"wheelchair":false,"needsAddr":true},{"id":13340396940,"name":"福德祠","lat":24.5171206,"lng":120.8074369,"address":null,"hasBabyChanging":false,"hasAccessible":false,"source":"OpenStreetMap","updatedAt":"2026-06-12T07:40:23.325Z","facilityType":"temple","facilityLabel":"🛕 廟宇","changingTable":false,"wheelchair":false,"needsAddr":false},{"id":13727501848,"name":"土地公廟","lat":24.4997415,"lng":120.7894766,"address":null,"hasBabyChanging":false,"hasAccessible":false,"source":"OpenStreetMap","updatedAt":"2026-06-12T07:40:23.325Z","facilityType":"community","facilityLabel":"🏘️ 活動中心","changingTable":false,"wheelchair":false,"needsAddr":false},{"id":241405457,"name":"慈惠堂","lat":24.4474704,"lng":120.7900327,"address":null,"hasBabyChanging":false,"hasAccessible":false,"source":"OpenStreetMap","updatedAt":"2026-06-12T07:40:23.325Z","facilityType":"temple","facilityLabel":"🛕 廟宇","changingTable":false,"wheelchair":false,"needsAddr":false},{"id":308671753,"name":"公共廁所","lat":24.4716911,"lng":120.8034732,"address":null,"hasBabyChanging":false,"hasAccessible":false,"source":"OpenStreetMap","updatedAt":"2026-06-12T07:40:23.325Z","facilityType":"toilet","facilityLabel":null,"changingTable":false,"wheelchair":false,"needsAddr":true},{"id":311513631,"name":"廟宇","lat":24.4911588,"lng":120.7898709,"address":null,"hasBabyChanging":false,"hasAccessible":false,"source":"OpenStreetMap","updatedAt":"2026-06-12T07:40:23.325Z","facilityType":"temple","facilityLabel":"🛕 廟宇","changingTable":false,"wheelchair":false,"needsAddr":true},{"id":311513639,"name":"銅鑼天后宮","lat":24.4921464,"lng":120.7890317,"address":null,"hasBabyChanging":false,"hasAccessible":false,"source":"OpenStreetMap","updatedAt":"2026-06-12T07:40:23.325Z","facilityType":"temple","facilityLabel":"🛕 廟宇","changingTable":false,"wheelchair":false,"needsAddr":false},{"id":355386414,"name":"臺灣客家文化館","lat":24.4628097,"lng":120.7706763,"address":"366苗栗縣銅鑼鄉銅科南路6號","hasBabyChanging":false,"hasAccessible":false,"source":"OpenStreetMap","updatedAt":"2026-06-12T07:40:23.325Z","facilityType":"park","facilityLabel":"🌳 公園","changingTable":false,"wheelchair":false,"openingHours":"09:00-17:00","needsAddr":false},{"id":495825865,"name":"銅鑼鄉竹森社區發展協會","lat":24.5042506,"lng":120.782906,"address":"苗栗縣銅鑼鄉4鄰22-1號","hasBabyChanging":false,"hasAccessible":false,"source":"OpenStreetMap","updatedAt":"2026-06-12T07:40:23.325Z","facilityType":"community","facilityLabel":"🏘️ 活動中心","changingTable":false,"wheelchair":false,"needsAddr":false},{"id":496003972,"name":"福德祠","lat":24.5040284,"lng":120.7827556,"address":null,"hasBabyChanging":false,"hasAccessible":false,"source":"OpenStreetMap","updatedAt":"2026-06-12T07:40:23.325Z","facilityType":"temple","facilityLabel":"🛕 廟宇","changingTable":false,"wheelchair":false,"needsAddr":false},{"id":582910807,"name":"銅鑼鄉立圖書館","lat":24.4859159,"lng":120.7885422,"address":"苗栗縣銅鑼鄉新興路1號","hasBabyChanging":false,"hasAccessible":false,"source":"OpenStreetMap","updatedAt":"2026-06-12T07:40:23.325Z","facilityType":"library","facilityLabel":"📚 圖書館","changingTable":false,"wheelchair":false,"needsAddr":false},{"id":675211903,"name":"銅鑼灣會館","lat":24.4834566,"lng":120.7939011,"address":"苗栗縣銅鑼鄉新興路78號","hasBabyChanging":false,"hasAccessible":false,"source":"OpenStreetMap","updatedAt":"2026-06-12T07:40:23.325Z","facilityType":"community","facilityLabel":"🏘️ 活動中心","changingTable":false,"wheelchair":false,"needsAddr":false},{"id":739699503,"name":"保二總隊銅鑼小隊","lat":24.4632642,"lng":120.7727615,"address":null,"hasBabyChanging":false,"hasAccessible":false,"source":"OpenStreetMap","updatedAt":"2026-06-12T07:40:23.325Z","facilityType":"police","facilityLabel":"🚔 派出所","changingTable":false,"wheelchair":false,"needsAddr":false},{"id":740208850,"name":"九華山大興善寺","lat":24.4464909,"lng":120.7597333,"address":null,"hasBabyChanging":false,"hasAccessible":false,"source":"OpenStreetMap","updatedAt":"2026-06-12T07:40:23.325Z","facilityType":"temple","facilityLabel":"🛕 廟宇","changingTable":false,"wheelchair":false,"needsAddr":false},{"id":740208851,"name":"廟宇","lat":24.4467115,"lng":120.7594906,"address":null,"hasBabyChanging":false,"hasAccessible":false,"source":"OpenStreetMap","updatedAt":"2026-06-12T07:40:23.325Z","facilityType":"temple","facilityLabel":"🛕 廟宇","changingTable":false,"wheelchair":false,"needsAddr":true},{"id":740208856,"name":"公共廁所","lat":24.4492234,"lng":120.7616004,"address":null,"hasBabyChanging":false,"hasAccessible":false,"source":"OpenStreetMap","updatedAt":"2026-06-12T07:40:23.325Z","facilityType":"toilet","facilityLabel":null,"changingTable":false,"wheelchair":false,"needsAddr":true},{"id":813812819,"name":"銅鑼鄉中平集會所","lat":24.4971459,"lng":120.8087846,"address":"苗栗縣銅鑼鄉12鄰中平157之5號","hasBabyChanging":false,"hasAccessible":false,"source":"OpenStreetMap","updatedAt":"2026-06-12T07:40:23.325Z","facilityType":"community","facilityLabel":"🏘️ 活動中心","changingTable":false,"wheelchair":false,"needsAddr":false},{"id":959823186,"name":"苗栗縣生態保育教育中心(苗栗縣動物收容所)","lat":24.4994536,"lng":120.7932651,"address":null,"hasBabyChanging":false,"hasAccessible":false,"source":"OpenStreetMap","updatedAt":"2026-06-12T07:40:23.325Z","facilityType":"government","facilityLabel":"🏛 公務機關","changingTable":false,"wheelchair":false,"needsAddr":false},{"id":982187326,"name":"福興社區活動中心","lat":24.4912201,"lng":120.7905996,"address":null,"hasBabyChanging":false,"hasAccessible":false,"source":"OpenStreetMap","updatedAt":"2026-06-12T07:40:23.325Z","facilityType":"community","facilityLabel":"🏘️ 活動中心","changingTable":false,"wheelchair":false,"needsAddr":false},{"id":983788663,"name":"標準檢驗局實驗室","lat":24.4685779,"lng":120.7531669,"address":null,"hasBabyChanging":false,"hasAccessible":false,"source":"OpenStreetMap","updatedAt":"2026-06-12T07:40:23.325Z","facilityType":"government","facilityLabel":"🏛 公務機關","changingTable":false,"wheelchair":false,"needsAddr":false},{"id":1030351609,"name":"福勇祠","lat":24.424495,"lng":120.8368195,"address":null,"hasBabyChanging":false,"hasAccessible":false,"source":"OpenStreetMap","updatedAt":"2026-06-12T07:40:23.325Z","facilityType":"temple","facilityLabel":"🛕 廟宇","changingTable":false,"wheelchair":false,"needsAddr":false},{"id":1158394939,"name":"銅鑼園區服務處","lat":24.4635503,"lng":120.7725253,"address":null,"hasBabyChanging":false,"hasAccessible":false,"source":"OpenStreetMap","updatedAt":"2026-06-12T07:40:23.325Z","facilityType":"government","facilityLabel":"🏛 公務機關","changingTable":false,"wheelchair":false,"needsAddr":false},{"id":1193522569,"name":"莫內秘密花園","lat":24.417393,"lng":120.7982605,"address":null,"hasBabyChanging":false,"hasAccessible":false,"source":"OpenStreetMap","updatedAt":"2026-06-12T07:40:23.325Z","facilityType":"attraction","facilityLabel":"🏞️ 景點","changingTable":false,"wheelchair":false,"needsAddr":false},{"id":1226866211,"name":"慈雲宮","lat":24.4393798,"lng":120.8364974,"address":null,"hasBabyChanging":false,"hasAccessible":false,"source":"OpenStreetMap","updatedAt":"2026-06-12T07:40:23.325Z","facilityType":"temple","facilityLabel":"🛕 廟宇","changingTable":false,"wheelchair":false,"needsAddr":false}]}