{"city":"南投縣","district":"竹山鎮","category":"medical","updatedAt":"2026-06-12T02:55:18.707Z","rev":1,"count":92,"items":[{"id":3751688377,"name":"弘仁診所","lat":23.7574009,"lng":120.6834895,"address":"557南投縣竹山鎮集山路三段948-1號","hasBabyChanging":false,"hasAccessible":false,"source":"OpenStreetMap","updatedAt":"2026-06-12T02:55:18.707Z","facilityType":"clinic","facilityLabel":"🩺 診所","phone":null,"website":null,"wheelchair":false,"needsAddr":false},{"id":3751688379,"name":"智瑤小兒科診所","lat":23.7571889,"lng":120.6835533,"address":"557南投縣竹山鎮集山路三段879號","hasBabyChanging":false,"hasAccessible":false,"source":"OpenStreetMap","updatedAt":"2026-06-12T02:55:18.707Z","facilityType":"clinic","facilityLabel":"👶 小兒科","phone":null,"website":null,"wheelchair":false,"needsAddr":false},{"id":4081156428,"name":"快安藥局","lat":23.7668173,"lng":120.7064321,"address":null,"hasBabyChanging":false,"hasAccessible":false,"source":"OpenStreetMap","updatedAt":"2026-06-12T02:55:18.707Z","facilityType":"pharmacy","facilityLabel":"💊 藥局","phone":null,"website":null,"wheelchair":false,"needsAddr":true},{"id":4081170547,"name":"石田牙醫診所","lat":23.7636997,"lng":120.7016967,"address":null,"hasBabyChanging":false,"hasAccessible":false,"source":"OpenStreetMap","updatedAt":"2026-06-12T02:55:18.707Z","facilityType":"dentist","facilityLabel":"🦷 牙醫","phone":null,"website":null,"wheelchair":false,"needsAddr":true},{"id":4081170549,"name":"鼎億堂中醫診所","lat":23.7635279,"lng":120.7013467,"address":"557南投縣竹山鎮集山路三段213號","hasBabyChanging":false,"hasAccessible":false,"source":"OpenStreetMap","updatedAt":"2026-06-12T02:55:18.707Z","facilityType":"clinic","facilityLabel":"🩺 診所","phone":"+886 4 9264 2557","website":null,"wheelchair":false,"needsAddr":false},{"id":4081170557,"name":"人安藥局","lat":23.7648989,"lng":120.7035863,"address":"557南投縣竹山鎮集山路三段68號","hasBabyChanging":false,"hasAccessible":false,"source":"OpenStreetMap","updatedAt":"2026-06-12T02:55:18.707Z","facilityType":"pharmacy","facilityLabel":"💊 藥局","phone":"+886 4 9264 1986","website":null,"wheelchair":false,"needsAddr":false},{"id":4660568716,"name":"啄木鳥藥局","lat":23.7618507,"lng":120.6961063,"address":"557南投縣竹山鎮集山路三段405號","hasBabyChanging":false,"hasAccessible":false,"source":"OpenStreetMap","updatedAt":"2026-06-12T02:55:18.707Z","facilityType":"pharmacy","facilityLabel":"💊 藥局","phone":"+886 4 9265 9287","website":null,"wheelchair":false,"needsAddr":false},{"id":5997174287,"name":"得安診所","lat":23.7571932,"lng":120.6864625,"address":"557南投縣竹山鎮竹山路2號","hasBabyChanging":false,"hasAccessible":false,"source":"OpenStreetMap","updatedAt":"2026-06-12T02:55:18.707Z","facilityType":"clinic","facilityLabel":"🩺 診所","phone":null,"website":null,"wheelchair":false,"needsAddr":false},{"id":6227687478,"name":"陳義本診所","lat":23.7578612,"lng":120.6846092,"address":"557南投縣竹山鎮集山路三段833號","hasBabyChanging":false,"hasAccessible":false,"source":"OpenStreetMap","updatedAt":"2026-06-12T02:55:18.707Z","facilityType":"clinic","facilityLabel":"🩺 診所","phone":"+886 4 9265 5907","website":null,"wheelchair":false,"needsAddr":false},{"id":6231856466,"name":"大明中醫診所","lat":23.7601101,"lng":120.6848115,"address":"557南投縣竹山鎮大明路183號","hasBabyChanging":false,"hasAccessible":false,"source":"OpenStreetMap","updatedAt":"2026-06-12T02:55:18.707Z","facilityType":"clinic","facilityLabel":"🩺 診所","phone":"+886 4 9265 4936","website":null,"wheelchair":false,"needsAddr":false},{"id":6264193399,"name":"佑幼耳鼻喉科診所","lat":23.7570229,"lng":120.6832391,"address":"557南投縣竹山鎮集山路三段893號","hasBabyChanging":false,"hasAccessible":false,"source":"OpenStreetMap","updatedAt":"2026-06-12T02:55:18.707Z","facilityType":"clinic","facilityLabel":"👂 耳鼻喉科","phone":null,"website":null,"wheelchair":false,"needsAddr":false},{"id":6264193442,"name":"詹外婦產科診所","lat":23.7598452,"lng":120.6898447,"address":"557南投縣竹山鎮集山路三段623巷1號","hasBabyChanging":false,"hasAccessible":false,"source":"OpenStreetMap","updatedAt":"2026-06-12T02:55:18.707Z","facilityType":"clinic","facilityLabel":"🩺 診所","phone":null,"website":null,"wheelchair":false,"needsAddr":false},{"id":6264193444,"name":"福倫健保藥局","lat":23.7587494,"lng":120.6857561,"address":"557南投縣竹山鎮集山路三段858號","hasBabyChanging":false,"hasAccessible":false,"source":"OpenStreetMap","updatedAt":"2026-06-12T02:55:18.707Z","facilityType":"pharmacy","facilityLabel":"💊 藥局","phone":"+886 4 9265 8518","website":null,"wheelchair":false,"needsAddr":false},{"id":6264193450,"name":"萬安中醫診所","lat":23.7585599,"lng":120.6856624,"address":"557南投縣竹山鎮集山路三段785號","hasBabyChanging":false,"hasAccessible":false,"source":"OpenStreetMap","updatedAt":"2026-06-12T02:55:18.707Z","facilityType":"clinic","facilityLabel":"🩺 診所","phone":"+886 4 9264 9649","website":null,"wheelchair":false,"needsAddr":false},{"id":6264193455,"name":"惠元診所","lat":23.7562325,"lng":120.6913754,"address":"557南投縣竹山鎮中正巷27-99號","hasBabyChanging":false,"hasAccessible":false,"source":"OpenStreetMap","updatedAt":"2026-06-12T02:55:18.707Z","facilityType":"clinic","facilityLabel":"🩺 診所","phone":"+886 4 9265 1932","website":null,"wheelchair":false,"needsAddr":false},{"id":6266382377,"name":"宏明堂藥局","lat":23.7561384,"lng":120.6830404,"address":"557南投縣竹山鎮橫街88號","hasBabyChanging":false,"hasAccessible":false,"source":"OpenStreetMap","updatedAt":"2026-06-12T02:55:18.707Z","facilityType":"pharmacy","facilityLabel":"💊 藥局","phone":null,"website":null,"wheelchair":false,"needsAddr":false},{"id":6278214833,"name":"庶煌診所","lat":23.7573569,"lng":120.6838456,"address":"557南投縣竹山鎮下橫街52號","hasBabyChanging":false,"hasAccessible":false,"source":"OpenStreetMap","updatedAt":"2026-06-12T02:55:18.707Z","facilityType":"clinic","facilityLabel":"🩺 診所","phone":null,"website":null,"wheelchair":false,"needsAddr":false},{"id":7255464848,"name":"仁惠藥局","lat":23.7997456,"lng":120.7134954,"address":"557南投縣竹山鎮集山路二段99號","hasBabyChanging":false,"hasAccessible":false,"source":"OpenStreetMap","updatedAt":"2026-06-12T02:55:18.707Z","facilityType":"pharmacy","facilityLabel":"💊 藥局","phone":"+886 49 2622158","website":null,"wheelchair":false,"needsAddr":false},{"id":7740524200,"name":"潔明眼科診所","lat":23.7567503,"lng":120.6815755,"address":"557南投縣竹山鎮前山路一段23號","hasBabyChanging":false,"hasAccessible":false,"source":"OpenStreetMap","updatedAt":"2026-06-12T02:55:18.707Z","facilityType":"clinic","facilityLabel":"🩺 診所","phone":"+886 4 9265 2991","website":null,"wheelchair":false,"needsAddr":false},{"id":7740524203,"name":"杏如皮膚科診所","lat":23.759227,"lng":120.6865991,"address":"557南投縣竹山鎮集山路三段820號","hasBabyChanging":false,"hasAccessible":false,"source":"OpenStreetMap","updatedAt":"2026-06-12T02:55:18.707Z","facilityType":"clinic","facilityLabel":"🩺 診所","phone":null,"website":null,"wheelchair":false,"needsAddr":false},{"id":9926256383,"name":"宗和蔘藥行","lat":23.7578479,"lng":120.6851806,"address":"55746南投縣竹山鎮祖師街54號","hasBabyChanging":false,"hasAccessible":false,"source":"OpenStreetMap","updatedAt":"2026-06-12T02:55:18.707Z","facilityType":"pharmacy","facilityLabel":"💊 藥局","phone":null,"website":null,"wheelchair":false,"needsAddr":false},{"id":9926256385,"name":"生元藥行","lat":23.7577393,"lng":120.6835582,"address":"557南投縣竹山鎮下橫街54-3號","hasBabyChanging":false,"hasAccessible":false,"source":"OpenStreetMap","updatedAt":"2026-06-12T02:55:18.707Z","facilityType":"pharmacy","facilityLabel":"💊 藥局","phone":null,"website":null,"wheelchair":false,"needsAddr":false},{"id":9926256410,"name":"苹慈中醫診所","lat":23.7571439,"lng":120.6838645,"address":"557南投縣竹山鎮下橫街53-8號","hasBabyChanging":false,"hasAccessible":false,"source":"OpenStreetMap","updatedAt":"2026-06-12T02:55:18.707Z","facilityType":"clinic","facilityLabel":"🩺 診所","phone":"+886 4 9265 4246","website":null,"wheelchair":false,"needsAddr":false},{"id":9926308020,"name":"江牙醫診所","lat":23.7572897,"lng":120.6839044,"address":"557南投縣竹山鎮下橫街50號","hasBabyChanging":false,"hasAccessible":false,"source":"OpenStreetMap","updatedAt":"2026-06-12T02:55:18.707Z","facilityType":"dentist","facilityLabel":"🦷 牙醫","phone":"+886 4 9264 3850","website":null,"wheelchair":false,"needsAddr":false},{"id":9926308021,"name":"明仁藥局","lat":23.7573862,"lng":120.6834509,"address":"557南投縣竹山鎮集山路三段948-2號","hasBabyChanging":false,"hasAccessible":false,"source":"OpenStreetMap","updatedAt":"2026-06-12T02:55:18.707Z","facilityType":"pharmacy","facilityLabel":"💊 藥局","phone":null,"website":null,"wheelchair":false,"needsAddr":false},{"id":9926308022,"name":"慈仁藥局","lat":23.7574655,"lng":120.6836403,"address":"557南投縣竹山鎮集山路三段942號","hasBabyChanging":false,"hasAccessible":false,"source":"OpenStreetMap","updatedAt":"2026-06-12T02:55:18.707Z","facilityType":"pharmacy","facilityLabel":"💊 藥局","phone":"+886 4 9264 3924","website":null,"wheelchair":false,"needsAddr":false},{"id":9926308046,"name":"銘彥童藥局","lat":23.7579329,"lng":120.6847306,"address":"557南投縣竹山鎮集山路三段827號","hasBabyChanging":false,"hasAccessible":false,"source":"OpenStreetMap","updatedAt":"2026-06-12T02:55:18.707Z","facilityType":"pharmacy","facilityLabel":"💊 藥局","phone":"+886 4 9264 2045","website":null,"wheelchair":false,"needsAddr":false},{"id":9926308050,"name":"濟生一藥局","lat":23.7576322,"lng":120.6858003,"address":"557南投縣竹山鎮雲林路2-28號","hasBabyChanging":false,"hasAccessible":false,"source":"OpenStreetMap","updatedAt":"2026-06-12T02:55:18.707Z","facilityType":"pharmacy","facilityLabel":"💊 藥局","phone":"+886 4 9264 5510","website":null,"wheelchair":false,"needsAddr":false},{"id":9929806223,"name":"葉婦產科附設醫學美容皮膚科診所","lat":23.7605632,"lng":120.6870678,"address":"557南投縣竹山鎮大明路194號","hasBabyChanging":false,"hasAccessible":false,"source":"OpenStreetMap","updatedAt":"2026-06-12T02:55:18.707Z","facilityType":"clinic","facilityLabel":"🩺 診所","phone":null,"website":null,"wheelchair":false,"needsAddr":false},{"id":9929806241,"name":"陳耀宗診所","lat":23.7595033,"lng":120.6864093,"address":"557南投縣竹山鎮集山路三段816號","hasBabyChanging":false,"hasAccessible":false,"source":"OpenStreetMap","updatedAt":"2026-06-12T02:55:18.707Z","facilityType":"clinic","facilityLabel":"🩺 診所","phone":"+886 4 9265 3722","website":null,"wheelchair":false,"needsAddr":false},{"id":9929806242,"name":"維淇藥師藥局","lat":23.7595319,"lng":120.6863903,"address":"557南投縣竹山鎮集山路三段816-1號","hasBabyChanging":false,"hasAccessible":false,"source":"OpenStreetMap","updatedAt":"2026-06-12T02:55:18.707Z","facilityType":"pharmacy","facilityLabel":"💊 藥局","phone":null,"website":null,"wheelchair":false,"needsAddr":false},{"id":9929806243,"name":"謝明哲診所","lat":23.7595712,"lng":120.6863714,"address":"557南投縣竹山鎮集山路三段816-2號","hasBabyChanging":false,"hasAccessible":false,"source":"OpenStreetMap","updatedAt":"2026-06-12T02:55:18.707Z","facilityType":"clinic","facilityLabel":"🩺 診所","phone":"+886 4 9266 0583","website":null,"wheelchair":false,"needsAddr":false},{"id":9929806244,"name":"益民診所","lat":23.759624,"lng":120.6863442,"address":"557南投縣竹山鎮集山路三段816-4號","hasBabyChanging":false,"hasAccessible":false,"source":"OpenStreetMap","updatedAt":"2026-06-12T02:55:18.707Z","facilityType":"clinic","facilityLabel":"🩺 診所","phone":"+886 4 9266 0639","website":null,"wheelchair":false,"needsAddr":false},{"id":9929806245,"name":"耀聖藥局","lat":23.7596655,"lng":120.686307,"address":"557南投縣竹山鎮集山路三段816-5號","hasBabyChanging":false,"hasAccessible":false,"source":"OpenStreetMap","updatedAt":"2026-06-12T02:55:18.707Z","facilityType":"pharmacy","facilityLabel":"💊 藥局","phone":"+886 4 9265 2267","website":null,"wheelchair":false,"needsAddr":false},{"id":9929806246,"name":"喆喆耳鼻喉科診所","lat":23.7597372,"lng":120.6862642,"address":"557南投縣竹山鎮集山路三段816-6號","hasBabyChanging":false,"hasAccessible":false,"source":"OpenStreetMap","updatedAt":"2026-06-12T02:55:18.707Z","facilityType":"clinic","facilityLabel":"👂 耳鼻喉科","phone":null,"website":null,"wheelchair":false,"needsAddr":false},{"id":9929806260,"name":"永樂中醫診所","lat":23.7586579,"lng":120.6858711,"address":"557南投縣竹山鎮集山路三段777號","hasBabyChanging":false,"hasAccessible":false,"source":"OpenStreetMap","updatedAt":"2026-06-12T02:55:18.707Z","facilityType":"clinic","facilityLabel":"🩺 診所","phone":"+886 49 265 8495","website":null,"wheelchair":false,"needsAddr":false},{"id":9929806269,"name":"維美牙醫診所","lat":23.758429,"lng":120.6854268,"address":"557南投縣竹山鎮集山路三段797號","hasBabyChanging":false,"hasAccessible":false,"source":"OpenStreetMap","updatedAt":"2026-06-12T02:55:18.707Z","facilityType":"dentist","facilityLabel":"🦷 牙醫","phone":"+886 4 9263 9689","website":null,"wheelchair":false,"needsAddr":false},{"id":9929806281,"name":"護安獸醫院","lat":23.7576379,"lng":120.6842669,"address":"557南投縣竹山鎮集山路三段849號","hasBabyChanging":false,"hasAccessible":false,"source":"OpenStreetMap","updatedAt":"2026-06-12T02:55:18.707Z","facilityType":"vet","facilityLabel":"🐾 動物醫院","phone":"+886 4 9264 6633","website":null,"wheelchair":false,"needsAddr":false},{"id":9929806299,"name":"沈仁諒診所","lat":23.7581289,"lng":120.6833223,"address":"557南投縣竹山鎮下橫街58-7號","hasBabyChanging":false,"hasAccessible":false,"source":"OpenStreetMap","updatedAt":"2026-06-12T02:55:18.707Z","facilityType":"clinic","facilityLabel":"🩺 診所","phone":"+886 4 9264 8276","website":null,"wheelchair":false,"needsAddr":false},{"id":9929806310,"name":"金山國術館","lat":23.7588006,"lng":120.6828479,"address":"557南投縣竹山鎮下橫街106-1號","hasBabyChanging":false,"hasAccessible":false,"source":"OpenStreetMap","updatedAt":"2026-06-12T02:55:18.707Z","facilityType":"bonesetting","facilityLabel":"🦴 國術館","phone":null,"website":null,"wheelchair":false,"needsAddr":false},{"id":9951049715,"name":"潘藥局","lat":23.755729,"lng":120.6849712,"address":"557南投縣竹山鎮下橫街26-11號","hasBabyChanging":false,"hasAccessible":false,"source":"OpenStreetMap","updatedAt":"2026-06-12T02:55:18.707Z","facilityType":"pharmacy","facilityLabel":"💊 藥局","phone":"+886 4 9264 5613","website":null,"wheelchair":false,"needsAddr":false},{"id":9951049718,"name":"林惠生中西藥局","lat":23.7553661,"lng":120.6852368,"address":"557南投縣竹山鎮下橫街26-2號","hasBabyChanging":false,"hasAccessible":false,"source":"OpenStreetMap","updatedAt":"2026-06-12T02:55:18.707Z","facilityType":"pharmacy","facilityLabel":"💊 藥局","phone":"+886 4 9264 0556","website":null,"wheelchair":false,"needsAddr":false},{"id":9951049753,"name":"谷光西藥房","lat":23.758369,"lng":120.6884214,"address":"557南投縣竹山鎮中正巷27-40號","hasBabyChanging":false,"hasAccessible":false,"source":"OpenStreetMap","updatedAt":"2026-06-12T02:55:18.707Z","facilityType":"pharmacy","facilityLabel":"💊 藥局","phone":null,"website":null,"wheelchair":false,"needsAddr":false},{"id":10262967484,"name":"建強國術館","lat":23.757822,"lng":120.6863279,"address":"557南投縣竹山鎮雲林路3-4號","hasBabyChanging":false,"hasAccessible":false,"source":"OpenStreetMap","updatedAt":"2026-06-12T02:55:18.707Z","facilityType":"bonesetting","facilityLabel":"🦴 國術館","phone":"+886 9 1965 2931","website":null,"wheelchair":false,"needsAddr":false},{"id":10262967494,"name":"慶安蔘藥行","lat":23.7585118,"lng":120.6879557,"address":"557南投縣竹山鎮竹山路1-10號","hasBabyChanging":false,"hasAccessible":false,"source":"OpenStreetMap","updatedAt":"2026-06-12T02:55:18.707Z","facilityType":"pharmacy","facilityLabel":"💊 藥局","phone":"+886 4 9264 3725","website":null,"wheelchair":false,"needsAddr":false},{"id":10262967495,"name":"杏源蔘藥行","lat":23.7584203,"lng":120.6878773,"address":"557南投縣竹山鎮竹山路1-7號","hasBabyChanging":false,"hasAccessible":false,"source":"OpenStreetMap","updatedAt":"2026-06-12T02:55:18.707Z","facilityType":"pharmacy","facilityLabel":"💊 藥局","phone":"+886 4 9264 7195","website":null,"wheelchair":false,"needsAddr":false},{"id":10265174040,"name":"葆德堂參藥行","lat":23.7551063,"lng":120.6835947,"address":"557南投縣竹山鎮竹山路141號","hasBabyChanging":false,"hasAccessible":false,"source":"OpenStreetMap","updatedAt":"2026-06-12T02:55:18.707Z","facilityType":"pharmacy","facilityLabel":"💊 藥局","phone":"+886 4 9264 3551","website":null,"wheelchair":false,"needsAddr":false},{"id":10265174048,"name":"仁厚藥局","lat":23.7550672,"lng":120.6835214,"address":"557南投縣竹山鎮竹山路143號","hasBabyChanging":false,"hasAccessible":false,"source":"OpenStreetMap","updatedAt":"2026-06-12T02:55:18.707Z","facilityType":"pharmacy","facilityLabel":"💊 藥局","phone":"+886 4 9265 7368","website":null,"wheelchair":false,"needsAddr":false},{"id":10265174069,"name":"濟仁堂藥房","lat":23.7540114,"lng":120.6833241,"address":"557南投縣竹山鎮頂橫街2-2號","hasBabyChanging":false,"hasAccessible":false,"source":"OpenStreetMap","updatedAt":"2026-06-12T02:55:18.707Z","facilityType":"pharmacy","facilityLabel":"💊 藥局","phone":"+886 4 9264 3394","website":null,"wheelchair":false,"needsAddr":false},{"id":10265174070,"name":"方聖藥局","lat":23.7541843,"lng":120.6830128,"address":"557南投縣竹山鎮頂橫街7-2號","hasBabyChanging":false,"hasAccessible":false,"source":"OpenStreetMap","updatedAt":"2026-06-12T02:55:18.707Z","facilityType":"pharmacy","facilityLabel":"💊 藥局","phone":null,"website":null,"wheelchair":false,"needsAddr":false},{"id":10265174081,"name":"回生堂藥局","lat":23.7539469,"lng":120.6836323,"address":"557南投縣竹山鎮菜園路46-2號","hasBabyChanging":false,"hasAccessible":false,"source":"OpenStreetMap","updatedAt":"2026-06-12T02:55:18.707Z","facilityType":"pharmacy","facilityLabel":"💊 藥局","phone":"+886 4 9264 3771","website":null,"wheelchair":false,"needsAddr":false},{"id":10298672666,"name":"惠群中醫診所","lat":23.7561579,"lng":120.6829149,"address":"557南投縣竹山鎮橫街79號","hasBabyChanging":false,"hasAccessible":false,"source":"OpenStreetMap","updatedAt":"2026-06-12T02:55:18.707Z","facilityType":"clinic","facilityLabel":"🩺 診所","phone":"+886 4 9263 0702","website":null,"wheelchair":false,"needsAddr":false},{"id":10298672672,"name":"國清藥局","lat":23.7562414,"lng":120.6834596,"address":"557南投縣竹山鎮雲林路44-3號","hasBabyChanging":false,"hasAccessible":false,"source":"OpenStreetMap","updatedAt":"2026-06-12T02:55:18.707Z","facilityType":"pharmacy","facilityLabel":"💊 藥局","phone":"+886 4 9264 3860","website":null,"wheelchair":false,"needsAddr":false},{"id":10298672676,"name":"逢安蔘藥行","lat":23.7564373,"lng":120.6837729,"address":"557南投縣竹山鎮雲林路34號","hasBabyChanging":false,"hasAccessible":false,"source":"OpenStreetMap","updatedAt":"2026-06-12T02:55:18.707Z","facilityType":"pharmacy","facilityLabel":"💊 藥局","phone":"+886 4 9264 3761","website":null,"wheelchair":false,"needsAddr":false},{"id":10298672700,"name":"博愛藥局","lat":23.7561869,"lng":120.6835248,"address":"557南投縣竹山鎮雲林路35號","hasBabyChanging":false,"hasAccessible":false,"source":"OpenStreetMap","updatedAt":"2026-06-12T02:55:18.707Z","facilityType":"pharmacy","facilityLabel":"💊 藥局","phone":"+886 4 9264 2748","website":null,"wheelchair":false,"needsAddr":false},{"id":10298672703,"name":"早安藥局","lat":23.7561063,"lng":120.6833721,"address":"557南投縣竹山鎮雲林路41號","hasBabyChanging":false,"hasAccessible":false,"source":"OpenStreetMap","updatedAt":"2026-06-12T02:55:18.707Z","facilityType":"pharmacy","facilityLabel":"💊 藥局","phone":"+886 4 9265 1032","website":null,"wheelchair":false,"needsAddr":false},{"id":10305787967,"name":"仁山藥局","lat":23.7583466,"lng":120.686324,"address":"557南投縣竹山鎮昭德街23號","hasBabyChanging":false,"hasAccessible":false,"source":"OpenStreetMap","updatedAt":"2026-06-12T02:55:18.707Z","facilityType":"pharmacy","facilityLabel":"💊 藥局","phone":"+886 4 9265 7720","website":null,"wheelchair":false,"needsAddr":false},{"id":10313263071,"name":"正新牙醫診所","lat":23.7556278,"lng":120.6833872,"address":"557南投縣竹山鎮橫街72號","hasBabyChanging":false,"hasAccessible":false,"source":"OpenStreetMap","updatedAt":"2026-06-12T02:55:18.707Z","facilityType":"dentist","facilityLabel":"🦷 牙醫","phone":"+886 4 9265 6466","website":null,"wheelchair":false,"needsAddr":false},{"id":10553763823,"name":"劉輔仁眼科診所","lat":23.7571592,"lng":120.6797317,"address":"557南投縣竹山鎮大明路95號","hasBabyChanging":false,"hasAccessible":false,"source":"OpenStreetMap","updatedAt":"2026-06-12T02:55:18.707Z","facilityType":"clinic","facilityLabel":"🩺 診所","phone":"+886 4 9264 2494","website":null,"wheelchair":false,"needsAddr":false},{"id":10574826000,"name":"泰和藥局","lat":23.7532808,"lng":120.677805,"address":"557南投縣竹山鎮自強路33號","hasBabyChanging":false,"hasAccessible":false,"source":"OpenStreetMap","updatedAt":"2026-06-12T02:55:18.707Z","facilityType":"pharmacy","facilityLabel":"💊 藥局","phone":"+886 4 9264 3092","website":null,"wheelchair":false,"needsAddr":false},{"id":10577021203,"name":"全安藥局","lat":23.7551068,"lng":120.6821707,"address":"557南投縣竹山鎮頂橫街4-12號","hasBabyChanging":false,"hasAccessible":false,"source":"OpenStreetMap","updatedAt":"2026-06-12T02:55:18.707Z","facilityType":"pharmacy","facilityLabel":"💊 藥局","phone":"+886 4 9265 4599","website":null,"wheelchair":false,"needsAddr":false},{"id":10577021207,"name":"景新蔘藥行","lat":23.754919,"lng":120.6822566,"address":"557南投縣竹山鎮頂橫街13號","hasBabyChanging":false,"hasAccessible":false,"source":"OpenStreetMap","updatedAt":"2026-06-12T02:55:18.707Z","facilityType":"pharmacy","facilityLabel":"💊 藥局","phone":"+886 4 9264 8953","website":null,"wheelchair":false,"needsAddr":false},{"id":10577021218,"name":"氏林藥局","lat":23.7546753,"lng":120.6816884,"address":"557南投縣竹山鎮雲林路73號","hasBabyChanging":false,"hasAccessible":false,"source":"OpenStreetMap","updatedAt":"2026-06-12T02:55:18.707Z","facilityType":"pharmacy","facilityLabel":"💊 藥局","phone":"+886 4 9264 5829","website":null,"wheelchair":false,"needsAddr":false},{"id":10577021226,"name":"皇英藥局","lat":23.7549207,"lng":120.6809238,"address":"557南投縣竹山鎮林圯街27-1號","hasBabyChanging":false,"hasAccessible":false,"source":"OpenStreetMap","updatedAt":"2026-06-12T02:55:18.707Z","facilityType":"pharmacy","facilityLabel":"💊 藥局","phone":null,"website":null,"wheelchair":false,"needsAddr":false},{"id":10577021227,"name":"信通蔘藥行","lat":23.7547899,"lng":120.6810584,"address":"557南投縣竹山鎮林圯街23號","hasBabyChanging":false,"hasAccessible":false,"source":"OpenStreetMap","updatedAt":"2026-06-12T02:55:18.707Z","facilityType":"pharmacy","facilityLabel":"💊 藥局","phone":"+886 4 9265 2135","website":null,"wheelchair":false,"needsAddr":false},{"id":10577033542,"name":"曾雅展牙醫診所","lat":23.7540809,"lng":120.6819618,"address":"557南投縣竹山鎮林圯街14-2號","hasBabyChanging":false,"hasAccessible":false,"source":"OpenStreetMap","updatedAt":"2026-06-12T02:55:18.707Z","facilityType":"dentist","facilityLabel":"🦷 牙醫","phone":"+886 4 9264 3391","website":null,"wheelchair":false,"needsAddr":false},{"id":10577033549,"name":"竹山藥局","lat":23.7538031,"lng":120.681948,"address":"557南投縣竹山鎮竹山路150-2號","hasBabyChanging":false,"hasAccessible":false,"source":"OpenStreetMap","updatedAt":"2026-06-12T02:55:18.707Z","facilityType":"pharmacy","facilityLabel":"💊 藥局","phone":"+886 4 9264 4930","website":null,"wheelchair":false,"needsAddr":false},{"id":10577033550,"name":"光華西藥房","lat":23.7537736,"lng":120.681915,"address":"557南投縣竹山鎮竹山路150-3號","hasBabyChanging":false,"hasAccessible":false,"source":"OpenStreetMap","updatedAt":"2026-06-12T02:55:18.707Z","facilityType":"pharmacy","facilityLabel":"💊 藥局","phone":"+886 4 9264 2977","website":null,"wheelchair":false,"needsAddr":false},{"id":10577033553,"name":"慈生中藥房","lat":23.7533318,"lng":120.6814418,"address":"557南投縣竹山鎮竹山路160號","hasBabyChanging":false,"hasAccessible":false,"source":"OpenStreetMap","updatedAt":"2026-06-12T02:55:18.707Z","facilityType":"pharmacy","facilityLabel":"💊 藥局","phone":"+886 4 9264 4919","website":null,"wheelchair":false,"needsAddr":false},{"id":10585566074,"name":"大樹藥局","lat":23.7568583,"lng":120.6820631,"address":"557004南投縣竹山鎮前山路一段2號","hasBabyChanging":false,"hasAccessible":false,"source":"OpenStreetMap","updatedAt":"2026-06-12T02:55:18.707Z","facilityType":"pharmacy","facilityLabel":"💊 藥局","phone":"+886 4 9265 6232","website":"https://www.greattree.com.tw","wheelchair":false,"needsAddr":false},{"id":10585692538,"name":"佑安診所","lat":23.7560807,"lng":120.6817457,"address":"557南投縣竹山鎮集山路三段1008號","hasBabyChanging":false,"hasAccessible":false,"source":"OpenStreetMap","updatedAt":"2026-06-12T02:55:18.707Z","facilityType":"clinic","facilityLabel":"🩺 診所","phone":"+886 4 9265 2342","website":null,"wheelchair":false,"needsAddr":false},{"id":10808078174,"name":"佑康國術館","lat":23.7541502,"lng":120.6811133,"address":"557南投縣竹山鎮雲林路87號","hasBabyChanging":false,"hasAccessible":false,"source":"OpenStreetMap","updatedAt":"2026-06-12T02:55:18.707Z","facilityType":"bonesetting","facilityLabel":"🦴 國術館","phone":null,"website":null,"wheelchair":false,"needsAddr":false},{"id":10808090354,"name":"濟安國藥號","lat":23.7553918,"lng":120.6823489,"address":"557南投縣竹山鎮雲林路62-5號","hasBabyChanging":false,"hasAccessible":false,"source":"OpenStreetMap","updatedAt":"2026-06-12T02:55:18.707Z","facilityType":"pharmacy","facilityLabel":"💊 藥局","phone":"+886 4 9264 2858","website":null,"wheelchair":false,"needsAddr":false},{"id":10808090362,"name":"正壽蔘藥行","lat":23.7537492,"lng":120.6798319,"address":"557南投縣竹山鎮埔頭街12-9號","hasBabyChanging":false,"hasAccessible":false,"source":"OpenStreetMap","updatedAt":"2026-06-12T02:55:18.707Z","facilityType":"pharmacy","facilityLabel":"💊 藥局","phone":null,"website":null,"wheelchair":false,"needsAddr":false},{"id":10808090390,"name":"正安中藥","lat":23.7557069,"lng":120.6828391,"address":"557南投縣竹山鎮雲林路51號","hasBabyChanging":false,"hasAccessible":false,"source":"OpenStreetMap","updatedAt":"2026-06-12T02:55:18.707Z","facilityType":"pharmacy","facilityLabel":"💊 藥局","phone":null,"website":null,"wheelchair":false,"needsAddr":false},{"id":295691051,"name":"東華醫院","lat":23.7643347,"lng":120.7001001,"address":"557南投縣竹山鎮集山路三段272巷16號","hasBabyChanging":false,"hasAccessible":false,"source":"OpenStreetMap","updatedAt":"2026-06-12T02:55:18.707Z","facilityType":"hospital","facilityLabel":"🏥 醫院","phone":null,"website":null,"wheelchair":false,"needsAddr":false},{"id":405991255,"name":"春臨診所","lat":23.766922,"lng":120.7060568,"address":"557南投縣竹山鎮集山路三段18號","hasBabyChanging":false,"hasAccessible":false,"source":"OpenStreetMap","updatedAt":"2026-06-12T02:55:18.707Z","facilityType":"clinic","facilityLabel":"🩺 診所","phone":null,"website":null,"wheelchair":false,"needsAddr":false},{"id":635887281,"name":"竹山鎮衛生所","lat":23.7593859,"lng":120.6721598,"address":"557南投縣竹山鎮公所路126號","hasBabyChanging":false,"hasAccessible":false,"source":"OpenStreetMap","updatedAt":"2026-06-12T02:55:18.707Z","facilityType":"health_center","facilityLabel":"🏥 衛生所","phone":"+886 4 9264 2026","website":null,"wheelchair":false,"needsAddr":false},{"id":665309564,"name":"優適藥局","lat":23.7599829,"lng":120.6858329,"address":"557南投縣竹山鎮大明路149-5號","hasBabyChanging":false,"hasAccessible":false,"source":"OpenStreetMap","updatedAt":"2026-06-12T02:55:18.707Z","facilityType":"pharmacy","facilityLabel":"💊 藥局","phone":null,"website":null,"wheelchair":false,"needsAddr":false},{"id":665770168,"name":"竹山秀傳醫院","lat":23.7999874,"lng":120.7142334,"address":"557南投縣竹山鎮集山路二段75號","hasBabyChanging":false,"hasAccessible":false,"source":"OpenStreetMap","updatedAt":"2026-06-12T02:55:18.707Z","facilityType":"hospital","facilityLabel":"🏥 醫院","phone":"+886 4 9262 4266","website":null,"wheelchair":false,"needsAddr":false},{"id":669180395,"name":"啄木鳥藥局","lat":23.7551338,"lng":120.6809157,"address":"557南投縣竹山鎮集山路三段1011號","hasBabyChanging":false,"hasAccessible":false,"source":"OpenStreetMap","updatedAt":"2026-06-12T02:55:18.707Z","facilityType":"pharmacy","facilityLabel":"💊 藥局","phone":"+886 4 9265 5345","website":null,"wheelchair":false,"needsAddr":false},{"id":669180396,"name":"呂外科婦產科診所","lat":23.7552402,"lng":120.6811522,"address":"557南投縣竹山鎮集山路三段1001號","hasBabyChanging":false,"hasAccessible":false,"source":"OpenStreetMap","updatedAt":"2026-06-12T02:55:18.707Z","facilityType":"clinic","facilityLabel":"🩺 診所","phone":"+886 4 9264 2801","website":null,"wheelchair":false,"needsAddr":false},{"id":670417635,"name":"益川診所","lat":23.7552648,"lng":120.6824735,"address":"557南投縣竹山鎮雲林路59號","hasBabyChanging":false,"hasAccessible":false,"source":"OpenStreetMap","updatedAt":"2026-06-12T02:55:18.707Z","facilityType":"clinic","facilityLabel":"🩺 診所","phone":null,"website":null,"wheelchair":false,"needsAddr":false},{"id":1122707779,"name":"安馨竹山內科診所","lat":23.7608726,"lng":120.6934706,"address":"557南投縣竹山鎮集山路三段483號","hasBabyChanging":false,"hasAccessible":false,"source":"OpenStreetMap","updatedAt":"2026-06-12T02:55:18.707Z","facilityType":"clinic","facilityLabel":"🩺 診所","phone":"+886 4 9263 0208","website":null,"wheelchair":false,"needsAddr":false},{"id":1131859499,"name":"慶興堂中醫診所","lat":23.7567407,"lng":120.6805749,"address":"557南投縣竹山鎮頂橫街60號","hasBabyChanging":false,"hasAccessible":false,"source":"OpenStreetMap","updatedAt":"2026-06-12T02:55:18.707Z","facilityType":"clinic","facilityLabel":"🩺 診所","phone":"+886 4 9265 9766","website":null,"wheelchair":false,"needsAddr":false},{"id":1135597685,"name":"大樹藥局","lat":23.7590047,"lng":120.6800369,"address":"557002南投縣竹山鎮大明路482號","hasBabyChanging":false,"hasAccessible":false,"source":"OpenStreetMap","updatedAt":"2026-06-12T02:55:18.707Z","facilityType":"pharmacy","facilityLabel":"💊 藥局","phone":"+886 49 265 2500","website":"https://www.greattree.com.tw","wheelchair":false,"needsAddr":false},{"id":1135597702,"name":"瑞竹診所","lat":23.7620065,"lng":120.6815605,"address":"557南投縣竹山鎮枋坪巷2-9號","hasBabyChanging":false,"hasAccessible":false,"source":"OpenStreetMap","updatedAt":"2026-06-12T02:55:18.707Z","facilityType":"clinic","facilityLabel":"🩺 診所","phone":"+886 4 9264 3687","website":null,"wheelchair":false,"needsAddr":false},{"id":1135597707,"name":"佑全保健藥妝","lat":23.7559558,"lng":120.682034,"address":"557南投縣竹山鎮集山路三段955號","hasBabyChanging":false,"hasAccessible":false,"source":"OpenStreetMap","updatedAt":"2026-06-12T02:55:18.707Z","facilityType":"pharmacy","facilityLabel":"💊 藥局","phone":"+886 4 9265 6614","website":null,"wheelchair":false,"needsAddr":false},{"id":1135597708,"name":"屈臣氏","lat":23.7559375,"lng":120.6818916,"address":"557南投縣竹山鎮集山路三段959號","hasBabyChanging":false,"hasAccessible":false,"source":"OpenStreetMap","updatedAt":"2026-06-12T02:55:18.707Z","facilityType":"pharmacy","facilityLabel":"💊 藥妝","phone":"+886 4 9265 3080","website":null,"wheelchair":false,"needsAddr":false},{"id":1162139798,"name":"仁濟診所","lat":23.754049,"lng":120.6807122,"address":"557南投縣竹山鎮雲林路108號","hasBabyChanging":false,"hasAccessible":false,"source":"OpenStreetMap","updatedAt":"2026-06-12T02:55:18.707Z","facilityType":"clinic","facilityLabel":"🩺 診所","phone":"+886 4 9265 1188","website":null,"wheelchair":false,"needsAddr":false},{"id":1162139799,"name":"寶雅","lat":23.7593959,"lng":120.6802427,"address":"557南投縣竹山鎮大明路89號","hasBabyChanging":false,"hasAccessible":false,"source":"OpenStreetMap","updatedAt":"2026-06-12T02:55:18.707Z","facilityType":"pharmacy","facilityLabel":"💊 藥局","phone":"+886 4 9266 2200","website":null,"wheelchair":false,"needsAddr":false},{"id":1162139811,"name":"憲珍診所","lat":23.7533778,"lng":120.6803163,"address":"557南投縣竹山鎮埔頭街1巷1號","hasBabyChanging":false,"hasAccessible":false,"source":"OpenStreetMap","updatedAt":"2026-06-12T02:55:18.707Z","facilityType":"clinic","facilityLabel":"🩺 診所","phone":"+886 4 9264 3086","website":null,"wheelchair":false,"needsAddr":false}]}