{"city":"基隆市","district":"七堵區","category":"toilets","updatedAt":"2026-06-11T02:40:46.199Z","rev":1,"count":78,"items":[{"id":289131843,"name":"七堵 930","lat":25.0929751,"lng":121.7138567,"address":null,"hasBabyChanging":false,"hasAccessible":false,"source":"OpenStreetMap","updatedAt":"2026-06-11T02:40:46.199Z","facilityType":"train","facilityLabel":"🚂 火車站","changingTable":false,"wheelchair":false,"needsAddr":false},{"id":2536764716,"name":"復興派出所","lat":25.0907958,"lng":121.6681956,"address":"基隆市七堵區華新一路40之3號","hasBabyChanging":false,"hasAccessible":false,"source":"OpenStreetMap","updatedAt":"2026-06-11T02:40:46.199Z","facilityType":"police","facilityLabel":"🚔 派出所","changingTable":false,"wheelchair":false,"needsAddr":false},{"id":3714473595,"name":"基隆市政府警察局第三分局","lat":25.0983416,"lng":121.715503,"address":null,"hasBabyChanging":false,"hasAccessible":false,"source":"OpenStreetMap","updatedAt":"2026-06-11T02:40:46.199Z","facilityType":"police","facilityLabel":"🚔 派出所","changingTable":false,"wheelchair":false,"needsAddr":false},{"id":3984191720,"name":"百福 940","lat":25.0781714,"lng":121.694768,"address":null,"hasBabyChanging":false,"hasAccessible":true,"source":"OpenStreetMap","updatedAt":"2026-06-11T02:40:46.199Z","facilityType":"train","facilityLabel":"🚂 火車站","changingTable":false,"wheelchair":true,"needsAddr":false},{"id":4891256927,"name":"實踐里民活動中心","lat":25.0809709,"lng":121.7004341,"address":"基隆市七堵區實踐里26鄰百一街52之1號","hasBabyChanging":false,"hasAccessible":false,"source":"OpenStreetMap","updatedAt":"2026-06-11T02:40:46.199Z","facilityType":"community","facilityLabel":"🏘️ 活動中心","changingTable":false,"wheelchair":false,"needsAddr":false},{"id":4891311065,"name":"六堵里民活動中心","lat":25.0908,"lng":121.7015,"address":"基隆市七堵區工建路104巷17-1號-2號","hasBabyChanging":false,"hasAccessible":false,"source":"OpenStreetMap","updatedAt":"2026-06-11T02:40:46.199Z","facilityType":"community","facilityLabel":"🏘️ 活動中心","changingTable":false,"wheelchair":false,"needsAddr":false},{"id":4891316626,"name":"堵北里民活動中心","lat":25.0834,"lng":121.6953,"address":"基隆市七堵區福一街136號二樓","hasBabyChanging":false,"hasAccessible":false,"source":"OpenStreetMap","updatedAt":"2026-06-11T02:40:46.199Z","facilityType":"community","facilityLabel":"🏘️ 活動中心","changingTable":false,"wheelchair":false,"needsAddr":false},{"id":4891316630,"name":"長安里民活動中心","lat":25.0771,"lng":121.6928,"address":"基隆市七堵區長安里1鄰長安街31號","hasBabyChanging":false,"hasAccessible":false,"source":"OpenStreetMap","updatedAt":"2026-06-11T02:40:46.199Z","facilityType":"community","facilityLabel":"🏘️ 活動中心","changingTable":false,"wheelchair":false,"needsAddr":false},{"id":4891319738,"name":"永平里民活動中心","lat":25.0995,"lng":121.7134,"address":"基隆市七堵區崇智街13-1號","hasBabyChanging":false,"hasAccessible":false,"source":"OpenStreetMap","updatedAt":"2026-06-11T02:40:46.199Z","facilityType":"community","facilityLabel":"🏘️ 活動中心","changingTable":false,"wheelchair":false,"needsAddr":false},{"id":5308291978,"name":"黃吉公","lat":25.0759983,"lng":121.7148377,"address":null,"hasBabyChanging":false,"hasAccessible":false,"source":"OpenStreetMap","updatedAt":"2026-06-11T02:40:46.199Z","facilityType":"temple","facilityLabel":"🛕 廟宇","changingTable":false,"wheelchair":false,"needsAddr":false},{"id":5383609454,"name":"第一觀景台˙","lat":25.1341698,"lng":121.6293069,"address":null,"hasBabyChanging":false,"hasAccessible":false,"source":"OpenStreetMap","updatedAt":"2026-06-11T02:40:46.199Z","facilityType":"attraction","facilityLabel":"🏞️ 景點","changingTable":false,"wheelchair":false,"needsAddr":false},{"id":5383609455,"name":"第二觀景台","lat":25.1340255,"lng":121.6298968,"address":null,"hasBabyChanging":false,"hasAccessible":false,"source":"OpenStreetMap","updatedAt":"2026-06-11T02:40:46.199Z","facilityType":"attraction","facilityLabel":"🏞️ 景點","changingTable":false,"wheelchair":false,"needsAddr":false},{"id":5430613117,"name":"瑪西焦炭窯","lat":25.1169228,"lng":121.6807864,"address":null,"hasBabyChanging":false,"hasAccessible":false,"source":"OpenStreetMap","updatedAt":"2026-06-11T02:40:46.199Z","facilityType":"attraction","facilityLabel":"🏞️ 景點","changingTable":false,"wheelchair":false,"needsAddr":false},{"id":6499626785,"name":"雄風峭壁","lat":25.1017924,"lng":121.6911481,"address":null,"hasBabyChanging":false,"hasAccessible":false,"source":"OpenStreetMap","updatedAt":"2026-06-11T02:40:46.199Z","facilityType":"attraction","facilityLabel":"🏞️ 景點","changingTable":false,"wheelchair":false,"needsAddr":false},{"id":8456380318,"name":"自強產業道路5.43km","lat":25.1168115,"lng":121.6994204,"address":null,"hasBabyChanging":false,"hasAccessible":false,"source":"OpenStreetMap","updatedAt":"2026-06-11T02:40:46.199Z","facilityType":"attraction","facilityLabel":"🏞️ 景點","changingTable":false,"wheelchair":false,"needsAddr":false},{"id":8456654520,"name":"瑪東福德宮","lat":25.1167487,"lng":121.6978195,"address":null,"hasBabyChanging":false,"hasAccessible":false,"source":"OpenStreetMap","updatedAt":"2026-06-11T02:40:46.199Z","facilityType":"temple","facilityLabel":"🛕 廟宇","changingTable":false,"wheelchair":false,"needsAddr":false},{"id":972543497,"name":"九華山清湶寺","lat":25.1195805,"lng":121.7096356,"address":null,"hasBabyChanging":false,"hasAccessible":false,"source":"OpenStreetMap","updatedAt":"2026-06-11T02:40:46.199Z","facilityType":"temple","facilityLabel":"🛕 廟宇","changingTable":false,"wheelchair":false,"needsAddr":false},{"id":8794550935,"name":"三分局","lat":25.0983309,"lng":121.7152996,"address":null,"hasBabyChanging":false,"hasAccessible":false,"source":"OpenStreetMap","updatedAt":"2026-06-11T02:40:46.199Z","facilityType":"police","facilityLabel":"🚔 派出所","changingTable":false,"wheelchair":false,"needsAddr":false},{"id":8948462720,"name":"福德宮","lat":25.1248217,"lng":121.6795889,"address":null,"hasBabyChanging":false,"hasAccessible":false,"source":"OpenStreetMap","updatedAt":"2026-06-11T02:40:46.199Z","facilityType":"temple","facilityLabel":"🛕 廟宇","changingTable":false,"wheelchair":false,"needsAddr":false},{"id":9001153309,"name":"公共廁所","lat":25.1195058,"lng":121.7093935,"address":null,"hasBabyChanging":false,"hasAccessible":false,"source":"OpenStreetMap","updatedAt":"2026-06-11T02:40:46.199Z","facilityType":"toilet","facilityLabel":null,"changingTable":false,"wheelchair":false,"needsAddr":true},{"id":9113926818,"name":"景點","lat":25.1222849,"lng":121.6448315,"address":null,"hasBabyChanging":false,"hasAccessible":false,"source":"OpenStreetMap","updatedAt":"2026-06-11T02:40:46.199Z","facilityType":"attraction","facilityLabel":"🏞️ 景點","changingTable":false,"wheelchair":false,"needsAddr":true},{"id":9436157915,"name":"福德宮","lat":25.1317988,"lng":121.6448213,"address":null,"hasBabyChanging":false,"hasAccessible":false,"source":"OpenStreetMap","updatedAt":"2026-06-11T02:40:46.199Z","facilityType":"temple","facilityLabel":"🛕 廟宇","changingTable":false,"wheelchair":false,"needsAddr":false},{"id":9964039842,"name":"公共廁所","lat":25.0932991,"lng":121.7145388,"address":null,"hasBabyChanging":false,"hasAccessible":false,"source":"OpenStreetMap","updatedAt":"2026-06-11T02:40:46.199Z","facilityType":"toilet","facilityLabel":null,"changingTable":false,"wheelchair":false,"needsAddr":true},{"id":9967535632,"name":"靈惠廟","lat":25.0905043,"lng":121.7165376,"address":null,"hasBabyChanging":false,"hasAccessible":false,"source":"OpenStreetMap","updatedAt":"2026-06-11T02:40:46.199Z","facilityType":"temple","facilityLabel":"🛕 廟宇","changingTable":false,"wheelchair":false,"needsAddr":false},{"id":10628309662,"name":"家樂福超市","lat":25.0989537,"lng":121.71266,"address":"基隆市七堵區崇信街16號","hasBabyChanging":false,"hasAccessible":false,"source":"OpenStreetMap","updatedAt":"2026-06-11T02:40:46.199Z","facilityType":"supermarket","facilityLabel":"🧺 超市","changingTable":false,"wheelchair":false,"openingHours":"Mo-Su 07:00-24:00","needsAddr":false},{"id":10831623441,"name":"新福宮","lat":25.0756047,"lng":121.7154338,"address":null,"hasBabyChanging":false,"hasAccessible":false,"source":"OpenStreetMap","updatedAt":"2026-06-11T02:40:46.199Z","facilityType":"temple","facilityLabel":"🛕 廟宇","changingTable":false,"wheelchair":false,"needsAddr":false},{"id":10885687960,"name":"百福圳頭福德宮","lat":25.0907459,"lng":121.6969536,"address":null,"hasBabyChanging":false,"hasAccessible":false,"source":"OpenStreetMap","updatedAt":"2026-06-11T02:40:46.199Z","facilityType":"temple","facilityLabel":"🛕 廟宇","changingTable":false,"wheelchair":false,"needsAddr":false},{"id":11236985986,"name":"百福水尾福德宮","lat":25.0873854,"lng":121.6923498,"address":null,"hasBabyChanging":false,"hasAccessible":false,"source":"OpenStreetMap","updatedAt":"2026-06-11T02:40:46.199Z","facilityType":"temple","facilityLabel":"🛕 廟宇","changingTable":false,"wheelchair":false,"needsAddr":false},{"id":11637890216,"name":"廟宇","lat":25.0894762,"lng":121.7171787,"address":null,"hasBabyChanging":false,"hasAccessible":false,"source":"OpenStreetMap","updatedAt":"2026-06-11T02:40:46.199Z","facilityType":"temple","facilityLabel":"🛕 廟宇","changingTable":false,"wheelchair":false,"needsAddr":true},{"id":11897575256,"name":"台灣中油八德路加油站 直營","lat":25.1039046,"lng":121.7233731,"address":"206基隆市七堵區八德路2-15號","hasBabyChanging":false,"hasAccessible":false,"source":"OpenStreetMap","updatedAt":"2026-06-11T02:40:46.199Z","facilityType":"fuel","facilityLabel":"⛽ 加油站","changingTable":false,"wheelchair":false,"needsAddr":false},{"id":12100340738,"name":"雲義山帝君廟","lat":25.1101297,"lng":121.7058448,"address":null,"hasBabyChanging":false,"hasAccessible":false,"source":"OpenStreetMap","updatedAt":"2026-06-11T02:40:46.199Z","facilityType":"temple","facilityLabel":"🛕 廟宇","changingTable":false,"wheelchair":false,"needsAddr":false},{"id":12150812456,"name":"石厝坑","lat":25.1161867,"lng":121.7104181,"address":null,"hasBabyChanging":false,"hasAccessible":false,"source":"OpenStreetMap","updatedAt":"2026-06-11T02:40:46.199Z","facilityType":"attraction","facilityLabel":"🏞️ 景點","changingTable":false,"wheelchair":false,"needsAddr":false},{"id":13378207255,"name":"公共廁所","lat":25.0873604,"lng":121.6922953,"address":null,"hasBabyChanging":false,"hasAccessible":false,"source":"OpenStreetMap","updatedAt":"2026-06-11T02:40:46.199Z","facilityType":"toilet","facilityLabel":null,"changingTable":false,"wheelchair":false,"needsAddr":true},{"id":13378207258,"name":"公共廁所","lat":25.0908865,"lng":121.6971422,"address":null,"hasBabyChanging":false,"hasAccessible":false,"source":"OpenStreetMap","updatedAt":"2026-06-11T02:40:46.199Z","facilityType":"toilet","facilityLabel":null,"changingTable":false,"wheelchair":false,"needsAddr":true},{"id":221042882,"name":"玄牟堂","lat":25.1079704,"lng":121.7082705,"address":null,"hasBabyChanging":false,"hasAccessible":false,"source":"OpenStreetMap","updatedAt":"2026-06-11T02:40:46.199Z","facilityType":"temple","facilityLabel":"🛕 廟宇","changingTable":false,"wheelchair":false,"needsAddr":false},{"id":341882226,"name":"廟宇","lat":25.1022407,"lng":121.7125051,"address":null,"hasBabyChanging":false,"hasAccessible":false,"source":"OpenStreetMap","updatedAt":"2026-06-11T02:40:46.199Z","facilityType":"temple","facilityLabel":"🛕 廟宇","changingTable":false,"wheelchair":false,"needsAddr":true},{"id":341883442,"name":"七堵慶濟宮","lat":25.0960157,"lng":121.7129165,"address":null,"hasBabyChanging":false,"hasAccessible":false,"source":"OpenStreetMap","updatedAt":"2026-06-11T02:40:46.199Z","facilityType":"temple","facilityLabel":"🛕 廟宇","changingTable":false,"wheelchair":false,"needsAddr":false},{"id":341883444,"name":"夜市區","lat":25.097205,"lng":121.7145567,"address":null,"hasBabyChanging":false,"hasAccessible":false,"source":"OpenStreetMap","updatedAt":"2026-06-11T02:40:46.199Z","facilityType":"nightmarket","facilityLabel":"🍢 夜市","changingTable":false,"wheelchair":false,"needsAddr":false},{"id":366057687,"name":"七堵區行政大樓","lat":25.0976345,"lng":121.7165522,"address":"基隆市七堵區光明路21號","hasBabyChanging":false,"hasAccessible":false,"source":"OpenStreetMap","updatedAt":"2026-06-11T02:40:46.199Z","facilityType":"government","facilityLabel":"🏛 公務機關","changingTable":false,"wheelchair":false,"needsAddr":false},{"id":368846371,"name":"基隆市七堵區衛生所","lat":25.0971504,"lng":121.7129604,"address":"基隆市七堵區明德一路169號","hasBabyChanging":false,"hasAccessible":false,"source":"OpenStreetMap","updatedAt":"2026-06-11T02:40:46.199Z","facilityType":"clinic","facilityLabel":"🩺 診所","changingTable":false,"wheelchair":false,"needsAddr":false},{"id":368847712,"name":"基隆監理站","lat":25.0887707,"lng":121.6965414,"address":"基隆市七堵區實踐路296號","hasBabyChanging":false,"hasAccessible":false,"source":"OpenStreetMap","updatedAt":"2026-06-11T02:40:46.199Z","facilityType":"government","facilityLabel":"🏛 公務機關","changingTable":false,"wheelchair":false,"needsAddr":false},{"id":368847713,"name":"七堵區圖書館百福館","lat":25.0839589,"lng":121.6977807,"address":null,"hasBabyChanging":false,"hasAccessible":false,"source":"OpenStreetMap","updatedAt":"2026-06-11T02:40:46.199Z","facilityType":"library","facilityLabel":"📚 圖書館","changingTable":false,"wheelchair":false,"needsAddr":false},{"id":368848603,"name":"百福派出所","lat":25.0854074,"lng":121.697861,"address":"基隆市七堵區百六街120號","hasBabyChanging":false,"hasAccessible":false,"source":"OpenStreetMap","updatedAt":"2026-06-11T02:40:46.199Z","facilityType":"police","facilityLabel":"🚔 派出所","changingTable":false,"wheelchair":false,"needsAddr":false},{"id":368848608,"name":"經濟部標準檢驗局五堵辦事處","lat":25.0847302,"lng":121.6981969,"address":null,"hasBabyChanging":false,"hasAccessible":false,"source":"OpenStreetMap","updatedAt":"2026-06-11T02:40:46.199Z","facilityType":"government","facilityLabel":"🏛 公務機關","changingTable":false,"wheelchair":false,"needsAddr":false},{"id":368924154,"name":"五堵截流站","lat":25.0851007,"lng":121.6936565,"address":null,"hasBabyChanging":false,"hasAccessible":false,"source":"OpenStreetMap","updatedAt":"2026-06-11T02:40:46.199Z","facilityType":"government","facilityLabel":"🏛 公務機關","changingTable":false,"wheelchair":false,"needsAddr":false},{"id":368956872,"name":"六堵代天府","lat":25.0908325,"lng":121.7023276,"address":null,"hasBabyChanging":false,"hasAccessible":false,"source":"OpenStreetMap","updatedAt":"2026-06-11T02:40:46.199Z","facilityType":"temple","facilityLabel":"🛕 廟宇","changingTable":false,"wheelchair":false,"needsAddr":false},{"id":368956875,"name":"基隆市衛生局檢驗科","lat":25.0879363,"lng":121.7028542,"address":null,"hasBabyChanging":false,"hasAccessible":false,"source":"OpenStreetMap","updatedAt":"2026-06-11T02:40:46.199Z","facilityType":"government","facilityLabel":"🏛 公務機關","changingTable":false,"wheelchair":false,"needsAddr":false},{"id":368956876,"name":"六堵加油站","lat":25.0838802,"lng":121.7044433,"address":null,"hasBabyChanging":false,"hasAccessible":false,"source":"OpenStreetMap","updatedAt":"2026-06-11T02:40:46.199Z","facilityType":"fuel","facilityLabel":"⛽ 加油站","changingTable":false,"wheelchair":false,"needsAddr":false},{"id":368975268,"name":"瑪陵派出所","lat":25.1110375,"lng":121.6869849,"address":"基隆市七堵區瑪東里1鄰大華二路194號","hasBabyChanging":false,"hasAccessible":false,"source":"OpenStreetMap","updatedAt":"2026-06-11T02:40:46.199Z","facilityType":"police","facilityLabel":"🚔 派出所","changingTable":false,"wheelchair":false,"needsAddr":false},{"id":369024824,"name":"永安里里民會堂","lat":25.0983364,"lng":121.709412,"address":null,"hasBabyChanging":false,"hasAccessible":false,"source":"OpenStreetMap","updatedAt":"2026-06-11T02:40:46.199Z","facilityType":"community","facilityLabel":"🏘️ 活動中心","changingTable":false,"wheelchair":false,"needsAddr":false},{"id":369024825,"name":"基隆工務段","lat":25.0980773,"lng":121.708773,"address":null,"hasBabyChanging":false,"hasAccessible":false,"source":"OpenStreetMap","updatedAt":"2026-06-11T02:40:46.199Z","facilityType":"government","facilityLabel":"🏛 公務機關","changingTable":false,"wheelchair":false,"needsAddr":false},{"id":369404144,"name":"百福加油站","lat":25.08258,"lng":121.6849725,"address":null,"hasBabyChanging":false,"hasAccessible":false,"source":"OpenStreetMap","updatedAt":"2026-06-11T02:40:46.199Z","facilityType":"fuel","facilityLabel":"⛽ 加油站","changingTable":false,"wheelchair":false,"needsAddr":false},{"id":370571641,"name":"全國加油站七堵站","lat":25.095335,"lng":121.705822,"address":null,"hasBabyChanging":false,"hasAccessible":false,"source":"OpenStreetMap","updatedAt":"2026-06-11T02:40:46.199Z","facilityType":"fuel","facilityLabel":"⛽ 加油站","changingTable":false,"wheelchair":false,"needsAddr":false},{"id":370571650,"name":"基隆市公車七堵分站","lat":25.0969774,"lng":121.7100081,"address":null,"hasBabyChanging":false,"hasAccessible":false,"source":"OpenStreetMap","updatedAt":"2026-06-11T02:40:46.199Z","facilityType":"bus","facilityLabel":"🚌 客運站","changingTable":false,"wheelchair":false,"needsAddr":false},{"id":371602937,"name":"瑪東里民活動中心","lat":25.123989,"lng":121.6998191,"address":"基隆市七堵區瑪東里5鄰大同街29之3號","hasBabyChanging":false,"hasAccessible":false,"source":"OpenStreetMap","updatedAt":"2026-06-11T02:40:46.199Z","facilityType":"community","facilityLabel":"🏘️ 活動中心","changingTable":false,"wheelchair":false,"needsAddr":false},{"id":531723659,"name":"公共廁所","lat":25.0708545,"lng":121.7165362,"address":null,"hasBabyChanging":true,"hasAccessible":false,"source":"OpenStreetMap","updatedAt":"2026-06-11T02:40:46.199Z","facilityType":"toilet","facilityLabel":null,"changingTable":true,"wheelchair":false,"fee":"no","needsAddr":true},{"id":568720569,"name":"慈鳳宮","lat":25.0922626,"lng":121.7037601,"address":null,"hasBabyChanging":false,"hasAccessible":false,"source":"OpenStreetMap","updatedAt":"2026-06-11T02:40:46.199Z","facilityType":"temple","facilityLabel":"🛕 廟宇","changingTable":false,"wheelchair":false,"needsAddr":false},{"id":568720570,"name":"頂圳福德宮","lat":25.0921373,"lng":121.7042108,"address":null,"hasBabyChanging":false,"hasAccessible":false,"source":"OpenStreetMap","updatedAt":"2026-06-11T02:40:46.199Z","facilityType":"temple","facilityLabel":"🛕 廟宇","changingTable":false,"wheelchair":false,"needsAddr":false},{"id":675665519,"name":"長興里民活動中心","lat":25.095021,"lng":121.7179624,"address":"基隆市七堵區東新街25號","hasBabyChanging":false,"hasAccessible":false,"source":"OpenStreetMap","updatedAt":"2026-06-11T02:40:46.199Z","facilityType":"community","facilityLabel":"🏘️ 活動中心","changingTable":false,"wheelchair":false,"needsAddr":false},{"id":675665527,"name":"八德土地公廟","lat":25.1012791,"lng":121.7163477,"address":"基隆市七堵區大華一路57巷43-4號","hasBabyChanging":false,"hasAccessible":false,"source":"OpenStreetMap","updatedAt":"2026-06-11T02:40:46.199Z","facilityType":"temple","facilityLabel":"🛕 廟宇","changingTable":false,"wheelchair":false,"needsAddr":false},{"id":675665557,"name":"自強里民活動中心","lat":25.1021984,"lng":121.7122126,"address":"基隆市七堵區自強路1號","hasBabyChanging":false,"hasAccessible":false,"source":"OpenStreetMap","updatedAt":"2026-06-11T02:40:46.199Z","facilityType":"community","facilityLabel":"🏘️ 活動中心","changingTable":false,"wheelchair":false,"needsAddr":false},{"id":694364141,"name":"基隆關六堵分關","lat":25.0947555,"lng":121.712314,"address":null,"hasBabyChanging":false,"hasAccessible":false,"source":"OpenStreetMap","updatedAt":"2026-06-11T02:40:46.199Z","facilityType":"government","facilityLabel":"🏛 公務機關","changingTable":false,"wheelchair":false,"needsAddr":false},{"id":694364142,"name":"保安警察第三總隊第一大隊","lat":25.0949122,"lng":121.7128302,"address":null,"hasBabyChanging":false,"hasAccessible":false,"source":"OpenStreetMap","updatedAt":"2026-06-11T02:40:46.199Z","facilityType":"police","facilityLabel":"🚔 派出所","changingTable":false,"wheelchair":false,"needsAddr":false},{"id":734431715,"name":"嶺腳福德宮","lat":25.0817312,"lng":121.6816103,"address":null,"hasBabyChanging":false,"hasAccessible":false,"source":"OpenStreetMap","updatedAt":"2026-06-11T02:40:46.199Z","facilityType":"temple","facilityLabel":"🛕 廟宇","changingTable":false,"wheelchair":false,"needsAddr":false},{"id":841714859,"name":"國道公路警察局七堵小隊","lat":25.1082755,"lng":121.685017,"address":null,"hasBabyChanging":false,"hasAccessible":false,"source":"OpenStreetMap","updatedAt":"2026-06-11T02:40:46.199Z","facilityType":"police","facilityLabel":"🚔 派出所","changingTable":false,"wheelchair":false,"needsAddr":false},{"id":1025380566,"name":"友蚋正方宮","lat":25.1023664,"lng":121.6695668,"address":null,"hasBabyChanging":false,"hasAccessible":false,"source":"OpenStreetMap","updatedAt":"2026-06-11T02:40:46.199Z","facilityType":"temple","facilityLabel":"🛕 廟宇","changingTable":false,"wheelchair":false,"needsAddr":false},{"id":1061631552,"name":"妙法蓮華寺","lat":25.1096354,"lng":121.6889806,"address":"20653基隆市七堵區大成街1-3號","hasBabyChanging":false,"hasAccessible":false,"source":"OpenStreetMap","updatedAt":"2026-06-11T02:40:46.199Z","facilityType":"temple","facilityLabel":"🛕 廟宇","changingTable":false,"wheelchair":false,"needsAddr":false},{"id":1134875961,"name":"五堵嶺福德宮","lat":25.0766954,"lng":121.6883538,"address":null,"hasBabyChanging":false,"hasAccessible":false,"source":"OpenStreetMap","updatedAt":"2026-06-11T02:40:46.199Z","facilityType":"temple","facilityLabel":"🛕 廟宇","changingTable":false,"wheelchair":false,"needsAddr":false},{"id":1209970250,"name":"天孚佛堂","lat":25.1195234,"lng":121.6779857,"address":null,"hasBabyChanging":false,"hasAccessible":false,"source":"OpenStreetMap","updatedAt":"2026-06-11T02:40:46.199Z","facilityType":"temple","facilityLabel":"🛕 廟宇","changingTable":false,"wheelchair":false,"needsAddr":false},{"id":1348417471,"name":"友一里民活動中心","lat":25.0921168,"lng":121.6688213,"address":"基隆市七堵區友一里7鄰華新一路59之1號","hasBabyChanging":false,"hasAccessible":false,"source":"OpenStreetMap","updatedAt":"2026-06-11T02:40:46.199Z","facilityType":"community","facilityLabel":"🏘️ 活動中心","changingTable":false,"wheelchair":false,"needsAddr":false},{"id":1348417472,"name":"瑪西里民活動中心","lat":25.1285515,"lng":121.6774512,"address":"基隆市七堵區瑪西里8鄰大華三路75之1號","hasBabyChanging":false,"hasAccessible":false,"source":"OpenStreetMap","updatedAt":"2026-06-11T02:40:46.199Z","facilityType":"community","facilityLabel":"🏘️ 活動中心","changingTable":false,"wheelchair":false,"needsAddr":false},{"id":1348647866,"name":"百福里民活動中心","lat":25.0881686,"lng":121.6949956,"address":"基隆市七堵區百福里14鄰實踐路263號","hasBabyChanging":false,"hasAccessible":false,"source":"OpenStreetMap","updatedAt":"2026-06-11T02:40:46.199Z","facilityType":"community","facilityLabel":"🏘️ 活動中心","changingTable":false,"wheelchair":false,"needsAddr":false},{"id":1350323150,"name":"堵南里民活動中心","lat":25.0827566,"lng":121.6876606,"address":"基隆市七堵區堵南里5鄰堵南街20之8號","hasBabyChanging":false,"hasAccessible":false,"source":"OpenStreetMap","updatedAt":"2026-06-11T02:40:46.199Z","facilityType":"community","facilityLabel":"🏘️ 活動中心","changingTable":false,"wheelchair":false,"needsAddr":false},{"id":1350323151,"name":"泰安里民活動中心","lat":25.0864255,"lng":121.711455,"address":"基隆市七堵區泰安里27鄰泰和街57號","hasBabyChanging":false,"hasAccessible":false,"source":"OpenStreetMap","updatedAt":"2026-06-11T02:40:46.199Z","facilityType":"community","facilityLabel":"🏘️ 活動中心","changingTable":false,"wheelchair":false,"needsAddr":false},{"id":1350323152,"name":"八德里民活動中心","lat":25.112932,"lng":121.7279694,"address":"基隆市七堵區八德里5鄰八德路70號","hasBabyChanging":false,"hasAccessible":false,"source":"OpenStreetMap","updatedAt":"2026-06-11T02:40:46.199Z","facilityType":"community","facilityLabel":"🏘️ 活動中心","changingTable":false,"wheelchair":false,"needsAddr":false},{"id":1462592608,"name":"柴寮福德宮","lat":25.116995,"lng":121.6601343,"address":"基隆市七堵區9華新二路122-2號","hasBabyChanging":false,"hasAccessible":false,"source":"OpenStreetMap","updatedAt":"2026-06-11T02:40:46.199Z","facilityType":"temple","facilityLabel":"🛕 廟宇","changingTable":false,"wheelchair":false,"needsAddr":false},{"id":1462592609,"name":"公共廁所","lat":25.1167407,"lng":121.6604483,"address":null,"hasBabyChanging":false,"hasAccessible":false,"source":"OpenStreetMap","updatedAt":"2026-06-11T02:40:46.199Z","facilityType":"toilet","facilityLabel":null,"changingTable":false,"wheelchair":false,"needsAddr":true},{"id":1462592634,"name":"靈台山靈玄宮","lat":25.1284565,"lng":121.6645596,"address":"基隆市七堵區華新二路105-3號","hasBabyChanging":false,"hasAccessible":false,"source":"OpenStreetMap","updatedAt":"2026-06-11T02:40:46.199Z","facilityType":"temple","facilityLabel":"🛕 廟宇","changingTable":false,"wheelchair":false,"needsAddr":false}]}