{"city":"屏東縣","district":"內埔鄉","category":"medical","updatedAt":"2026-06-12T02:55:18.707Z","rev":1,"count":11,"items":[{"id":5713762889,"name":"長生藥局","lat":22.6109681,"lng":120.5680499,"address":"912屏東縣內埔鄉仁和路7號","hasBabyChanging":false,"hasAccessible":false,"source":"OpenStreetMap","updatedAt":"2026-06-12T02:55:18.707Z","facilityType":"pharmacy","facilityLabel":"💊 藥局","phone":null,"website":null,"wheelchair":false,"needsAddr":false},{"id":5713762905,"name":"健林藥局","lat":22.6114244,"lng":120.5685827,"address":"912屏東縣內埔鄉中興路157號","hasBabyChanging":false,"hasAccessible":false,"source":"OpenStreetMap","updatedAt":"2026-06-12T02:55:18.707Z","facilityType":"pharmacy","facilityLabel":"💊 藥局","phone":"+886 8 779 0635","website":null,"wheelchair":false,"needsAddr":false},{"id":5713762915,"name":"內埔藥師藥局","lat":22.612196,"lng":120.5677707,"address":"912屏東縣內埔鄉文化路382號","hasBabyChanging":false,"hasAccessible":false,"source":"OpenStreetMap","updatedAt":"2026-06-12T02:55:18.707Z","facilityType":"pharmacy","facilityLabel":"💊 藥局","phone":"+886 8 769 3929","website":null,"wheelchair":false,"needsAddr":false},{"id":9144995460,"name":"屈臣氏","lat":22.6129202,"lng":120.5665552,"address":null,"hasBabyChanging":false,"hasAccessible":false,"source":"OpenStreetMap","updatedAt":"2026-06-12T02:55:18.707Z","facilityType":"pharmacy","facilityLabel":"💊 藥妝","phone":null,"website":null,"wheelchair":false,"needsAddr":true},{"id":9212551795,"name":"獸醫系館","lat":22.6410139,"lng":120.6023565,"address":null,"hasBabyChanging":false,"hasAccessible":false,"source":"OpenStreetMap","updatedAt":"2026-06-12T02:55:18.707Z","facilityType":"vet","facilityLabel":"🐾 動物醫院","phone":null,"website":null,"wheelchair":false,"needsAddr":true},{"id":12545965058,"name":"寶雅","lat":22.6066066,"lng":120.5637351,"address":null,"hasBabyChanging":false,"hasAccessible":false,"source":"OpenStreetMap","updatedAt":"2026-06-12T02:55:18.707Z","facilityType":"pharmacy","facilityLabel":"💊 藥局","phone":null,"website":null,"wheelchair":false,"needsAddr":true},{"id":231448299,"name":"獸醫館","lat":22.6416813,"lng":120.6017565,"address":null,"hasBabyChanging":false,"hasAccessible":false,"source":"OpenStreetMap","updatedAt":"2026-06-12T02:55:18.707Z","facilityType":"vet","facilityLabel":"🐾 動物醫院","phone":null,"website":null,"wheelchair":false,"needsAddr":true},{"id":427242298,"name":"屏東榮民總醫院龍泉分院","lat":22.67496,"lng":120.5986657,"address":"91245屏東縣內埔鄉龍潭村昭勝路安平1巷1號","hasBabyChanging":false,"hasAccessible":false,"source":"OpenStreetMap","updatedAt":"2026-06-12T02:55:18.707Z","facilityType":"hospital","facilityLabel":"🏥 醫院","phone":"+886 8 770 4115#9;+886 8 770 2212","website":"https://www.vhlc.gov.tw/","wheelchair":false,"needsAddr":false},{"id":518990335,"name":"屏東科技大學獸醫二館","lat":22.6429902,"lng":120.6014598,"address":"91201屏東縣內埔鄉學府路1號","hasBabyChanging":false,"hasAccessible":false,"source":"OpenStreetMap","updatedAt":"2026-06-12T02:55:18.707Z","facilityType":"vet","facilityLabel":"🐾 動物醫院","phone":null,"website":null,"wheelchair":false,"needsAddr":false},{"id":821344225,"name":"屏安醫院","lat":22.6706183,"lng":120.5678894,"address":null,"hasBabyChanging":false,"hasAccessible":false,"source":"OpenStreetMap","updatedAt":"2026-06-12T02:55:18.707Z","facilityType":"hospital","facilityLabel":"🏥 醫院","phone":null,"website":null,"wheelchair":false,"needsAddr":true},{"id":833425467,"name":"佑青醫院","lat":22.6658045,"lng":120.5678291,"address":"屏東縣內埔鄉建興路218巷19號","hasBabyChanging":false,"hasAccessible":false,"source":"OpenStreetMap","updatedAt":"2026-06-12T02:55:18.707Z","facilityType":"hospital","facilityLabel":"🏥 醫院","phone":null,"website":null,"wheelchair":false,"needsAddr":false}]}