{"city":"屏東縣","district":"枋寮鄉","category":"medical","updatedAt":"2026-06-12T02:55:18.707Z","rev":1,"count":7,"items":[{"id":4897868490,"name":"屈臣氏","lat":22.3644543,"lng":120.5967521,"address":"屏東縣枋寮鄉中山路156號","hasBabyChanging":false,"hasAccessible":false,"source":"OpenStreetMap","updatedAt":"2026-06-12T02:55:18.707Z","facilityType":"pharmacy","facilityLabel":"💊 藥妝","phone":null,"website":null,"wheelchair":false,"needsAddr":false},{"id":8558662349,"name":"天成診所","lat":22.4279091,"lng":120.6276922,"address":null,"hasBabyChanging":false,"hasAccessible":false,"source":"OpenStreetMap","updatedAt":"2026-06-12T02:55:18.707Z","facilityType":"clinic","facilityLabel":"🩺 診所","phone":null,"website":null,"wheelchair":false,"needsAddr":true},{"id":11273542479,"name":"大樹藥局","lat":22.3647379,"lng":120.5960301,"address":null,"hasBabyChanging":false,"hasAccessible":false,"source":"OpenStreetMap","updatedAt":"2026-06-12T02:55:18.707Z","facilityType":"pharmacy","facilityLabel":"💊 藥局","phone":null,"website":null,"wheelchair":false,"needsAddr":true},{"id":11818678957,"name":"友利藥局","lat":22.3608939,"lng":120.6001647,"address":null,"hasBabyChanging":false,"hasAccessible":false,"source":"OpenStreetMap","updatedAt":"2026-06-12T02:55:18.707Z","facilityType":"pharmacy","facilityLabel":"💊 藥局","phone":null,"website":null,"wheelchair":false,"needsAddr":true},{"id":101930629,"name":"枋寮鄉衛生所","lat":22.3656391,"lng":120.5930014,"address":null,"hasBabyChanging":false,"hasAccessible":false,"source":"OpenStreetMap","updatedAt":"2026-06-12T02:55:18.707Z","facilityType":"health_center","facilityLabel":"🏥 衛生所","phone":null,"website":null,"wheelchair":false,"needsAddr":true},{"id":593366020,"name":"枋寮醫院","lat":22.3639307,"lng":120.5965038,"address":null,"hasBabyChanging":false,"hasAccessible":false,"source":"OpenStreetMap","updatedAt":"2026-06-12T02:55:18.707Z","facilityType":"hospital","facilityLabel":"🏥 醫院","phone":null,"website":null,"wheelchair":false,"needsAddr":true},{"id":1000698084,"name":"七佳診所","lat":22.4279516,"lng":120.6267952,"address":"屏東縣春日鄉七佳村8鄰自強一路1號","hasBabyChanging":false,"hasAccessible":false,"source":"OpenStreetMap","updatedAt":"2026-06-12T02:55:18.707Z","facilityType":"clinic","facilityLabel":"🩺 診所","phone":null,"website":null,"wheelchair":false,"needsAddr":false}]}