{
  "city": "高雄市",
  "district": "三民區",
  "category": "transport",
  "updatedAt": "2026-06-11T16:04:46.906Z",
  "rev": 1,
  "count": 214,
  "items": [
    {
      "id": 1065844648,
      "name": "建興市場",
      "type": "bus",
      "city": "高雄市",
      "district": "三民區",
      "lat": 22.6443806,
      "lng": 120.3248961,
      "routes": [
        "紅29"
      ],
      "routeCount": 1,
      "routeSource": "gtfs",
      "routeUpdatedAt": "2026-06-14T15:08:27.187Z",
      "routeConfidence": "high"
    },
    {
      "id": 1065844683,
      "name": "大順路口(建工路)",
      "type": "bus",
      "city": "高雄市",
      "district": "三民區",
      "lat": 22.6491618,
      "lng": 120.3226574,
      "routes": [
        "33(6:33繞駛後指部)",
        "53",
        "8008",
        "8009",
        "8041A",
        "8041C(部分繞駛樹人醫專)",
        "8049",
        "紅30",
        "紅31",
        "黃1"
      ],
      "routeCount": 10,
      "routeSource": "gtfs",
      "routeUpdatedAt": "2026-06-14T16:43:42.332Z",
      "routeConfidence": "high"
    },
    {
      "id": 1080438949,
      "name": "九如三路口",
      "type": "bus",
      "city": "高雄市",
      "district": "三民區",
      "lat": 22.6416539,
      "lng": 120.2917568,
      "routes": [
        "33(6:33繞駛後指部)",
        "205中華幹線"
      ],
      "routeCount": 2,
      "routeSource": "gtfs",
      "routeUpdatedAt": "2026-06-14T16:43:42.332Z",
      "routeConfidence": "high"
    },
    {
      "id": 1080438968,
      "name": "三鳳中街",
      "type": "bus",
      "city": "高雄市",
      "district": "三民區",
      "lat": 22.6372705,
      "lng": 120.2941457,
      "routes": [
        "82",
        "82公車式小黃",
        "88建國幹線",
        "88建國幹線延駛",
        "205中華幹線",
        "218A內惟幹線",
        "218B內惟幹線(繞駛合群社區)",
        "紅25公車式小黃",
        "紅27"
      ],
      "routeCount": 9,
      "routeSource": "gtfs",
      "routeUpdatedAt": "2026-06-14T16:43:42.332Z",
      "routeConfidence": "high"
    },
    {
      "id": 1080438988,
      "name": "變電所(中華二路)",
      "type": "bus",
      "city": "高雄市",
      "district": "三民區",
      "lat": 22.6459466,
      "lng": 120.2919049,
      "routes": [
        "73",
        "205中華幹線",
        "8043",
        "紅25繞公車式小黃",
        "紅28(繞中都濕地公園)"
      ],
      "routeCount": 5,
      "routeSource": "gtfs",
      "routeUpdatedAt": "2026-06-14T16:43:42.332Z",
      "routeConfidence": "high"
    },
    {
      "id": 1291815934,
      "name": "京城世界",
      "type": "bus",
      "city": "高雄市",
      "district": "三民區",
      "lat": 22.6637961,
      "lng": 120.31447,
      "routes": [
        "24(假日停駛)",
        "24A(平日停駛)",
        "72"
      ],
      "routeCount": 3,
      "routeSource": "gtfs",
      "routeUpdatedAt": "2026-06-14T16:43:42.332Z",
      "routeConfidence": "high"
    },
    {
      "id": 11466218769,
      "name": "大順民族",
      "type": "lrt",
      "city": "高雄市",
      "district": "三民區",
      "lat": 22.6554849,
      "lng": 120.3154233,
      "lines": [
        "高雄環狀輕軌"
      ],
      "lineCount": 1,
      "lineSource": "gtfs",
      "lineUpdatedAt": "2026-06-14T15:08:27.188Z",
      "lineConfidence": "high"
    },
    {
      "id": 1316169374,
      "name": "高雄工職",
      "type": "bus",
      "city": "高雄市",
      "district": "三民區",
      "lat": 22.6505365,
      "lng": 120.3259681,
      "routes": [
        "16A",
        "16A繞(經文信路)",
        "16B",
        "33(6:33繞駛後指部)",
        "53",
        "81",
        "217A新昌幹線",
        "217B新昌幹線",
        "217D新昌幹線(高應大發車)",
        "217E新昌幹線(大華里發車)",
        "8008",
        "8009",
        "8041A",
        "8041C(部分繞駛樹人醫專)",
        "8049",
        "紅30",
        "紅31",
        "黃1"
      ],
      "routeCount": 18,
      "routeSource": "gtfs",
      "routeUpdatedAt": "2026-06-14T16:43:42.333Z",
      "routeConfidence": "high"
    },
    {
      "id": 1316169380,
      "name": "高雄科大(建工)",
      "type": "bus",
      "city": "高雄市",
      "district": "三民區",
      "lat": 22.6514211,
      "lng": 120.3277365,
      "routes": [
        "16A",
        "16A繞(經文信路)",
        "16B",
        "33(6:33繞駛後指部)",
        "53",
        "81",
        "217A新昌幹線",
        "217B新昌幹線",
        "217D新昌幹線(高應大發車)",
        "217E新昌幹線(大華里發車)",
        "8008",
        "8009",
        "8041A",
        "8041C(部分繞駛樹人醫專)",
        "8049",
        "紅30",
        "紅31",
        "黃1"
      ],
      "routeCount": 18,
      "routeSource": "gtfs",
      "routeUpdatedAt": "2026-06-14T16:43:42.333Z",
      "routeConfidence": "high"
    },
    {
      "id": 1327596331,
      "name": "大樂民族店",
      "type": "bus",
      "city": "高雄市",
      "district": "三民區",
      "lat": 22.6598118,
      "lng": 120.3147097,
      "routes": [
        "3",
        "3繞(17時以後改道文信路)",
        "16A",
        "16A繞(經文信路)",
        "16B",
        "8502",
        "紅33明誠幹線"
      ],
      "routeCount": 7,
      "routeSource": "gtfs",
      "routeUpdatedAt": "2026-06-14T16:43:42.333Z",
      "routeConfidence": "high"
    },
    {
      "id": 1327596336,
      "name": "河堤路口(明誠二路)",
      "type": "bus",
      "city": "高雄市",
      "district": "三民區",
      "lat": 22.6603709,
      "lng": 120.3124476,
      "routes": [
        "3",
        "3繞(17時以後改道文信路)",
        "紅33明誠幹線"
      ],
      "routeCount": 3,
      "routeSource": "gtfs",
      "routeUpdatedAt": "2026-06-14T16:43:42.333Z",
      "routeConfidence": "high"
    },
    {
      "id": 1329277039,
      "name": "高醫(十全路)",
      "type": "bus",
      "city": "高雄市",
      "district": "三民區",
      "lat": 22.6448642,
      "lng": 120.3104915,
      "routes": [
        "28",
        "33(6:33繞駛後指部)",
        "53",
        "8008",
        "8009",
        "8023",
        "8041A",
        "紅28",
        "紅28(繞中都濕地公園)",
        "紅29",
        "紅30",
        "紅31",
        "E25高旗六龜快線(部分不經高鐵左營站)",
        "E28高旗美濃快線",
        "E32高旗甲仙快線",
        "JOY H12(週二、四行駛)",
        "JOY H21(週一、三、五行駛)"
      ],
      "routeCount": 17,
      "routeSource": "gtfs",
      "routeUpdatedAt": "2026-06-14T16:43:42.334Z",
      "routeConfidence": "high"
    },
    {
      "id": 1329277045,
      "name": "高醫(十全路)",
      "type": "bus",
      "city": "高雄市",
      "district": "三民區",
      "lat": 22.6450823,
      "lng": 120.3093949,
      "routes": [
        "26A",
        "26B",
        "28",
        "33(6:33繞駛後指部)",
        "53",
        "92自由幹線",
        "8008",
        "8009",
        "8023",
        "8041A",
        "紅28",
        "紅28(繞中都濕地公園)",
        "紅29",
        "紅30",
        "紅31",
        "E25高旗六龜快線(部分不經高鐵左營站)",
        "E28高旗美濃快線",
        "E32高旗甲仙快線",
        "JOY H12(週二、四行駛)",
        "JOY H21(週一、三、五行駛)"
      ],
      "routeCount": 20,
      "routeSource": "gtfs",
      "routeUpdatedAt": "2026-06-14T16:43:42.334Z",
      "routeConfidence": "high"
    },
    {
      "id": 1330698334,
      "name": "九如橋站",
      "type": "bus",
      "city": "高雄市",
      "district": "三民區",
      "lat": 22.6441723,
      "lng": 120.2848412
    },
    {
      "id": 1330698338,
      "name": "民族社區(九如一路)",
      "type": "bus",
      "city": "高雄市",
      "district": "三民區",
      "lat": 22.6398886,
      "lng": 120.3186431,
      "routes": [
        "60覺民幹線",
        "60覺民幹線區間車",
        "73",
        "紅28(繞中都濕地公園)"
      ],
      "routeCount": 4,
      "routeSource": "gtfs",
      "routeUpdatedAt": "2026-06-14T16:43:42.334Z",
      "routeConfidence": "high"
    },
    {
      "id": 1330698339,
      "name": "安東街口(九如二路)",
      "type": "bus",
      "city": "高雄市",
      "district": "三民區",
      "lat": 22.641597,
      "lng": 120.2955487,
      "routes": [
        "33(6:33繞駛後指部)",
        "73"
      ],
      "routeCount": 2,
      "routeSource": "gtfs",
      "routeUpdatedAt": "2026-06-14T16:43:42.334Z",
      "routeConfidence": "high"
    },
    {
      "id": 1330698341,
      "name": "哈爾濱街口",
      "type": "bus",
      "city": "高雄市",
      "district": "三民區",
      "lat": 22.6413078,
      "lng": 120.3000198,
      "routes": [
        "33(6:33繞駛後指部)",
        "73",
        "紅28",
        "紅28(繞中都濕地公園)"
      ],
      "routeCount": 4,
      "routeSource": "gtfs",
      "routeUpdatedAt": "2026-06-14T16:43:42.334Z",
      "routeConfidence": "high"
    },
    {
      "id": 1330698344,
      "name": "山東街口",
      "type": "bus",
      "city": "高雄市",
      "district": "三民區",
      "lat": 22.6404697,
      "lng": 120.3121432,
      "routes": [
        "73",
        "紅28(繞中都濕地公園)"
      ],
      "routeCount": 2,
      "routeSource": "gtfs",
      "routeUpdatedAt": "2026-06-14T16:43:42.334Z",
      "routeConfidence": "high"
    },
    {
      "id": 4580663532,
      "name": "高雄車站",
      "type": "metro",
      "city": "高雄市",
      "district": "三民區",
      "lat": 22.6393352,
      "lng": 120.3026522,
      "lines": [
        "紅線"
      ],
      "lineCount": 1,
      "lineSource": "gtfs",
      "lineUpdatedAt": "2026-06-14T15:08:27.189Z",
      "lineConfidence": "high"
    },
    {
      "id": 1330868881,
      "name": "通化街口",
      "type": "bus",
      "city": "高雄市",
      "district": "三民區",
      "lat": 22.6420471,
      "lng": 120.2929284,
      "routes": [
        "33(6:33繞駛後指部)",
        "73"
      ],
      "routeCount": 2,
      "routeSource": "gtfs",
      "routeUpdatedAt": "2026-06-14T16:43:42.334Z",
      "routeConfidence": "high"
    },
    {
      "id": 1330698358,
      "name": "青島街口",
      "type": "bus",
      "city": "高雄市",
      "district": "三民區",
      "lat": 22.6405658,
      "lng": 120.3102737,
      "routes": [
        "73",
        "紅28(繞中都濕地公園)"
      ],
      "routeCount": 2,
      "routeSource": "gtfs",
      "routeUpdatedAt": "2026-06-14T16:43:42.335Z",
      "routeConfidence": "high"
    },
    {
      "id": 1330698365,
      "name": "中華二路口",
      "type": "bus",
      "city": "高雄市",
      "district": "三民區",
      "lat": 22.6423105,
      "lng": 120.2903761,
      "routes": [
        "168環西區間",
        "168環東區間",
        "218A內惟幹線",
        "218B內惟幹線(繞駛合群社區)",
        "紅25公車式小黃"
      ],
      "routeCount": 5,
      "routeSource": "gtfs",
      "routeUpdatedAt": "2026-06-14T16:43:42.335Z",
      "routeConfidence": "high"
    },
    {
      "id": 1330698367,
      "name": "自由路口(九如二路)",
      "type": "bus",
      "city": "高雄市",
      "district": "三民區",
      "lat": 22.6407559,
      "lng": 120.3074551,
      "routes": [
        "52A",
        "73",
        "紅27",
        "紅28(繞中都濕地公園)"
      ],
      "routeCount": 4,
      "routeSource": "gtfs",
      "routeUpdatedAt": "2026-06-14T16:43:42.335Z",
      "routeConfidence": "high"
    },
    {
      "id": 1330698369,
      "name": "九如新村",
      "type": "bus",
      "city": "高雄市",
      "district": "三民區",
      "lat": 22.6430612,
      "lng": 120.2881565,
      "routes": [
        "168環西區間",
        "168環東區間",
        "218A內惟幹線",
        "218B內惟幹線(繞駛合群社區)",
        "紅25公車式小黃"
      ],
      "routeCount": 5,
      "routeSource": "gtfs",
      "routeUpdatedAt": "2026-06-14T16:43:42.335Z",
      "routeConfidence": "high"
    },
    {
      "id": 1330698370,
      "name": "民族陸橋",
      "type": "bus",
      "city": "高雄市",
      "district": "三民區",
      "lat": 22.640197,
      "lng": 120.3153456,
      "routes": [
        "60覺民幹線",
        "60覺民幹線區間車",
        "73",
        "紅28(繞中都濕地公園)"
      ],
      "routeCount": 4,
      "routeSource": "gtfs",
      "routeUpdatedAt": "2026-06-14T16:43:42.335Z",
      "routeConfidence": "high"
    },
    {
      "id": 1330698374,
      "name": "鳳鳴電台",
      "type": "bus",
      "city": "高雄市",
      "district": "三民區",
      "lat": 22.6414857,
      "lng": 120.2974873,
      "routes": [
        "33(6:33繞駛後指部)",
        "73"
      ],
      "routeCount": 2,
      "routeSource": "gtfs",
      "routeUpdatedAt": "2026-06-14T16:43:42.335Z",
      "routeConfidence": "high"
    },
    {
      "id": 1330698375,
      "name": "大連街口",
      "type": "bus",
      "city": "高雄市",
      "district": "三民區",
      "lat": 22.64095,
      "lng": 120.305295,
      "routes": [
        "52A",
        "73",
        "92自由幹線",
        "紅27",
        "紅28(繞中都濕地公園)"
      ],
      "routeCount": 5,
      "routeSource": "gtfs",
      "routeUpdatedAt": "2026-06-14T16:43:42.335Z",
      "routeConfidence": "high"
    },
    {
      "id": 1330857279,
      "name": "科工館",
      "type": "bus",
      "city": "高雄市",
      "district": "三民區",
      "lat": 22.6396521,
      "lng": 120.3239547,
      "routes": [
        "60覺民幹線",
        "60覺民幹線區間車",
        "73",
        "紅28",
        "紅28(繞中都濕地公園)"
      ],
      "routeCount": 5,
      "routeSource": "gtfs",
      "routeUpdatedAt": "2026-06-14T16:43:42.335Z",
      "routeConfidence": "high"
    },
    {
      "id": 1352576891,
      "name": "和順街口站",
      "type": "bus",
      "city": "高雄市",
      "district": "三民區",
      "lat": 22.6550712,
      "lng": 120.316774
    },
    {
      "id": 1352576892,
      "name": "大順二路站",
      "type": "bus",
      "city": "高雄市",
      "district": "三民區",
      "lat": 22.6509677,
      "lng": 120.3227429,
      "routes": [
        "16A",
        "16A繞(經文信路)",
        "16B",
        "168環西",
        "168環西區間",
        "168環東",
        "168環東區間"
      ],
      "routeCount": 7,
      "routeSource": "gtfs",
      "routeUpdatedAt": "2026-06-14T16:43:42.335Z",
      "routeConfidence": "high"
    },
    {
      "id": 1352576893,
      "name": "家樂福鼎山店",
      "type": "bus",
      "city": "高雄市",
      "district": "三民區",
      "lat": 22.6533623,
      "lng": 120.3193338,
      "routes": [
        "16A",
        "16A繞(經文信路)",
        "16B",
        "168環西",
        "168環西區間",
        "168環東",
        "168環東區間",
        "綠2",
        "綠2A"
      ],
      "routeCount": 9,
      "routeSource": "gtfs",
      "routeUpdatedAt": "2026-06-14T16:43:42.336Z",
      "routeConfidence": "high"
    },
    {
      "id": 1352577199,
      "name": "鼎山街口站",
      "type": "bus",
      "city": "高雄市",
      "district": "三民區",
      "lat": 22.6525948,
      "lng": 120.3204551
    },
    {
      "id": 1882806200,
      "name": "天祥一路",
      "type": "bus",
      "city": "高雄市",
      "district": "三民區",
      "lat": 22.6679659,
      "lng": 120.3184323,
      "routes": [
        "3",
        "3繞(17時以後改道文信路)",
        "28",
        "92自由幹線",
        "168環西",
        "168環西區間",
        "168環東",
        "168環東區間",
        "217A新昌幹線",
        "217B新昌幹線",
        "217D新昌幹線(高應大發車)",
        "217E新昌幹線(大華里發車)",
        "紅36裕誠幹線",
        "紅36裕誠幹線(17時以後改道文信路)",
        "綠2"
      ],
      "routeCount": 15,
      "routeSource": "gtfs",
      "routeUpdatedAt": "2026-06-14T16:43:42.336Z",
      "routeConfidence": "high"
    },
    {
      "id": 1882806224,
      "name": "文藻外語大學(鼎中路)",
      "type": "bus",
      "city": "高雄市",
      "district": "三民區",
      "lat": 22.6708604,
      "lng": 120.3206476,
      "routes": [
        "3",
        "3繞(17時以後改道文信路)",
        "28",
        "77昌福幹線",
        "8021",
        "紅35",
        "紅35(繞駛崇實社區)",
        "紅36裕誠幹線",
        "紅36裕誠幹線(17時以後改道文信路)"
      ],
      "routeCount": 9,
      "routeSource": "gtfs",
      "routeUpdatedAt": "2026-06-14T16:43:42.336Z",
      "routeConfidence": "high"
    },
    {
      "id": 1882806229,
      "name": "民族路(明誠路口)",
      "type": "bus",
      "city": "高雄市",
      "district": "三民區",
      "lat": 22.6617046,
      "lng": 120.315869,
      "routes": [
        "3",
        "3繞(17時以後改道文信路)",
        "28",
        "72",
        "90民族幹線",
        "8023",
        "8041C(部分繞駛樹人醫專)",
        "8049",
        "綠2",
        "E25高旗六龜快線(部分不經高鐵左營站)",
        "E28高旗美濃快線",
        "E32高旗甲仙快線"
      ],
      "routeCount": 12,
      "routeSource": "gtfs",
      "routeUpdatedAt": "2026-06-14T16:43:42.336Z",
      "routeConfidence": "high"
    },
    {
      "id": 1882806245,
      "name": "獅湖國小(鼎中路)",
      "type": "bus",
      "city": "高雄市",
      "district": "三民區",
      "lat": 22.6741883,
      "lng": 120.3216789,
      "routes": [
        "3",
        "3繞(17時以後改道文信路)",
        "24(假日停駛)",
        "24A(平日停駛)",
        "28",
        "72",
        "77昌福幹線",
        "224",
        "8021",
        "紅35",
        "紅35(繞駛崇實社區)"
      ],
      "routeCount": 11,
      "routeSource": "gtfs",
      "routeUpdatedAt": "2026-06-14T16:43:42.337Z",
      "routeConfidence": "high"
    },
    {
      "id": 1882806277,
      "name": "民族裕誠路口",
      "type": "bus",
      "city": "高雄市",
      "district": "三民區",
      "lat": 22.6648293,
      "lng": 120.3162151,
      "routes": [
        "3",
        "3繞(17時以後改道文信路)",
        "24(假日停駛)",
        "24A(平日停駛)",
        "28",
        "90民族幹線",
        "8023",
        "8041C(部分繞駛樹人醫專)",
        "8049",
        "E25高旗六龜快線(部分不經高鐵左營站)",
        "E28高旗美濃快線",
        "E32高旗甲仙快線"
      ],
      "routeCount": 12,
      "routeSource": "gtfs",
      "routeUpdatedAt": "2026-06-14T16:43:42.337Z",
      "routeConfidence": "high"
    },
    {
      "id": 1882806299,
      "name": "鼎中路(天祥一路口)",
      "type": "bus",
      "city": "高雄市",
      "district": "三民區",
      "lat": 22.6687171,
      "lng": 120.3199607,
      "routes": [
        "3",
        "3繞(17時以後改道文信路)",
        "28",
        "紅36裕誠幹線",
        "紅36裕誠幹線(17時以後改道文信路)"
      ],
      "routeCount": 5,
      "routeSource": "gtfs",
      "routeUpdatedAt": "2026-06-14T16:43:42.337Z",
      "routeConfidence": "high"
    },
    {
      "id": 1889973218,
      "name": "三民公園(博愛路口)",
      "type": "bus",
      "city": "高雄市",
      "district": "三民區",
      "lat": 22.6452997,
      "lng": 120.3037635,
      "routes": [
        "26A",
        "26B",
        "28",
        "33(6:33繞駛後指部)",
        "53",
        "8008",
        "8009",
        "8023",
        "8041A",
        "紅28(繞中都濕地公園)",
        "E25高旗六龜快線(部分不經高鐵左營站)",
        "E28高旗美濃快線",
        "E32高旗甲仙快線"
      ],
      "routeCount": 13,
      "routeSource": "gtfs",
      "routeUpdatedAt": "2026-06-14T16:43:42.337Z",
      "routeConfidence": "high"
    },
    {
      "id": 1889973267,
      "name": "三民國中",
      "type": "bus",
      "city": "高雄市",
      "district": "三民區",
      "lat": 22.6451817,
      "lng": 120.3059002,
      "routes": [
        "26A",
        "26B",
        "28",
        "53",
        "8008",
        "8009",
        "8023",
        "8041A",
        "紅28",
        "紅28(繞中都濕地公園)",
        "E25高旗六龜快線(部分不經高鐵左營站)",
        "E28高旗美濃快線",
        "E32高旗甲仙快線"
      ],
      "routeCount": 13,
      "routeSource": "gtfs",
      "routeUpdatedAt": "2026-06-14T16:43:42.337Z",
      "routeConfidence": "high"
    },
    {
      "id": 1889973339,
      "name": "十全國小",
      "type": "bus",
      "city": "高雄市",
      "district": "三民區",
      "lat": 22.6456549,
      "lng": 120.2982687,
      "routes": [
        "28",
        "53",
        "紅28(繞中都濕地公園)"
      ],
      "routeCount": 3,
      "routeSource": "gtfs",
      "routeUpdatedAt": "2026-06-14T16:43:42.337Z",
      "routeConfidence": "high"
    },
    {
      "id": 1889973352,
      "name": "同盟一路口",
      "type": "bus",
      "city": "高雄市",
      "district": "三民區",
      "lat": 22.6492243,
      "lng": 120.3090331,
      "routes": [
        "26A",
        "26B",
        "33(6:33繞駛後指部)",
        "92自由幹線",
        "紅29",
        "紅30",
        "紅31"
      ],
      "routeCount": 7,
      "routeSource": "gtfs",
      "routeUpdatedAt": "2026-06-14T16:43:42.338Z",
      "routeConfidence": "high"
    },
    {
      "id": 1889973375,
      "name": "天津街口",
      "type": "bus",
      "city": "高雄市",
      "district": "三民區",
      "lat": 22.645525,
      "lng": 120.300621,
      "routes": [
        "28",
        "53",
        "100百貨幹線",
        "紅28(繞中都濕地公園)"
      ],
      "routeCount": 4,
      "routeSource": "gtfs",
      "routeUpdatedAt": "2026-06-14T16:43:42.338Z",
      "routeConfidence": "high"
    },
    {
      "id": 1889973411,
      "name": "安東街口(十全二路)",
      "type": "bus",
      "city": "高雄市",
      "district": "三民區",
      "lat": 22.6459192,
      "lng": 120.2953257,
      "routes": [
        "紅25繞公車式小黃",
        "紅28(繞中都濕地公園)"
      ],
      "routeCount": 2,
      "routeSource": "gtfs",
      "routeUpdatedAt": "2026-06-14T16:43:42.338Z",
      "routeConfidence": "high"
    },
    {
      "id": 1889973432,
      "name": "客家文物館",
      "type": "bus",
      "city": "高雄市",
      "district": "三民區",
      "lat": 22.6509233,
      "lng": 120.2959231,
      "routes": [
        "紅28",
        "紅28(繞中都濕地公園)"
      ],
      "routeCount": 2,
      "routeSource": "gtfs",
      "routeUpdatedAt": "2026-06-14T16:43:42.338Z",
      "routeConfidence": "high"
    },
    {
      "id": 1889973463,
      "name": "愛國國小",
      "type": "bus",
      "city": "高雄市",
      "district": "三民區",
      "lat": 22.6446125,
      "lng": 120.3131685,
      "routes": [
        "28",
        "33(6:33繞駛後指部)",
        "53",
        "紅28",
        "紅29",
        "紅30",
        "紅31"
      ],
      "routeCount": 7,
      "routeSource": "gtfs",
      "routeUpdatedAt": "2026-06-14T16:43:42.338Z",
      "routeConfidence": "high"
    },
    {
      "id": 1889973497,
      "name": "變電所(十全)",
      "type": "bus",
      "city": "高雄市",
      "district": "三民區",
      "lat": 22.6460458,
      "lng": 120.2934845,
      "routes": [
        "73",
        "205中華幹線",
        "8043",
        "紅25繞公車式小黃",
        "紅28(繞中都濕地公園)"
      ],
      "routeCount": 5,
      "routeSource": "gtfs",
      "routeUpdatedAt": "2026-06-14T16:43:42.338Z",
      "routeConfidence": "high"
    },
    {
      "id": 1889973507,
      "name": "高醫(高雄醫學大學)",
      "type": "bus",
      "city": "高雄市",
      "district": "三民區",
      "lat": 22.6463357,
      "lng": 120.308809,
      "routes": [
        "26A",
        "26B",
        "28",
        "33(6:33繞駛後指部)",
        "53",
        "92自由幹線",
        "8008",
        "8009",
        "8023",
        "8041A",
        "紅28",
        "紅28(繞中都濕地公園)",
        "紅29",
        "紅30",
        "紅31",
        "E25高旗六龜快線(部分不經高鐵左營站)",
        "E28高旗美濃快線",
        "E32高旗甲仙快線",
        "JOY H12(週二、四行駛)",
        "JOY H21(週一、三、五行駛)"
      ],
      "routeCount": 20,
      "routeSource": "gtfs",
      "routeUpdatedAt": "2026-06-14T16:43:42.338Z",
      "routeConfidence": "high"
    },
    {
      "id": 1890034732,
      "name": "北平一街一",
      "type": "bus",
      "city": "高雄市",
      "district": "三民區",
      "lat": 22.6499787,
      "lng": 120.305198,
      "routes": [
        "26A",
        "26B",
        "紅29",
        "紅30",
        "紅31"
      ],
      "routeCount": 5,
      "routeSource": "gtfs",
      "routeUpdatedAt": "2026-06-14T16:43:42.339Z",
      "routeConfidence": "high"
    },
    {
      "id": 1890034735,
      "name": "北平一街二",
      "type": "bus",
      "city": "高雄市",
      "district": "三民區",
      "lat": 22.6498586,
      "lng": 120.3074119,
      "routes": [
        "26A",
        "26B",
        "紅29",
        "紅30",
        "紅31"
      ],
      "routeCount": 5,
      "routeSource": "gtfs",
      "routeUpdatedAt": "2026-06-14T16:43:42.339Z",
      "routeConfidence": "high"
    },
    {
      "id": 1890034736,
      "name": "捷運後驛站",
      "type": "bus",
      "city": "高雄市",
      "district": "三民區",
      "lat": 22.6479258,
      "lng": 120.3034772,
      "routes": [
        "26A",
        "26B",
        "33(6:33繞駛後指部)",
        "224",
        "301",
        "紅28",
        "紅28(繞中都濕地公園)",
        "紅29",
        "紅30",
        "紅31"
      ],
      "routeCount": 10,
      "routeSource": "gtfs",
      "routeUpdatedAt": "2026-06-14T16:43:42.339Z",
      "routeConfidence": "high"
    },
    {
      "id": 1890044513,
      "name": "同盟路口",
      "type": "bus",
      "city": "高雄市",
      "district": "三民區",
      "lat": 22.6506027,
      "lng": 120.3033469,
      "routes": [
        "33(6:33繞駛後指部)",
        "224",
        "301",
        "紅28",
        "紅28(繞中都濕地公園)"
      ],
      "routeCount": 5,
      "routeSource": "gtfs",
      "routeUpdatedAt": "2026-06-14T16:43:42.339Z",
      "routeConfidence": "high"
    },
    {
      "id": 1890066718,
      "name": "三民公園站",
      "type": "bus",
      "city": "高雄市",
      "district": "三民區",
      "lat": 22.6474554,
      "lng": 120.3047009
    },
    {
      "id": 1890066733,
      "name": "三民國中站",
      "type": "bus",
      "city": "高雄市",
      "district": "三民區",
      "lat": 22.6472221,
      "lng": 120.3081579
    },
    {
      "id": 1890066757,
      "name": "同盟重慶街口",
      "type": "bus",
      "city": "高雄市",
      "district": "三民區",
      "lat": 22.6515073,
      "lng": 120.3022806,
      "routes": [
        "100百貨幹線"
      ],
      "routeCount": 1,
      "routeSource": "gtfs",
      "routeUpdatedAt": "2026-06-14T15:08:27.192Z",
      "routeConfidence": "high"
    },
    {
      "id": 1895099529,
      "name": "鼎金後路",
      "type": "bus",
      "city": "高雄市",
      "district": "三民區",
      "lat": 22.6699218,
      "lng": 120.3251014,
      "routes": [
        "24(假日停駛)",
        "24A(平日停駛)",
        "72",
        "77昌福幹線",
        "224",
        "紅36裕誠幹線",
        "紅36裕誠幹線(17時以後改道文信路)"
      ],
      "routeCount": 7,
      "routeSource": "gtfs",
      "routeUpdatedAt": "2026-06-14T16:43:42.339Z",
      "routeConfidence": "high"
    },
    {
      "id": 2474757229,
      "name": "建國林森路口",
      "type": "bus",
      "city": "高雄市",
      "district": "三民區",
      "lat": 22.6375515,
      "lng": 120.3044773
    },
    {
      "id": 2482443992,
      "name": "中都磚窯廠(川東里)",
      "type": "bus",
      "city": "高雄市",
      "district": "三民區",
      "lat": 22.6403691,
      "lng": 120.2841407,
      "routes": [
        "168環西",
        "168環東",
        "紅27",
        "紅52"
      ],
      "routeCount": 4,
      "routeSource": "gtfs",
      "routeUpdatedAt": "2026-06-14T16:43:42.340Z",
      "routeConfidence": "high"
    },
    {
      "id": 2482443996,
      "name": "同盟三路",
      "type": "bus",
      "city": "高雄市",
      "district": "三民區",
      "lat": 22.6380005,
      "lng": 120.2851881,
      "routes": [
        "168環西",
        "168環東",
        "紅27"
      ],
      "routeCount": 3,
      "routeSource": "gtfs",
      "routeUpdatedAt": "2026-06-14T16:43:42.340Z",
      "routeConfidence": "high"
    },
    {
      "id": 2482444006,
      "name": "河濱國小",
      "type": "bus",
      "city": "高雄市",
      "district": "三民區",
      "lat": 22.6346575,
      "lng": 120.2864108,
      "routes": [
        "88建國幹線",
        "88建國幹線延駛",
        "168環西",
        "168環東",
        "紅27"
      ],
      "routeCount": 5,
      "routeSource": "gtfs",
      "routeUpdatedAt": "2026-06-14T16:43:42.340Z",
      "routeConfidence": "high"
    },
    {
      "id": 2486625077,
      "name": "金獅湖站",
      "type": "bus",
      "city": "高雄市",
      "district": "三民區",
      "lat": 22.6657344,
      "lng": 120.3217668,
      "routes": [
        "33(6:33繞駛後指部)",
        "72",
        "76",
        "77昌福幹線",
        "77昌福幹線(繞三民高中)",
        "92自由幹線",
        "168環西",
        "168環西區間",
        "168環東",
        "168環東區間",
        "217A新昌幹線",
        "217B新昌幹線",
        "217D新昌幹線(高應大發車)",
        "217E新昌幹線(大華里發車)",
        "8502",
        "紅31",
        "紅35",
        "紅35(繞駛崇實社區)",
        "綠2A"
      ],
      "routeCount": 19,
      "routeSource": "gtfs",
      "routeUpdatedAt": "2026-06-14T16:43:42.340Z",
      "routeConfidence": "high"
    },
    {
      "id": 2486625083,
      "name": "金鼎路",
      "type": "bus",
      "city": "高雄市",
      "district": "三民區",
      "lat": 22.664794,
      "lng": 120.3225352,
      "routes": [
        "33(6:33繞駛後指部)",
        "76",
        "紅31"
      ],
      "routeCount": 3,
      "routeSource": "gtfs",
      "routeUpdatedAt": "2026-06-14T16:43:42.340Z",
      "routeConfidence": "high"
    },
    {
      "id": 2486625089,
      "name": "金鼎路口",
      "type": "bus",
      "city": "高雄市",
      "district": "三民區",
      "lat": 22.6643859,
      "lng": 120.3218922,
      "routes": [
        "33(6:33繞駛後指部)",
        "217A新昌幹線",
        "217B新昌幹線",
        "217D新昌幹線(高應大發車)",
        "217E新昌幹線(大華里發車)",
        "綠2A"
      ],
      "routeCount": 6,
      "routeSource": "gtfs",
      "routeUpdatedAt": "2026-06-14T16:43:42.341Z",
      "routeConfidence": "high"
    },
    {
      "id": 2508265143,
      "name": "民族大順路口",
      "type": "bus",
      "city": "高雄市",
      "district": "三民區",
      "lat": 22.6571323,
      "lng": 120.3156305,
      "routes": [
        "28",
        "72",
        "90民族幹線",
        "8023",
        "8041C(部分繞駛樹人醫專)",
        "8049",
        "綠2",
        "E25高旗六龜快線(部分不經高鐵左營站)",
        "E28高旗美濃快線",
        "E32高旗甲仙快線"
      ],
      "routeCount": 10,
      "routeSource": "gtfs",
      "routeUpdatedAt": "2026-06-14T16:43:42.341Z",
      "routeConfidence": "high"
    },
    {
      "id": 2508265146,
      "name": "建工路",
      "type": "bus",
      "city": "高雄市",
      "district": "三民區",
      "lat": 22.6481862,
      "lng": 120.3187682,
      "routes": [
        "33(6:33繞駛後指部)",
        "53",
        "8008",
        "8009",
        "8041A",
        "8041C(部分繞駛樹人醫專)",
        "8049",
        "紅29",
        "紅30",
        "紅31",
        "黃1"
      ],
      "routeCount": 11,
      "routeSource": "gtfs",
      "routeUpdatedAt": "2026-06-14T16:43:42.341Z",
      "routeConfidence": "high"
    },
    {
      "id": 2508265148,
      "name": "聖加大利納堂",
      "type": "bus",
      "city": "高雄市",
      "district": "三民區",
      "lat": 22.6474931,
      "lng": 120.3217249,
      "routes": [
        "紅29"
      ],
      "routeCount": 1,
      "routeSource": "gtfs",
      "routeUpdatedAt": "2026-06-14T15:08:27.193Z",
      "routeConfidence": "high"
    },
    {
      "id": 2508265151,
      "name": "建興路",
      "type": "bus",
      "city": "高雄市",
      "district": "三民區",
      "lat": 22.6465852,
      "lng": 120.3226607,
      "routes": [
        "紅29"
      ],
      "routeCount": 1,
      "routeSource": "gtfs",
      "routeUpdatedAt": "2026-06-14T15:08:27.193Z",
      "routeConfidence": "high"
    },
    {
      "id": 2508265153,
      "name": "建興路一",
      "type": "bus",
      "city": "高雄市",
      "district": "三民區",
      "lat": 22.6457583,
      "lng": 120.3234474,
      "routes": [
        "紅29"
      ],
      "routeCount": 1,
      "routeSource": "gtfs",
      "routeUpdatedAt": "2026-06-14T15:08:27.193Z",
      "routeConfidence": "high"
    },
    {
      "id": 2508265155,
      "name": "果菜公司",
      "type": "bus",
      "city": "高雄市",
      "district": "三民區",
      "lat": 22.6450956,
      "lng": 120.3145678,
      "routes": [
        "28",
        "33(6:33繞駛後指部)",
        "53",
        "72",
        "90民族幹線",
        "8008",
        "8009",
        "8023",
        "8041A",
        "紅29",
        "紅30",
        "紅31",
        "黃1",
        "E25高旗六龜快線(部分不經高鐵左營站)",
        "E28高旗美濃快線",
        "E32高旗甲仙快線"
      ],
      "routeCount": 16,
      "routeSource": "gtfs",
      "routeUpdatedAt": "2026-06-14T16:43:42.341Z",
      "routeConfidence": "high"
    },
    {
      "id": 2508265157,
      "name": "民族派出所",
      "type": "bus",
      "city": "高雄市",
      "district": "三民區",
      "lat": 22.6477583,
      "lng": 120.3164392,
      "routes": [
        "33(6:33繞駛後指部)",
        "53",
        "8008",
        "8009",
        "8041A",
        "8041C(部分繞駛樹人醫專)",
        "8049",
        "紅29",
        "紅30",
        "紅31",
        "黃1"
      ],
      "routeCount": 11,
      "routeSource": "gtfs",
      "routeUpdatedAt": "2026-06-14T16:43:42.341Z",
      "routeConfidence": "high"
    },
    {
      "id": 2508265159,
      "name": "民族社區(民族一路)",
      "type": "bus",
      "city": "高雄市",
      "district": "三民區",
      "lat": 22.6407924,
      "lng": 120.3142239,
      "routes": [
        "72",
        "90民族幹線",
        "黃1"
      ],
      "routeCount": 3,
      "routeSource": "gtfs",
      "routeUpdatedAt": "2026-06-14T16:43:42.341Z",
      "routeConfidence": "high"
    },
    {
      "id": 2508265161,
      "name": "灣仔內",
      "type": "bus",
      "city": "高雄市",
      "district": "三民區",
      "lat": 22.6488018,
      "lng": 120.3149894,
      "routes": [
        "28",
        "72",
        "90民族幹線",
        "8023",
        "8041C(部分繞駛樹人醫專)",
        "8049",
        "E25高旗六龜快線(部分不經高鐵左營站)",
        "E28高旗美濃快線",
        "E32高旗甲仙快線"
      ],
      "routeCount": 9,
      "routeSource": "gtfs",
      "routeUpdatedAt": "2026-06-14T16:43:42.342Z",
      "routeConfidence": "high"
    },
    {
      "id": 2508265163,
      "name": "民族陸橋",
      "type": "bus",
      "city": "高雄市",
      "district": "三民區",
      "lat": 22.6402336,
      "lng": 120.3170237,
      "routes": [
        "60覺民幹線",
        "60覺民幹線區間車",
        "73",
        "紅28(繞中都濕地公園)"
      ],
      "routeCount": 4,
      "routeSource": "gtfs",
      "routeUpdatedAt": "2026-06-14T16:43:42.342Z",
      "routeConfidence": "high"
    },
    {
      "id": 2508265164,
      "name": "隆峰寺",
      "type": "bus",
      "city": "高雄市",
      "district": "三民區",
      "lat": 22.6529695,
      "lng": 120.3153154,
      "routes": [
        "28",
        "72",
        "90民族幹線",
        "8023",
        "8041C(部分繞駛樹人醫專)",
        "8049",
        "E25高旗六龜快線(部分不經高鐵左營站)",
        "E28高旗美濃快線",
        "E32高旗甲仙快線"
      ],
      "routeCount": 9,
      "routeSource": "gtfs",
      "routeUpdatedAt": "2026-06-14T16:43:42.342Z",
      "routeConfidence": "high"
    },
    {
      "id": 2511532278,
      "name": "大順路口(九如一路)",
      "type": "bus",
      "city": "高雄市",
      "district": "三民區",
      "lat": 22.6391749,
      "lng": 120.32656,
      "routes": [
        "60覺民幹線",
        "60覺民幹線區間車",
        "73",
        "紅28(繞中都濕地公園)"
      ],
      "routeCount": 4,
      "routeSource": "gtfs",
      "routeUpdatedAt": "2026-06-14T16:43:42.342Z",
      "routeConfidence": "high"
    },
    {
      "id": 2511532282,
      "name": "高雄車站(建國路)",
      "type": "bus",
      "city": "高雄市",
      "district": "三民區",
      "lat": 22.6377704,
      "lng": 120.3011407,
      "routes": [
        "12",
        "12(延駛飛機路)",
        "26A",
        "26B",
        "28",
        "36",
        "53",
        "56A",
        "60覺民幹線",
        "60覺民幹線區間車",
        "69A小港幹線",
        "69B小港幹線(繞駛明鳳)",
        "69C小港幹線(繞駛學明)",
        "72",
        "82",
        "82公車式小黃",
        "83",
        "88建國幹線",
        "88建國幹線延駛",
        "205中華幹線",
        "218A內惟幹線",
        "218B內惟幹線(繞駛合群社區)",
        "301",
        "8043",
        "紅25公車式小黃",
        "紅25繞公車式小黃",
        "紅27",
        "紅30",
        "紅31"
      ],
      "routeCount": 29,
      "routeSource": "gtfs",
      "routeUpdatedAt": "2026-06-14T16:43:42.343Z",
      "routeConfidence": "high"
    },
    {
      "id": 2511559252,
      "name": "人道國際飯店",
      "type": "bus",
      "city": "高雄市",
      "district": "三民區",
      "lat": 22.6384842,
      "lng": 120.3311019,
      "routes": [
        "73",
        "紅28(繞中都濕地公園)"
      ],
      "routeCount": 2,
      "routeSource": "gtfs",
      "routeUpdatedAt": "2026-06-14T16:43:42.343Z",
      "routeConfidence": "high"
    },
    {
      "id": 2511559262,
      "name": "大華里(澄清路)",
      "type": "bus",
      "city": "高雄市",
      "district": "三民區",
      "lat": 22.6468,
      "lng": 120.3468149,
      "routes": [
        "30",
        "60覺民幹線",
        "60覺民幹線區間車",
        "70A三多幹線(部分延駛澄清湖)",
        "70B三多幹線(延駛鎮州路)",
        "70D三多幹線(延駛仁美)",
        "217A新昌幹線",
        "217B新昌幹線",
        "217E新昌幹線(大華里發車)",
        "8008",
        "8009",
        "8021",
        "8041A",
        "8041C(部分繞駛樹人醫專)",
        "8048",
        "8049",
        "紅28",
        "紅28(繞中都濕地公園)",
        "紅30",
        "紅33明誠幹線",
        "黃1",
        "黃2A(部分繞駛圓山飯店)",
        "黃2B",
        "黃2C",
        "橘7C"
      ],
      "routeCount": 25,
      "routeSource": "gtfs",
      "routeUpdatedAt": "2026-06-14T16:43:42.343Z",
      "routeConfidence": "high"
    },
    {
      "id": 2511559267,
      "name": "九如大順路口",
      "type": "bus",
      "city": "高雄市",
      "district": "三民區",
      "lat": 22.6388696,
      "lng": 120.3287515,
      "routes": [
        "60覺民幹線",
        "60覺民幹線區間車",
        "73",
        "紅28(繞中都濕地公園)"
      ],
      "routeCount": 4,
      "routeSource": "gtfs",
      "routeUpdatedAt": "2026-06-14T16:43:42.343Z",
      "routeConfidence": "high"
    },
    {
      "id": 2511559273,
      "name": "民壯路口",
      "type": "bus",
      "city": "高雄市",
      "district": "三民區",
      "lat": 22.639326,
      "lng": 120.3403342,
      "routes": [
        "60覺民幹線",
        "60覺民幹線區間車",
        "217A新昌幹線",
        "217B新昌幹線",
        "217E新昌幹線(大華里發車)"
      ],
      "routeCount": 5,
      "routeSource": "gtfs",
      "routeUpdatedAt": "2026-06-14T16:43:42.343Z",
      "routeConfidence": "high"
    },
    {
      "id": 2511559279,
      "name": "民族國中",
      "type": "bus",
      "city": "高雄市",
      "district": "三民區",
      "lat": 22.6404826,
      "lng": 120.333876,
      "routes": [
        "60覺民幹線",
        "60覺民幹線區間車",
        "217A新昌幹線",
        "217B新昌幹線",
        "217E新昌幹線(大華里發車)"
      ],
      "routeCount": 5,
      "routeSource": "gtfs",
      "routeUpdatedAt": "2026-06-14T16:43:42.343Z",
      "routeConfidence": "high"
    },
    {
      "id": 2511559297,
      "name": "澄清路",
      "type": "bus",
      "city": "高雄市",
      "district": "三民區",
      "lat": 22.642309,
      "lng": 120.3457282,
      "routes": [
        "30",
        "60覺民幹線",
        "60覺民幹線區間車",
        "70A三多幹線(部分延駛澄清湖)",
        "70B三多幹線(延駛鎮州路)",
        "70D三多幹線(延駛仁美)",
        "217A新昌幹線",
        "217B新昌幹線",
        "217E新昌幹線(大華里發車)",
        "8041A",
        "8041C(部分繞駛樹人醫專)",
        "8048",
        "8049",
        "紅28",
        "紅28(繞中都濕地公園)",
        "黃2A(部分繞駛圓山飯店)",
        "黃2B",
        "黃2C",
        "橘7C"
      ],
      "routeCount": 19,
      "routeSource": "gtfs",
      "routeUpdatedAt": "2026-06-14T16:43:42.344Z",
      "routeConfidence": "high"
    },
    {
      "id": 2511559299,
      "name": "義華路",
      "type": "bus",
      "city": "高雄市",
      "district": "三民區",
      "lat": 22.64225,
      "lng": 120.3433067,
      "routes": [
        "60覺民幹線",
        "60覺民幹線區間車",
        "紅28",
        "紅28(繞中都濕地公園)"
      ],
      "routeCount": 4,
      "routeSource": "gtfs",
      "routeUpdatedAt": "2026-06-14T16:43:42.344Z",
      "routeConfidence": "high"
    },
    {
      "id": 2511559301,
      "name": "義華路口(陽明路)",
      "type": "bus",
      "city": "高雄市",
      "district": "三民區",
      "lat": 22.6416562,
      "lng": 120.3417494,
      "routes": [
        "53",
        "60覺民幹線",
        "60覺民幹線區間車"
      ],
      "routeCount": 3,
      "routeSource": "gtfs",
      "routeUpdatedAt": "2026-06-14T16:43:42.344Z",
      "routeConfidence": "high"
    },
    {
      "id": 2511559304,
      "name": "高速公路口",
      "type": "bus",
      "city": "高雄市",
      "district": "三民區",
      "lat": 22.6397677,
      "lng": 120.3378146,
      "routes": [
        "60覺民幹線",
        "60覺民幹線區間車",
        "217A新昌幹線",
        "217B新昌幹線",
        "217E新昌幹線(大華里發車)"
      ],
      "routeCount": 5,
      "routeSource": "gtfs",
      "routeUpdatedAt": "2026-06-14T16:43:42.344Z",
      "routeConfidence": "high"
    },
    {
      "id": 2512758761,
      "name": "澄園",
      "type": "bus",
      "city": "高雄市",
      "district": "三民區",
      "lat": 22.6469132,
      "lng": 120.3477469,
      "routes": [
        "橘7A",
        "橘7A(延駛中興北路一)",
        "橘7B(不延駛佛光山)",
        "橘7B(假日停駛)",
        "橘12(白天延駛澄清湖)"
      ],
      "routeCount": 5,
      "routeSource": "gtfs",
      "routeUpdatedAt": "2026-06-14T16:43:42.344Z",
      "routeConfidence": "high"
    },
    {
      "id": 2512798433,
      "name": "三民國小",
      "type": "bus",
      "city": "高雄市",
      "district": "三民區",
      "lat": 22.6361405,
      "lng": 120.2908028,
      "routes": [
        "88建國幹線",
        "88建國幹線延駛",
        "紅27"
      ],
      "routeCount": 3,
      "routeSource": "gtfs",
      "routeUpdatedAt": "2026-06-14T16:43:42.344Z",
      "routeConfidence": "high"
    },
    {
      "id": 2512798443,
      "name": "建國三路",
      "type": "bus",
      "city": "高雄市",
      "district": "三民區",
      "lat": 22.6352907,
      "lng": 120.2882821,
      "routes": [
        "88建國幹線",
        "88建國幹線延駛",
        "紅27"
      ],
      "routeCount": 3,
      "routeSource": "gtfs",
      "routeUpdatedAt": "2026-06-14T16:43:42.344Z",
      "routeConfidence": "high"
    },
    {
      "id": 2512798449,
      "name": "高雄中學",
      "type": "bus",
      "city": "高雄市",
      "district": "三民區",
      "lat": 22.6378194,
      "lng": 120.2974767,
      "routes": [
        "12",
        "12(延駛飛機路)",
        "28",
        "36",
        "53",
        "56A",
        "60覺民幹線",
        "60覺民幹線區間車",
        "69A小港幹線",
        "69B小港幹線(繞駛明鳳)",
        "69C小港幹線(繞駛學明)",
        "72",
        "82",
        "82公車式小黃",
        "83",
        "88建國幹線",
        "88建國幹線延駛",
        "205中華幹線",
        "218A內惟幹線",
        "218B內惟幹線(繞駛合群社區)",
        "301",
        "8043",
        "9117",
        "9117A",
        "9127",
        "9188",
        "紅25公車式小黃",
        "紅25繞公車式小黃",
        "紅27",
        "紅30",
        "紅31"
      ],
      "routeCount": 31,
      "routeSource": "gtfs",
      "routeUpdatedAt": "2026-06-14T16:43:42.345Z",
      "routeConfidence": "high"
    },
    {
      "id": 2515155065,
      "name": "義華路口",
      "type": "bus",
      "city": "高雄市",
      "district": "三民區",
      "lat": 22.6449348,
      "lng": 120.3321584,
      "routes": [
        "76",
        "77昌福幹線",
        "77昌福幹線(繞三民高中)",
        "217A新昌幹線",
        "217B新昌幹線",
        "217E新昌幹線(大華里發車)"
      ],
      "routeCount": 6,
      "routeSource": "gtfs",
      "routeUpdatedAt": "2026-06-14T16:43:42.345Z",
      "routeConfidence": "high"
    },
    {
      "id": 2515155073,
      "name": "大豐二路",
      "type": "bus",
      "city": "高雄市",
      "district": "三民區",
      "lat": 22.6458393,
      "lng": 120.3292697,
      "routes": [
        "紅29"
      ],
      "routeCount": 1,
      "routeSource": "gtfs",
      "routeUpdatedAt": "2026-06-14T15:08:27.195Z",
      "routeConfidence": "high"
    },
    {
      "id": 2515155089,
      "name": "春陽街口",
      "type": "bus",
      "city": "高雄市",
      "district": "三民區",
      "lat": 22.648621,
      "lng": 120.3347813
    },
    {
      "id": 2515155102,
      "name": "正忠路口",
      "type": "bus",
      "city": "高雄市",
      "district": "三民區",
      "lat": 22.6458239,
      "lng": 120.3304519,
      "routes": [
        "81"
      ],
      "routeCount": 1,
      "routeSource": "gtfs",
      "routeUpdatedAt": "2026-06-14T15:08:27.195Z",
      "routeConfidence": "high"
    },
    {
      "id": 2515155107,
      "name": "正興國小",
      "type": "bus",
      "city": "高雄市",
      "district": "三民區",
      "lat": 22.6450713,
      "lng": 120.3260055,
      "routes": [
        "81",
        "168環西",
        "168環西區間",
        "168環東",
        "168環東區間",
        "紅29"
      ],
      "routeCount": 6,
      "routeSource": "gtfs",
      "routeUpdatedAt": "2026-06-14T16:43:42.345Z",
      "routeConfidence": "high"
    },
    {
      "id": 2515155130,
      "name": "大昌二路(皓東路口)",
      "type": "bus",
      "city": "高雄市",
      "district": "三民區",
      "lat": 22.6476676,
      "lng": 120.3319853,
      "routes": [
        "紅29"
      ],
      "routeCount": 1,
      "routeSource": "gtfs",
      "routeUpdatedAt": "2026-06-14T15:08:27.195Z",
      "routeConfidence": "high"
    },
    {
      "id": 2515155135,
      "name": "義德路口(大豐二路)",
      "type": "bus",
      "city": "高雄市",
      "district": "三民區",
      "lat": 22.6467175,
      "lng": 120.3345166,
      "routes": [
        "76"
      ],
      "routeCount": 1,
      "routeSource": "gtfs",
      "routeUpdatedAt": "2026-06-14T16:43:42.345Z",
      "routeConfidence": "high"
    },
    {
      "id": 2515155142,
      "name": "大昌二路口",
      "type": "bus",
      "city": "高雄市",
      "district": "三民區",
      "lat": 22.643566,
      "lng": 120.3325036,
      "routes": [
        "紅28",
        "紅28(繞中都濕地公園)"
      ],
      "routeCount": 2,
      "routeSource": "gtfs",
      "routeUpdatedAt": "2026-06-14T16:43:42.345Z",
      "routeConfidence": "high"
    },
    {
      "id": 2515155147,
      "name": "育英醫專(皓東路)",
      "type": "bus",
      "city": "高雄市",
      "district": "三民區",
      "lat": 22.6483708,
      "lng": 120.3333198,
      "routes": [
        "紅29"
      ],
      "routeCount": 1,
      "routeSource": "gtfs",
      "routeUpdatedAt": "2026-06-14T15:08:27.195Z",
      "routeConfidence": "high"
    },
    {
      "id": 2515155152,
      "name": "陽明國小",
      "type": "bus",
      "city": "高雄市",
      "district": "三民區",
      "lat": 22.6440042,
      "lng": 120.3352095
    },
    {
      "id": 2519886625,
      "name": "建國二路",
      "type": "bus",
      "city": "高雄市",
      "district": "三民區",
      "lat": 22.6375157,
      "lng": 120.3119328,
      "routes": [
        "88建國幹線",
        "88建國幹線延駛",
        "8010"
      ],
      "routeCount": 3,
      "routeSource": "gtfs",
      "routeUpdatedAt": "2026-06-14T16:43:42.346Z",
      "routeConfidence": "high"
    },
    {
      "id": 2519886626,
      "name": "建國忠孝路口",
      "type": "bus",
      "city": "高雄市",
      "district": "三民區",
      "lat": 22.6375918,
      "lng": 120.3063157,
      "routes": [
        "36",
        "60覺民幹線",
        "60覺民幹線區間車",
        "72",
        "88建國幹線",
        "88建國幹線延駛",
        "92自由幹線",
        "8010",
        "紅27"
      ],
      "routeCount": 9,
      "routeSource": "gtfs",
      "routeUpdatedAt": "2026-06-14T16:43:42.346Z",
      "routeConfidence": "high"
    },
    {
      "id": 2519886627,
      "name": "鐵路新村",
      "type": "bus",
      "city": "高雄市",
      "district": "三民區",
      "lat": 22.6376051,
      "lng": 120.3083815,
      "routes": [
        "36",
        "60覺民幹線",
        "60覺民幹線區間車",
        "72",
        "88建國幹線",
        "88建國幹線延駛",
        "92自由幹線",
        "8010"
      ],
      "routeCount": 8,
      "routeSource": "gtfs",
      "routeUpdatedAt": "2026-06-14T16:43:42.346Z",
      "routeConfidence": "high"
    },
    {
      "id": 2533690802,
      "name": "建工市場",
      "type": "bus",
      "city": "高雄市",
      "district": "三民區",
      "lat": 22.6536644,
      "lng": 120.3314326,
      "routes": [
        "53",
        "76",
        "紅31"
      ],
      "routeCount": 3,
      "routeSource": "gtfs",
      "routeUpdatedAt": "2026-06-14T16:43:42.346Z",
      "routeConfidence": "high"
    },
    {
      "id": 2533690806,
      "name": "昌富街口",
      "type": "bus",
      "city": "高雄市",
      "district": "三民區",
      "lat": 22.657849,
      "lng": 120.3310146,
      "routes": [
        "53",
        "76",
        "紅31"
      ],
      "routeCount": 3,
      "routeSource": "gtfs",
      "routeUpdatedAt": "2026-06-14T16:43:42.346Z",
      "routeConfidence": "high"
    },
    {
      "id": 2533690807,
      "name": "本和街口",
      "type": "bus",
      "city": "高雄市",
      "district": "三民區",
      "lat": 22.6536132,
      "lng": 120.3284254,
      "routes": [
        "53"
      ],
      "routeCount": 1,
      "routeSource": "gtfs",
      "routeUpdatedAt": "2026-06-14T16:43:42.346Z",
      "routeConfidence": "high"
    },
    {
      "id": 2533690809,
      "name": "本館里",
      "type": "bus",
      "city": "高雄市",
      "district": "三民區",
      "lat": 22.6590692,
      "lng": 120.3299541,
      "routes": [
        "53",
        "76",
        "紅31"
      ],
      "routeCount": 3,
      "routeSource": "gtfs",
      "routeUpdatedAt": "2026-06-14T16:43:42.346Z",
      "routeConfidence": "high"
    },
    {
      "id": 2559528170,
      "name": "天祥路口(鼎中路)",
      "type": "bus",
      "city": "高雄市",
      "district": "三民區",
      "lat": 22.6667528,
      "lng": 120.3196538,
      "routes": [
        "77昌福幹線"
      ],
      "routeCount": 1,
      "routeSource": "gtfs",
      "routeUpdatedAt": "2026-06-14T15:08:27.196Z",
      "routeConfidence": "high"
    },
    {
      "id": 2557024840,
      "name": "褒揚街口",
      "type": "bus",
      "city": "高雄市",
      "district": "三民區",
      "lat": 22.6400627,
      "lng": 120.3451908,
      "routes": [
        "30",
        "70A三多幹線(部分延駛澄清湖)",
        "70B三多幹線(延駛鎮州路)",
        "70D三多幹線(延駛仁美)",
        "87",
        "217A新昌幹線",
        "217B新昌幹線",
        "8041A",
        "8041C(部分繞駛樹人醫專)",
        "8048",
        "8049",
        "黃2A(部分繞駛圓山飯店)",
        "黃2B",
        "黃2C",
        "橘7C"
      ],
      "routeCount": 15,
      "routeSource": "gtfs",
      "routeUpdatedAt": "2026-06-14T16:43:42.346Z",
      "routeConfidence": "high"
    },
    {
      "id": 2557024847,
      "name": "覺民路口(澄清路)",
      "type": "bus",
      "city": "高雄市",
      "district": "三民區",
      "lat": 22.6376744,
      "lng": 120.3448822,
      "routes": [
        "30",
        "70A三多幹線(部分延駛澄清湖)",
        "70B三多幹線(延駛鎮州路)",
        "70D三多幹線(延駛仁美)",
        "87",
        "8041A",
        "8041C(部分繞駛樹人醫專)",
        "8048",
        "8049",
        "黃2A(部分繞駛圓山飯店)",
        "黃2B",
        "黃2C",
        "橘7C"
      ],
      "routeCount": 13,
      "routeSource": "gtfs",
      "routeUpdatedAt": "2026-06-14T16:43:42.347Z",
      "routeConfidence": "high"
    },
    {
      "id": 2559495185,
      "name": "凱旋路口",
      "type": "bus",
      "city": "高雄市",
      "district": "三民區",
      "lat": 22.6339127,
      "lng": 120.3192738,
      "routes": [
        "76",
        "77昌福幹線",
        "77昌福幹線(繞三民高中)",
        "88建國幹線",
        "88建國幹線延駛",
        "168環西",
        "168環西區間",
        "168環東",
        "168環東區間",
        "8010",
        "紅21"
      ],
      "routeCount": 11,
      "routeSource": "gtfs",
      "routeUpdatedAt": "2026-06-14T16:43:42.347Z",
      "routeConfidence": "high"
    },
    {
      "id": 2559528165,
      "name": "大昌二路(建工路口)",
      "type": "bus",
      "city": "高雄市",
      "district": "三民區",
      "lat": 22.6517796,
      "lng": 120.3297577,
      "routes": [
        "77昌福幹線",
        "77昌福幹線(繞三民高中)",
        "81",
        "217A新昌幹線",
        "217B新昌幹線",
        "217E新昌幹線(大華里發車)",
        "紅31"
      ],
      "routeCount": 7,
      "routeSource": "gtfs",
      "routeUpdatedAt": "2026-06-14T16:43:42.347Z",
      "routeConfidence": "high"
    },
    {
      "id": 2559528167,
      "name": "大順覺民路口(科工館)",
      "type": "bus",
      "city": "高雄市",
      "district": "三民區",
      "lat": 22.6400558,
      "lng": 120.3279053,
      "routes": [
        "76",
        "77昌福幹線",
        "77昌福幹線(繞三民高中)",
        "81",
        "168環西",
        "168環西區間",
        "168環東",
        "168環東區間",
        "綠2"
      ],
      "routeCount": 9,
      "routeSource": "gtfs",
      "routeUpdatedAt": "2026-06-14T16:43:42.347Z",
      "routeConfidence": "high"
    },
    {
      "id": 2559528168,
      "name": "大順覺民路口(科工館)",
      "type": "bus",
      "city": "高雄市",
      "district": "三民區",
      "lat": 22.6408079,
      "lng": 120.327315,
      "routes": [
        "76",
        "77昌福幹線",
        "77昌福幹線(繞三民高中)",
        "81",
        "168環西",
        "168環西區間",
        "168環東",
        "168環東區間",
        "綠2"
      ],
      "routeCount": 9,
      "routeSource": "gtfs",
      "routeUpdatedAt": "2026-06-14T16:43:42.347Z",
      "routeConfidence": "high"
    },
    {
      "id": 2559528169,
      "name": "天祥路口(鼎中路)",
      "type": "bus",
      "city": "高雄市",
      "district": "三民區",
      "lat": 22.6662636,
      "lng": 120.3194183,
      "routes": [
        "77昌福幹線"
      ],
      "routeCount": 1,
      "routeSource": "gtfs",
      "routeUpdatedAt": "2026-06-14T15:08:27.197Z",
      "routeConfidence": "high"
    },
    {
      "id": 2559528172,
      "name": "皓東路口",
      "type": "bus",
      "city": "高雄市",
      "district": "三民區",
      "lat": 22.6485279,
      "lng": 120.3319351,
      "routes": [
        "77昌福幹線",
        "77昌福幹線(繞三民高中)",
        "81",
        "217A新昌幹線",
        "217B新昌幹線",
        "217E新昌幹線(大華里發車)",
        "紅31"
      ],
      "routeCount": 7,
      "routeSource": "gtfs",
      "routeUpdatedAt": "2026-06-14T16:43:42.347Z",
      "routeConfidence": "high"
    },
    {
      "id": 2559528174,
      "name": "立志中學",
      "type": "bus",
      "city": "高雄市",
      "district": "三民區",
      "lat": 22.6535366,
      "lng": 120.3263447,
      "routes": [
        "16A",
        "16A繞(經文信路)",
        "16B",
        "33(6:33繞駛後指部)",
        "77昌福幹線",
        "77昌福幹線(繞三民高中)",
        "8021"
      ],
      "routeCount": 7,
      "routeSource": "gtfs",
      "routeUpdatedAt": "2026-06-14T16:43:42.347Z",
      "routeConfidence": "high"
    },
    {
      "id": 2559528179,
      "name": "莊敬國小",
      "type": "bus",
      "city": "高雄市",
      "district": "三民區",
      "lat": 22.6559858,
      "lng": 120.3230191,
      "routes": [
        "16A",
        "16A繞(經文信路)",
        "16B",
        "33(6:33繞駛後指部)",
        "77昌福幹線",
        "77昌福幹線(繞三民高中)",
        "217A新昌幹線",
        "217B新昌幹線",
        "217D新昌幹線(高應大發車)",
        "217E新昌幹線(大華里發車)",
        "8021"
      ],
      "routeCount": 11,
      "routeSource": "gtfs",
      "routeUpdatedAt": "2026-06-14T16:43:42.348Z",
      "routeConfidence": "high"
    },
    {
      "id": 2559528181,
      "name": "覺民路",
      "type": "bus",
      "city": "高雄市",
      "district": "三民區",
      "lat": 22.6406785,
      "lng": 120.3305183,
      "routes": [
        "76",
        "77昌福幹線",
        "77昌福幹線(繞三民高中)",
        "紅28"
      ],
      "routeCount": 4,
      "routeSource": "gtfs",
      "routeUpdatedAt": "2026-06-14T16:43:42.348Z",
      "routeConfidence": "high"
    },
    {
      "id": 2559528183,
      "name": "覺民路口",
      "type": "bus",
      "city": "高雄市",
      "district": "三民區",
      "lat": 22.6417381,
      "lng": 120.3322662,
      "routes": [
        "76",
        "77昌福幹線",
        "77昌福幹線(繞三民高中)",
        "217A新昌幹線",
        "217B新昌幹線",
        "217E新昌幹線(大華里發車)",
        "紅28",
        "紅28(繞中都濕地公園)"
      ],
      "routeCount": 8,
      "routeSource": "gtfs",
      "routeUpdatedAt": "2026-06-14T16:43:42.348Z",
      "routeConfidence": "high"
    },
    {
      "id": 2559528185,
      "name": "金山路",
      "type": "bus",
      "city": "高雄市",
      "district": "三民區",
      "lat": 22.6617821,
      "lng": 120.3202694,
      "routes": [
        "77昌福幹線"
      ],
      "routeCount": 1,
      "routeSource": "gtfs",
      "routeUpdatedAt": "2026-06-14T16:43:42.348Z",
      "routeConfidence": "high"
    },
    {
      "id": 2559528187,
      "name": "鼎中路",
      "type": "bus",
      "city": "高雄市",
      "district": "三民區",
      "lat": 22.6636606,
      "lng": 120.3193744,
      "routes": [
        "77昌福幹線"
      ],
      "routeCount": 1,
      "routeSource": "gtfs",
      "routeUpdatedAt": "2026-06-14T16:43:42.348Z",
      "routeConfidence": "high"
    },
    {
      "id": 2559528189,
      "name": "鼎力路",
      "type": "bus",
      "city": "高雄市",
      "district": "三民區",
      "lat": 22.6683231,
      "lng": 120.3233787,
      "routes": [
        "33(6:33繞駛後指部)",
        "72",
        "77昌福幹線",
        "8502",
        "紅36裕誠幹線",
        "紅36裕誠幹線(17時以後改道文信路)",
        "綠2A"
      ],
      "routeCount": 7,
      "routeSource": "gtfs",
      "routeUpdatedAt": "2026-06-14T16:43:42.348Z",
      "routeConfidence": "high"
    },
    {
      "id": 2559528191,
      "name": "鼎安路口",
      "type": "bus",
      "city": "高雄市",
      "district": "三民區",
      "lat": 22.6737665,
      "lng": 120.3238511,
      "routes": [
        "77昌福幹線"
      ],
      "routeCount": 1,
      "routeSource": "gtfs",
      "routeUpdatedAt": "2026-06-14T16:43:42.348Z",
      "routeConfidence": "high"
    },
    {
      "id": 2559528193,
      "name": "鼎山街",
      "type": "bus",
      "city": "高雄市",
      "district": "三民區",
      "lat": 22.6589421,
      "lng": 120.3218003,
      "routes": [
        "16A",
        "16A繞(經文信路)",
        "16B",
        "33(6:33繞駛後指部)",
        "77昌福幹線",
        "77昌福幹線(繞三民高中)",
        "綠2A"
      ],
      "routeCount": 7,
      "routeSource": "gtfs",
      "routeUpdatedAt": "2026-06-14T16:43:42.348Z",
      "routeConfidence": "high"
    },
    {
      "id": 2559528195,
      "name": "鼎西里",
      "type": "bus",
      "city": "高雄市",
      "district": "三民區",
      "lat": 22.6606495,
      "lng": 120.3219306,
      "routes": [
        "33(6:33繞駛後指部)",
        "77昌福幹線",
        "217A新昌幹線",
        "217B新昌幹線",
        "217D新昌幹線(高應大發車)",
        "217E新昌幹線(大華里發車)",
        "8502",
        "綠2A"
      ],
      "routeCount": 8,
      "routeSource": "gtfs",
      "routeUpdatedAt": "2026-06-14T16:43:42.348Z",
      "routeConfidence": "high"
    },
    {
      "id": 2559528197,
      "name": "鼎貴路",
      "type": "bus",
      "city": "高雄市",
      "district": "三民區",
      "lat": 22.6724338,
      "lng": 120.3246879,
      "routes": [
        "77昌福幹線"
      ],
      "routeCount": 1,
      "routeSource": "gtfs",
      "routeUpdatedAt": "2026-06-14T15:08:27.197Z",
      "routeConfidence": "high"
    },
    {
      "id": 2571324294,
      "name": "慈濟靜思堂",
      "type": "bus",
      "city": "高雄市",
      "district": "三民區",
      "lat": 22.6538919,
      "lng": 120.3084908,
      "routes": [
        "92自由幹線"
      ],
      "routeCount": 1,
      "routeSource": "gtfs",
      "routeUpdatedAt": "2026-06-14T16:43:42.348Z",
      "routeConfidence": "high"
    },
    {
      "id": 2571324296,
      "name": "自由一路",
      "type": "bus",
      "city": "高雄市",
      "district": "三民區",
      "lat": 22.6523834,
      "lng": 120.3087914,
      "routes": [
        "92自由幹線"
      ],
      "routeCount": 1,
      "routeSource": "gtfs",
      "routeUpdatedAt": "2026-06-14T16:43:42.349Z",
      "routeConfidence": "high"
    },
    {
      "id": 2573134934,
      "name": "三民市場",
      "type": "bus",
      "city": "高雄市",
      "district": "三民區",
      "lat": 22.6357643,
      "lng": 120.2932577,
      "routes": [
        "33(6:33繞駛後指部)",
        "82",
        "82公車式小黃",
        "168環西區間",
        "168環東區間",
        "218A內惟幹線",
        "218B內惟幹線(繞駛合群社區)",
        "紅25公車式小黃"
      ],
      "routeCount": 8,
      "routeSource": "gtfs",
      "routeUpdatedAt": "2026-06-14T16:43:42.349Z",
      "routeConfidence": "high"
    },
    {
      "id": 2610927934,
      "name": "十全路口",
      "type": "bus",
      "city": "高雄市",
      "district": "三民區",
      "lat": 22.6445763,
      "lng": 120.3028924
    },
    {
      "id": 2610927951,
      "name": "大豐一路口",
      "type": "bus",
      "city": "高雄市",
      "district": "三民區",
      "lat": 22.6530091,
      "lng": 120.3310366,
      "routes": [
        "8008",
        "8009",
        "8021",
        "8041A",
        "8041C(部分繞駛樹人醫專)",
        "8049",
        "紅30",
        "黃1"
      ],
      "routeCount": 8,
      "routeSource": "gtfs",
      "routeUpdatedAt": "2026-06-14T16:43:42.349Z",
      "routeConfidence": "high"
    },
    {
      "id": 2610927953,
      "name": "大豐一路口",
      "type": "bus",
      "city": "高雄市",
      "district": "三民區",
      "lat": 22.6535959,
      "lng": 120.3318503,
      "routes": [
        "8008",
        "8009",
        "8021",
        "8041A",
        "8041C(部分繞駛樹人醫專)",
        "8049",
        "紅30",
        "黃1"
      ],
      "routeCount": 8,
      "routeSource": "gtfs",
      "routeUpdatedAt": "2026-06-14T16:43:42.349Z",
      "routeConfidence": "high"
    },
    {
      "id": 2610984777,
      "name": "陽明圖書分館",
      "type": "bus",
      "city": "高雄市",
      "district": "三民區",
      "lat": 22.6434113,
      "lng": 120.34227,
      "routes": [
        "53",
        "紅28",
        "紅28(繞中都濕地公園)"
      ],
      "routeCount": 3,
      "routeSource": "gtfs",
      "routeUpdatedAt": "2026-06-14T16:43:42.349Z",
      "routeConfidence": "high"
    },
    {
      "id": 2610984800,
      "name": "東光國小",
      "type": "bus",
      "city": "高雄市",
      "district": "三民區",
      "lat": 22.647879,
      "lng": 120.3393832,
      "routes": [
        "53",
        "紅28",
        "紅28(繞中都濕地公園)"
      ],
      "routeCount": 3,
      "routeSource": "gtfs",
      "routeUpdatedAt": "2026-06-14T16:43:42.349Z",
      "routeConfidence": "high"
    },
    {
      "id": 2610984806,
      "name": "汾陽路口",
      "type": "bus",
      "city": "高雄市",
      "district": "三民區",
      "lat": 22.6493292,
      "lng": 120.3379503,
      "routes": [
        "53",
        "紅28",
        "紅28(繞中都濕地公園)"
      ],
      "routeCount": 3,
      "routeSource": "gtfs",
      "routeUpdatedAt": "2026-06-14T16:43:42.349Z",
      "routeConfidence": "high"
    },
    {
      "id": 2610984813,
      "name": "義德路口(義華路)",
      "type": "bus",
      "city": "高雄市",
      "district": "三民區",
      "lat": 22.6434879,
      "lng": 120.3359847,
      "routes": [
        "紅28",
        "紅28(繞中都濕地公園)"
      ],
      "routeCount": 2,
      "routeSource": "gtfs",
      "routeUpdatedAt": "2026-06-14T16:43:42.349Z",
      "routeConfidence": "high"
    },
    {
      "id": 2610984828,
      "name": "陽明國中",
      "type": "bus",
      "city": "高雄市",
      "district": "三民區",
      "lat": 22.6429134,
      "lng": 120.3397827,
      "routes": [
        "紅28",
        "紅28(繞中都濕地公園)"
      ],
      "routeCount": 2,
      "routeSource": "gtfs",
      "routeUpdatedAt": "2026-06-14T16:43:42.349Z",
      "routeConfidence": "high"
    },
    {
      "id": 2610984846,
      "name": "陽明路",
      "type": "bus",
      "city": "高雄市",
      "district": "三民區",
      "lat": 22.6451728,
      "lng": 120.3426397,
      "routes": [
        "53",
        "紅28",
        "紅28(繞中都濕地公園)"
      ],
      "routeCount": 3,
      "routeSource": "gtfs",
      "routeUpdatedAt": "2026-06-14T16:43:42.349Z",
      "routeConfidence": "high"
    },
    {
      "id": 2610984855,
      "name": "陽明路口",
      "type": "bus",
      "city": "高雄市",
      "district": "三民區",
      "lat": 22.6467625,
      "lng": 120.341194,
      "routes": [
        "53",
        "紅28",
        "紅28(繞中都濕地公園)"
      ],
      "routeCount": 3,
      "routeSource": "gtfs",
      "routeUpdatedAt": "2026-06-14T16:43:42.350Z",
      "routeConfidence": "high"
    },
    {
      "id": 2612199679,
      "name": "三民高中(明誠一路)",
      "type": "bus",
      "city": "高雄市",
      "district": "三民區",
      "lat": 22.6597419,
      "lng": 120.3282396,
      "routes": [
        "77昌福幹線(繞三民高中)",
        "紅33明誠幹線"
      ],
      "routeCount": 2,
      "routeSource": "gtfs",
      "routeUpdatedAt": "2026-06-14T16:43:42.350Z",
      "routeConfidence": "high"
    },
    {
      "id": 2612199683,
      "name": "莊敬公園",
      "type": "bus",
      "city": "高雄市",
      "district": "三民區",
      "lat": 22.6595614,
      "lng": 120.3255973,
      "routes": [
        "77昌福幹線(繞三民高中)",
        "紅33明誠幹線"
      ],
      "routeCount": 2,
      "routeSource": "gtfs",
      "routeUpdatedAt": "2026-06-14T16:43:42.350Z",
      "routeConfidence": "high"
    },
    {
      "id": 2612199685,
      "name": "鼎中路口",
      "type": "bus",
      "city": "高雄市",
      "district": "三民區",
      "lat": 22.659962,
      "lng": 120.3197366,
      "routes": [
        "16A",
        "16A繞(經文信路)",
        "16B",
        "紅33明誠幹線"
      ],
      "routeCount": 4,
      "routeSource": "gtfs",
      "routeUpdatedAt": "2026-06-14T16:43:42.350Z",
      "routeConfidence": "high"
    },
    {
      "id": 2612199687,
      "name": "明誠鼎山街口",
      "type": "bus",
      "city": "高雄市",
      "district": "三民區",
      "lat": 22.6601006,
      "lng": 120.322857,
      "routes": [
        "77昌福幹線(繞三民高中)",
        "紅33明誠幹線"
      ],
      "routeCount": 2,
      "routeSource": "gtfs",
      "routeUpdatedAt": "2026-06-14T16:43:42.350Z",
      "routeConfidence": "high"
    },
    {
      "id": 2612317981,
      "name": "三民區公所",
      "type": "bus",
      "city": "高雄市",
      "district": "三民區",
      "lat": 22.6464236,
      "lng": 120.2998999,
      "routes": [
        "100百貨幹線",
        "紅28",
        "紅28(繞中都濕地公園)"
      ],
      "routeCount": 3,
      "routeSource": "gtfs",
      "routeUpdatedAt": "2026-06-14T16:43:42.350Z",
      "routeConfidence": "high"
    },
    {
      "id": 2612317984,
      "name": "察哈爾二街(捷運後驛站)",
      "type": "bus",
      "city": "高雄市",
      "district": "三民區",
      "lat": 22.6476524,
      "lng": 120.3016686,
      "routes": [
        "301",
        "紅28",
        "紅28(繞中都濕地公園)",
        "紅30",
        "紅31"
      ],
      "routeCount": 5,
      "routeSource": "gtfs",
      "routeUpdatedAt": "2026-06-14T16:43:42.350Z",
      "routeConfidence": "high"
    },
    {
      "id": 2612317986,
      "name": "愛河之心",
      "type": "bus",
      "city": "高雄市",
      "district": "三民區",
      "lat": 22.6510623,
      "lng": 120.3005307,
      "routes": [
        "紅28",
        "紅28(繞中都濕地公園)"
      ],
      "routeCount": 2,
      "routeSource": "gtfs",
      "routeUpdatedAt": "2026-06-14T16:43:42.350Z",
      "routeConfidence": "high"
    },
    {
      "id": 2612317988,
      "name": "熱河二街口",
      "type": "bus",
      "city": "高雄市",
      "district": "三民區",
      "lat": 22.6437662,
      "lng": 120.2996827,
      "routes": [
        "紅28",
        "紅28(繞中都濕地公園)"
      ],
      "routeCount": 2,
      "routeSource": "gtfs",
      "routeUpdatedAt": "2026-06-14T16:43:42.355Z",
      "routeConfidence": "high"
    },
    {
      "id": 2612317989,
      "name": "精華公園",
      "type": "bus",
      "city": "高雄市",
      "district": "三民區",
      "lat": 22.6425495,
      "lng": 120.2994715,
      "routes": [
        "紅28",
        "紅28(繞中都濕地公園)"
      ],
      "routeCount": 2,
      "routeSource": "gtfs",
      "routeUpdatedAt": "2026-06-14T16:43:42.355Z",
      "routeConfidence": "high"
    },
    {
      "id": 2628410537,
      "name": "民族一路口",
      "type": "bus",
      "city": "高雄市",
      "district": "三民區",
      "lat": 22.6684219,
      "lng": 120.3158927,
      "routes": [
        "168環西",
        "168環西區間",
        "168環東",
        "168環東區間",
        "217A新昌幹線",
        "217B新昌幹線",
        "217D新昌幹線(高應大發車)",
        "217E新昌幹線(大華里發車)",
        "224",
        "紅36裕誠幹線",
        "紅36裕誠幹線(17時以後改道文信路)"
      ],
      "routeCount": 11,
      "routeSource": "gtfs",
      "routeUpdatedAt": "2026-06-14T16:43:42.355Z",
      "routeConfidence": "high"
    },
    {
      "id": 2628410550,
      "name": "鼎強街口",
      "type": "bus",
      "city": "高雄市",
      "district": "三民區",
      "lat": 22.6671401,
      "lng": 120.3208845,
      "routes": [
        "92自由幹線",
        "217A新昌幹線",
        "217B新昌幹線",
        "217D新昌幹線(高應大發車)",
        "217E新昌幹線(大華里發車)",
        "8021",
        "紅35",
        "紅35(繞駛崇實社區)",
        "紅36裕誠幹線",
        "紅36裕誠幹線(17時以後改道文信路)",
        "綠2"
      ],
      "routeCount": 11,
      "routeSource": "gtfs",
      "routeUpdatedAt": "2026-06-14T16:43:42.356Z",
      "routeConfidence": "high"
    },
    {
      "id": 2670324996,
      "name": "三角公園",
      "type": "bus",
      "city": "高雄市",
      "district": "三民區",
      "lat": 22.6401123,
      "lng": 120.2898406,
      "routes": [
        "紅27"
      ],
      "routeCount": 1,
      "routeSource": "gtfs",
      "routeUpdatedAt": "2026-06-14T15:08:27.199Z",
      "routeConfidence": "high"
    },
    {
      "id": 2670324998,
      "name": "中仁街口",
      "type": "bus",
      "city": "高雄市",
      "district": "三民區",
      "lat": 22.6392838,
      "lng": 120.2900937,
      "routes": [
        "紅27"
      ],
      "routeCount": 1,
      "routeSource": "gtfs",
      "routeUpdatedAt": "2026-06-14T15:08:27.199Z",
      "routeConfidence": "high"
    },
    {
      "id": 2670325002,
      "name": "中峰街口",
      "type": "bus",
      "city": "高雄市",
      "district": "三民區",
      "lat": 22.6408049,
      "lng": 120.2887802
    },
    {
      "id": 2670325006,
      "name": "中都街口",
      "type": "bus",
      "city": "高雄市",
      "district": "三民區",
      "lat": 22.6413081,
      "lng": 120.2874128,
      "routes": [
        "紅27"
      ],
      "routeCount": 1,
      "routeSource": "gtfs",
      "routeUpdatedAt": "2026-06-14T16:43:42.356Z",
      "routeConfidence": "high"
    },
    {
      "id": 2670325010,
      "name": "市中一路口",
      "type": "bus",
      "city": "高雄市",
      "district": "三民區",
      "lat": 22.6378794,
      "lng": 120.2859148,
      "routes": [
        "紅27"
      ],
      "routeCount": 1,
      "routeSource": "gtfs",
      "routeUpdatedAt": "2026-06-14T15:08:27.199Z",
      "routeConfidence": "high"
    },
    {
      "id": 2670325015,
      "name": "國泰社區",
      "type": "bus",
      "city": "高雄市",
      "district": "三民區",
      "lat": 22.638817,
      "lng": 120.2887814,
      "routes": [
        "紅27"
      ],
      "routeCount": 1,
      "routeSource": "gtfs",
      "routeUpdatedAt": "2026-06-14T15:08:27.199Z",
      "routeConfidence": "high"
    },
    {
      "id": 2682024101,
      "name": "建工路口(高雄高工)",
      "type": "bus",
      "city": "高雄市",
      "district": "三民區",
      "lat": 22.6494807,
      "lng": 120.3243135,
      "routes": [
        "81",
        "168環西",
        "168環西區間",
        "168環東",
        "168環東區間",
        "綠2"
      ],
      "routeCount": 6,
      "routeSource": "gtfs",
      "routeUpdatedAt": "2026-06-14T16:43:42.356Z",
      "routeConfidence": "high"
    },
    {
      "id": 2682024110,
      "name": "樹德家商",
      "type": "bus",
      "city": "高雄市",
      "district": "三民區",
      "lat": 22.643194,
      "lng": 120.3264422,
      "routes": [
        "81",
        "168環西",
        "168環西區間",
        "168環東",
        "168環東區間",
        "綠2"
      ],
      "routeCount": 6,
      "routeSource": "gtfs",
      "routeUpdatedAt": "2026-06-14T16:43:42.356Z",
      "routeConfidence": "high"
    },
    {
      "id": 2689756932,
      "name": "凱國路口",
      "type": "bus",
      "city": "高雄市",
      "district": "三民區",
      "lat": 22.6356847,
      "lng": 120.3156714,
      "routes": [
        "88建國幹線",
        "88建國幹線延駛",
        "8010"
      ],
      "routeCount": 3,
      "routeSource": "gtfs",
      "routeUpdatedAt": "2026-06-14T16:43:42.356Z",
      "routeConfidence": "high"
    },
    {
      "id": 2717241641,
      "name": "弘揚大第",
      "type": "bus",
      "city": "高雄市",
      "district": "三民區",
      "lat": 22.6663309,
      "lng": 120.3145065,
      "routes": [
        "72"
      ],
      "routeCount": 1,
      "routeSource": "gtfs",
      "routeUpdatedAt": "2026-06-14T16:43:42.356Z",
      "routeConfidence": "high"
    },
    {
      "id": 2717241674,
      "name": "河堤公園(河堤路)",
      "type": "bus",
      "city": "高雄市",
      "district": "三民區",
      "lat": 22.6644931,
      "lng": 120.3130753,
      "routes": [
        "72"
      ],
      "routeCount": 1,
      "routeSource": "gtfs",
      "routeUpdatedAt": "2026-06-14T16:43:42.356Z",
      "routeConfidence": "high"
    },
    {
      "id": 2733357132,
      "name": "金山路口",
      "type": "bus",
      "city": "高雄市",
      "district": "三民區",
      "lat": 22.6622224,
      "lng": 120.3219841,
      "routes": [
        "33(6:33繞駛後指部)",
        "217A新昌幹線",
        "217B新昌幹線",
        "217D新昌幹線(高應大發車)",
        "217E新昌幹線(大華里發車)",
        "綠2A"
      ],
      "routeCount": 6,
      "routeSource": "gtfs",
      "routeUpdatedAt": "2026-06-14T16:43:42.356Z",
      "routeConfidence": "high"
    },
    {
      "id": 2733357134,
      "name": "鼎金國中",
      "type": "bus",
      "city": "高雄市",
      "district": "三民區",
      "lat": 22.6545041,
      "lng": 120.3193912,
      "routes": [
        "16A",
        "16A繞(經文信路)",
        "16B"
      ],
      "routeCount": 3,
      "routeSource": "gtfs",
      "routeUpdatedAt": "2026-06-14T16:43:42.356Z",
      "routeConfidence": "high"
    },
    {
      "id": 2733357136,
      "name": "鼎金國小",
      "type": "bus",
      "city": "高雄市",
      "district": "三民區",
      "lat": 22.6569982,
      "lng": 120.3213432,
      "routes": [
        "16A",
        "16A繞(經文信路)",
        "16B"
      ],
      "routeCount": 3,
      "routeSource": "gtfs",
      "routeUpdatedAt": "2026-06-14T16:43:42.357Z",
      "routeConfidence": "high"
    },
    {
      "id": 2735721869,
      "name": "遼寧街口(自立路)",
      "type": "bus",
      "city": "高雄市",
      "district": "三民區",
      "lat": 22.6420749,
      "lng": 120.2961391,
      "routes": [
        "28",
        "53",
        "301",
        "8043",
        "9117",
        "9117A",
        "9127",
        "9188",
        "紅25繞公車式小黃",
        "紅30",
        "紅31"
      ],
      "routeCount": 11,
      "routeSource": "gtfs",
      "routeUpdatedAt": "2026-06-14T16:43:42.357Z",
      "routeConfidence": "high"
    },
    {
      "id": 2735721873,
      "name": "自立十全路口",
      "type": "bus",
      "city": "高雄市",
      "district": "三民區",
      "lat": 22.64518,
      "lng": 120.296544
    },
    {
      "id": 2753105748,
      "name": "明吉路",
      "type": "bus",
      "city": "高雄市",
      "district": "三民區",
      "lat": 22.6633516,
      "lng": 120.3138518,
      "routes": [
        "16A",
        "16A繞(經文信路)",
        "16B"
      ],
      "routeCount": 3,
      "routeSource": "gtfs",
      "routeUpdatedAt": "2026-06-14T16:43:42.357Z",
      "routeConfidence": "high"
    },
    {
      "id": 2753105759,
      "name": "明哲路口",
      "type": "bus",
      "city": "高雄市",
      "district": "三民區",
      "lat": 22.6606217,
      "lng": 120.31408,
      "routes": [
        "16A",
        "16A繞(經文信路)",
        "16B"
      ],
      "routeCount": 3,
      "routeSource": "gtfs",
      "routeUpdatedAt": "2026-06-14T16:43:42.357Z",
      "routeConfidence": "high"
    },
    {
      "id": 2766207536,
      "name": "大慶街口",
      "type": "bus",
      "city": "高雄市",
      "district": "三民區",
      "lat": 22.6513264,
      "lng": 120.3325623,
      "routes": [
        "53",
        "76",
        "紅31"
      ],
      "routeCount": 3,
      "routeSource": "gtfs",
      "routeUpdatedAt": "2026-06-14T16:43:42.357Z",
      "routeConfidence": "high"
    },
    {
      "id": 2766207544,
      "name": "皓東路",
      "type": "bus",
      "city": "高雄市",
      "district": "三民區",
      "lat": 22.6492563,
      "lng": 120.3342171,
      "routes": [
        "紅31"
      ],
      "routeCount": 1,
      "routeSource": "gtfs",
      "routeUpdatedAt": "2026-06-14T15:08:27.201Z",
      "routeConfidence": "high"
    },
    {
      "id": 2771471927,
      "name": "澄清路口",
      "type": "bus",
      "city": "高雄市",
      "district": "三民區",
      "lat": 22.6388453,
      "lng": 120.3432438,
      "routes": [
        "217A新昌幹線",
        "217B新昌幹線",
        "217E新昌幹線(大華里發車)"
      ],
      "routeCount": 3,
      "routeSource": "gtfs",
      "routeUpdatedAt": "2026-06-14T16:43:42.357Z",
      "routeConfidence": "high"
    },
    {
      "id": 2839798219,
      "name": "九如一路口",
      "type": "bus",
      "city": "高雄市",
      "district": "三民區",
      "lat": 22.6378472,
      "lng": 120.3411084,
      "routes": [
        "53"
      ],
      "routeCount": 1,
      "routeSource": "gtfs",
      "routeUpdatedAt": "2026-06-14T16:43:42.357Z",
      "routeConfidence": "high"
    },
    {
      "id": 2839798222,
      "name": "大福街",
      "type": "bus",
      "city": "高雄市",
      "district": "三民區",
      "lat": 22.6576563,
      "lng": 120.3261649,
      "routes": [
        "53",
        "76"
      ],
      "routeCount": 2,
      "routeSource": "gtfs",
      "routeUpdatedAt": "2026-06-14T16:43:42.357Z",
      "routeConfidence": "high"
    },
    {
      "id": 2839798223,
      "name": "大裕幼稚園",
      "type": "bus",
      "city": "高雄市",
      "district": "三民區",
      "lat": 22.6559237,
      "lng": 120.3282721,
      "routes": [
        "53",
        "76"
      ],
      "routeCount": 2,
      "routeSource": "gtfs",
      "routeUpdatedAt": "2026-06-14T16:43:42.358Z",
      "routeConfidence": "high"
    },
    {
      "id": 2839798224,
      "name": "大裕路口",
      "type": "bus",
      "city": "高雄市",
      "district": "三民區",
      "lat": 22.6591062,
      "lng": 120.3279968,
      "routes": [
        "53",
        "76"
      ],
      "routeCount": 2,
      "routeSource": "gtfs",
      "routeUpdatedAt": "2026-06-14T16:43:42.358Z",
      "routeConfidence": "high"
    },
    {
      "id": 2839798227,
      "name": "本館里活動中心",
      "type": "bus",
      "city": "高雄市",
      "district": "三民區",
      "lat": 22.6557571,
      "lng": 120.3312322,
      "routes": [
        "53",
        "76",
        "紅31"
      ],
      "routeCount": 3,
      "routeSource": "gtfs",
      "routeUpdatedAt": "2026-06-14T16:43:42.358Z",
      "routeConfidence": "high"
    },
    {
      "id": 2839798230,
      "name": "正義路口(九如一路)",
      "type": "bus",
      "city": "高雄市",
      "district": "三民區",
      "lat": 22.6364064,
      "lng": 120.3427834,
      "routes": [
        "53",
        "73"
      ],
      "routeCount": 2,
      "routeSource": "gtfs",
      "routeUpdatedAt": "2026-06-14T16:43:42.358Z",
      "routeConfidence": "high"
    },
    {
      "id": 2839798241,
      "name": "黃興路口",
      "type": "bus",
      "city": "高雄市",
      "district": "三民區",
      "lat": 22.6515886,
      "lng": 120.3363697,
      "routes": [
        "53"
      ],
      "routeCount": 1,
      "routeSource": "gtfs",
      "routeUpdatedAt": "2026-06-14T16:43:42.358Z",
      "routeConfidence": "high"
    },
    {
      "id": 2845875817,
      "name": "金獅湖",
      "type": "bus",
      "city": "高雄市",
      "district": "三民區",
      "lat": 22.6661024,
      "lng": 120.3250775,
      "routes": [
        "33(6:33繞駛後指部)"
      ],
      "routeCount": 1,
      "routeSource": "gtfs",
      "routeUpdatedAt": "2026-06-14T16:43:42.358Z",
      "routeConfidence": "high"
    },
    {
      "id": 2845875819,
      "name": "鼎金里",
      "type": "bus",
      "city": "高雄市",
      "district": "三民區",
      "lat": 22.6681425,
      "lng": 120.325736,
      "routes": [
        "33(6:33繞駛後指部)"
      ],
      "routeCount": 1,
      "routeSource": "gtfs",
      "routeUpdatedAt": "2026-06-14T16:43:42.358Z",
      "routeConfidence": "high"
    },
    {
      "id": 2847431679,
      "name": "自立河北路口",
      "type": "bus",
      "city": "高雄市",
      "district": "三民區",
      "lat": 22.637063,
      "lng": 120.2967469,
      "routes": [
        "53",
        "60覺民幹線",
        "60覺民幹線區間車",
        "紅25繞公車式小黃"
      ],
      "routeCount": 4,
      "routeSource": "gtfs",
      "routeUpdatedAt": "2026-06-14T16:43:42.358Z",
      "routeConfidence": "high"
    },
    {
      "id": 3150733770,
      "name": "和欣客運建國站",
      "type": "bus_station",
      "city": "高雄市",
      "district": "三民區",
      "lat": 22.637573,
      "lng": 120.3043225,
      "routes": [
        "1610",
        "1610A",
        "1610B",
        "1610C",
        "1610E",
        "1610G",
        "1621",
        "1621D",
        "1621E",
        "1650D",
        "1651",
        "1660",
        "1838",
        "1838A",
        "1862",
        "1862A",
        "1872",
        "1872A",
        "7512",
        "7512B",
        "7512C",
        "7512E",
        "7512F",
        "7513",
        "7513A",
        "7513B",
        "7513D",
        "7513E",
        "7513F",
        "7513G",
        "7513H",
        "7513I",
        "7513J",
        "7513K"
      ],
      "routeCount": 34,
      "routeSource": "gtfs",
      "routeUpdatedAt": "2026-06-14T16:43:42.359Z",
      "routeConfidence": "high"
    },
    {
      "id": 3150733773,
      "name": "統聯客運高雄站",
      "type": "bus_station",
      "city": "高雄市",
      "district": "三民區",
      "lat": 22.6376287,
      "lng": 120.303861
    },
    {
      "id": 3152267783,
      "name": "平等路口(九如一路)",
      "type": "bus",
      "city": "高雄市",
      "district": "三民區",
      "lat": 22.6397642,
      "lng": 120.3203658,
      "routes": [
        "60覺民幹線",
        "60覺民幹線區間車",
        "73",
        "紅28(繞中都濕地公園)"
      ],
      "routeCount": 4,
      "routeSource": "gtfs",
      "routeUpdatedAt": "2026-06-14T16:43:42.360Z",
      "routeConfidence": "high"
    },
    {
      "id": 3178663494,
      "name": "中都濕地公園(美都路)",
      "type": "bus",
      "city": "高雄市",
      "district": "三民區",
      "lat": 22.6477726,
      "lng": 120.2879926,
      "routes": [
        "168環西區間",
        "168環東區間",
        "紅28(繞中都濕地公園)"
      ],
      "routeCount": 3,
      "routeSource": "gtfs",
      "routeUpdatedAt": "2026-06-14T16:43:42.360Z",
      "routeConfidence": "high"
    },
    {
      "id": 3178663496,
      "name": "博愛職訓中心",
      "type": "bus",
      "city": "高雄市",
      "district": "三民區",
      "lat": 22.6465036,
      "lng": 120.2892903,
      "routes": [
        "紅25繞公車式小黃",
        "紅28(繞中都濕地公園)"
      ],
      "routeCount": 2,
      "routeSource": "gtfs",
      "routeUpdatedAt": "2026-06-14T16:43:42.360Z",
      "routeConfidence": "high"
    },
    {
      "id": 3178663498,
      "name": "察哈爾街口",
      "type": "bus",
      "city": "高雄市",
      "district": "三民區",
      "lat": 22.6472556,
      "lng": 120.2967159,
      "routes": [
        "301",
        "紅30",
        "紅31"
      ],
      "routeCount": 3,
      "routeSource": "gtfs",
      "routeUpdatedAt": "2026-06-14T16:43:42.360Z",
      "routeConfidence": "high"
    },
    {
      "id": 3196688635,
      "name": "後備指揮部",
      "type": "bus",
      "city": "高雄市",
      "district": "三民區",
      "lat": 22.6722583,
      "lng": 120.3314132,
      "routes": [
        "24(假日停駛)",
        "24A(平日停駛)",
        "224",
        "8502",
        "綠2A"
      ],
      "routeCount": 5,
      "routeSource": "gtfs",
      "routeUpdatedAt": "2026-06-14T16:43:42.360Z",
      "routeConfidence": "high"
    },
    {
      "id": 3198416878,
      "name": "林進興醫院(寶獅里)",
      "type": "bus",
      "city": "高雄市",
      "district": "三民區",
      "lat": 22.6370309,
      "lng": 120.3392307,
      "routes": [
        "73"
      ],
      "routeCount": 1,
      "routeSource": "gtfs",
      "routeUpdatedAt": "2026-06-14T16:43:42.361Z",
      "routeConfidence": "high"
    },
    {
      "id": 3374342829,
      "name": "鼎貴路口(獅湖國小)",
      "type": "bus",
      "city": "高雄市",
      "district": "三民區",
      "lat": 22.6724146,
      "lng": 120.323118,
      "routes": [
        "24(假日停駛)",
        "24A(平日停駛)",
        "72",
        "224",
        "紅36裕誠幹線",
        "紅36裕誠幹線(17時以後改道文信路)"
      ],
      "routeCount": 6,
      "routeSource": "gtfs",
      "routeUpdatedAt": "2026-06-14T16:43:42.361Z",
      "routeConfidence": "high"
    },
    {
      "id": 3627048344,
      "name": "正義",
      "type": "train",
      "city": "高雄市",
      "district": "三民區",
      "lat": 22.6341158,
      "lng": 120.3427383
    },
    {
      "id": 3627058780,
      "name": "民族",
      "type": "train",
      "city": "高雄市",
      "district": "三民區",
      "lat": 22.6387002,
      "lng": 120.3150956
    },
    {
      "id": 4580663527,
      "name": "後驛",
      "type": "metro",
      "city": "高雄市",
      "district": "三民區",
      "lat": 22.6477388,
      "lng": 120.3032208,
      "lines": [
        "紅線"
      ],
      "lineCount": 1,
      "lineSource": "gtfs",
      "lineUpdatedAt": "2026-06-14T15:08:27.203Z",
      "lineConfidence": "high"
    },
    {
      "id": 5097612610,
      "name": "家樂福愛河店",
      "type": "bus",
      "city": "高雄市",
      "district": "三民區",
      "lat": 22.6335596,
      "lng": 120.2859495,
      "routes": [
        "紅52"
      ],
      "routeCount": 1,
      "routeSource": "gtfs",
      "routeUpdatedAt": "2026-06-14T16:43:42.361Z",
      "routeConfidence": "high"
    },
    {
      "id": 5395899421,
      "name": "建國站",
      "type": "bus",
      "city": "高雄市",
      "district": "三民區",
      "lat": 22.6378267,
      "lng": 120.3003934,
      "routes": [
        "1610A",
        "1610B",
        "1610C",
        "1621",
        "1650D",
        "1651",
        "1660",
        "1838",
        "1838A",
        "1862",
        "1862A",
        "1872",
        "1872A",
        "8008",
        "8009",
        "8010",
        "8023",
        "9117",
        "9117A",
        "9117B",
        "9127",
        "9188",
        "E25高旗六龜快線(部分不經高鐵左營站)",
        "E28高旗美濃快線",
        "E32高旗甲仙快線"
      ],
      "routeCount": 25,
      "routeSource": "gtfs",
      "routeUpdatedAt": "2026-06-14T16:43:42.362Z",
      "routeConfidence": "high"
    },
    {
      "id": 5622257947,
      "name": "三塊厝",
      "type": "train",
      "city": "高雄市",
      "district": "三民區",
      "lat": 22.6392309,
      "lng": 120.2939211
    },
    {
      "id": 5777156181,
      "name": "高雄站",
      "type": "bus",
      "city": "高雄市",
      "district": "三民區",
      "lat": 22.6368878,
      "lng": 120.3025745,
      "routes": [
        "12",
        "12(延駛飛機路)",
        "26A",
        "26B",
        "28",
        "36",
        "53",
        "56A",
        "60覺民幹線",
        "60覺民幹線區間車",
        "69A小港幹線",
        "69B小港幹線(繞駛明鳳)",
        "69C小港幹線(繞駛學明)",
        "72",
        "82",
        "82公車式小黃",
        "83",
        "88建國幹線",
        "88建國幹線延駛",
        "205中華幹線",
        "218A內惟幹線",
        "218B內惟幹線(繞駛合群社區)",
        "301",
        "8043",
        "紅25公車式小黃",
        "紅25繞公車式小黃",
        "紅27",
        "紅30",
        "紅31"
      ],
      "routeCount": 29,
      "routeSource": "gtfs",
      "routeUpdatedAt": "2026-06-14T16:43:42.362Z",
      "routeConfidence": "high"
    },
    {
      "id": 5981456317,
      "name": "高雄",
      "type": "train",
      "city": "高雄市",
      "district": "三民區",
      "lat": 22.6395321,
      "lng": 120.3025585
    },
    {
      "id": 8190036209,
      "name": "臺鐵三塊厝站(自立路)",
      "type": "bus",
      "city": "高雄市",
      "district": "三民區",
      "lat": 22.6392797,
      "lng": 120.2961766,
      "routes": [
        "28",
        "53",
        "301",
        "8043",
        "紅25繞公車式小黃",
        "紅30",
        "紅31"
      ],
      "routeCount": 7,
      "routeSource": "gtfs",
      "routeUpdatedAt": "2026-06-14T16:43:42.363Z",
      "routeConfidence": "high"
    },
    {
      "id": 8190036212,
      "name": "臺鐵三塊厝站(中華路)",
      "type": "bus",
      "city": "高雄市",
      "district": "三民區",
      "lat": 22.6381803,
      "lng": 120.2925668,
      "routes": [
        "33(6:33繞駛後指部)",
        "168環西區間",
        "168環東區間",
        "205中華幹線",
        "218A內惟幹線",
        "218B內惟幹線(繞駛合群社區)",
        "紅25公車式小黃"
      ],
      "routeCount": 7,
      "routeSource": "gtfs",
      "routeUpdatedAt": "2026-06-14T16:43:42.363Z",
      "routeConfidence": "high"
    },
    {
      "id": 8290073471,
      "name": "臺鐵科工館站",
      "type": "bus",
      "city": "高雄市",
      "district": "三民區",
      "lat": 22.6369299,
      "lng": 120.3270009,
      "routes": [
        "76",
        "77昌福幹線",
        "77昌福幹線(繞三民高中)",
        "81",
        "168環西",
        "168環西區間",
        "168環東",
        "168環東區間",
        "綠2"
      ],
      "routeCount": 9,
      "routeSource": "gtfs",
      "routeUpdatedAt": "2026-06-14T16:43:42.363Z",
      "routeConfidence": "high"
    },
    {
      "id": 8290073473,
      "name": "臺鐵正義站(澄清路)",
      "type": "bus",
      "city": "高雄市",
      "district": "三民區",
      "lat": 22.6342902,
      "lng": 120.3443303,
      "routes": [
        "30",
        "70A三多幹線(部分延駛澄清湖)",
        "70B三多幹線(延駛鎮州路)",
        "70D三多幹線(延駛仁美)",
        "87",
        "8041A",
        "8041C(部分繞駛樹人醫專)",
        "8048",
        "8049",
        "黃2A(部分繞駛圓山飯店)",
        "黃2B",
        "黃2C",
        "橘7C",
        "橘10A公車式小黃",
        "橘10B公車式小黃",
        "T201(每周一至三行駛)"
      ],
      "routeCount": 16,
      "routeSource": "gtfs",
      "routeUpdatedAt": "2026-06-14T16:43:42.363Z",
      "routeConfidence": "high"
    },
    {
      "id": 8423001614,
      "name": "澄清澄和路口",
      "type": "bus",
      "city": "高雄市",
      "district": "三民區",
      "lat": 22.6437991,
      "lng": 120.3460998,
      "routes": [
        "30",
        "60覺民幹線",
        "60覺民幹線區間車",
        "70A三多幹線(部分延駛澄清湖)",
        "70B三多幹線(延駛鎮州路)",
        "70D三多幹線(延駛仁美)",
        "217A新昌幹線",
        "217B新昌幹線",
        "217E新昌幹線(大華里發車)",
        "8041A",
        "8041C(部分繞駛樹人醫專)",
        "8048",
        "8049",
        "紅28",
        "紅28(繞中都濕地公園)",
        "黃2A(部分繞駛圓山飯店)",
        "黃2B",
        "黃2C",
        "橘7C"
      ],
      "routeCount": 19,
      "routeSource": "gtfs",
      "routeUpdatedAt": "2026-06-14T16:43:42.364Z",
      "routeConfidence": "high"
    },
    {
      "id": 8566975821,
      "name": "大昌醫院",
      "type": "bus",
      "city": "高雄市",
      "district": "三民區",
      "lat": 22.6578112,
      "lng": 120.31972,
      "routes": [
        "8502"
      ],
      "routeCount": 1,
      "routeSource": "gtfs",
      "routeUpdatedAt": "2026-06-14T16:43:42.364Z",
      "routeConfidence": "high"
    },
    {
      "id": 9372627548,
      "name": "九如站乘車處",
      "type": "bus",
      "city": "高雄市",
      "district": "三民區",
      "lat": 22.6377387,
      "lng": 120.3377292,
      "routes": [
        "7512",
        "7512B",
        "7512E",
        "7513",
        "7513A",
        "7513B",
        "7513D",
        "7513E",
        "7513F",
        "7513G",
        "7513H",
        "7513I",
        "7513J",
        "7513K"
      ],
      "routeCount": 14,
      "routeSource": "gtfs",
      "routeUpdatedAt": "2026-06-14T16:43:42.364Z",
      "routeConfidence": "high"
    },
    {
      "id": 9372627550,
      "name": "和欣客運九如站",
      "type": "bus_station",
      "city": "高雄市",
      "district": "三民區",
      "lat": 22.6378155,
      "lng": 120.337813,
      "routes": [
        "7512",
        "7512B",
        "7512E",
        "7513",
        "7513A",
        "7513B",
        "7513D",
        "7513E",
        "7513F",
        "7513G",
        "7513H",
        "7513I",
        "7513J",
        "7513K"
      ],
      "routeCount": 14,
      "routeSource": "gtfs",
      "routeUpdatedAt": "2026-06-14T16:43:42.364Z",
      "routeConfidence": "high"
    },
    {
      "id": 10002299262,
      "name": "三民高中(金鼎路)",
      "type": "bus",
      "city": "高雄市",
      "district": "三民區",
      "lat": 22.6632075,
      "lng": 120.326891,
      "routes": [
        "76",
        "77昌福幹線(繞三民高中)",
        "8021",
        "紅31"
      ],
      "routeCount": 4,
      "routeSource": "gtfs",
      "routeUpdatedAt": "2026-06-14T16:43:42.364Z",
      "routeConfidence": "high"
    },
    {
      "id": 10002299265,
      "name": "大裕路",
      "type": "bus",
      "city": "高雄市",
      "district": "三民區",
      "lat": 22.6606358,
      "lng": 120.3285671,
      "routes": [
        "76",
        "77昌福幹線(繞三民高中)",
        "紅31"
      ],
      "routeCount": 3,
      "routeSource": "gtfs",
      "routeUpdatedAt": "2026-06-14T16:43:42.364Z",
      "routeConfidence": "high"
    },
    {
      "id": 11466206737,
      "name": "科工館",
      "type": "lrt",
      "city": "高雄市",
      "district": "三民區",
      "lat": 22.6369232,
      "lng": 120.3271428,
      "lines": [
        "高雄環狀輕軌"
      ],
      "lineCount": 1,
      "lineSource": "gtfs",
      "lineUpdatedAt": "2026-06-14T15:08:27.205Z",
      "lineConfidence": "high"
    },
    {
      "id": 11466206751,
      "name": "高雄高工",
      "type": "lrt",
      "city": "高雄市",
      "district": "三民區",
      "lat": 22.6497954,
      "lng": 120.3241552,
      "lines": [
        "高雄環狀輕軌"
      ],
      "lineCount": 1,
      "lineSource": "gtfs",
      "lineUpdatedAt": "2026-06-14T15:08:27.205Z",
      "lineConfidence": "high"
    },
    {
      "id": 11466206762,
      "name": "灣仔內",
      "type": "lrt",
      "city": "高雄市",
      "district": "三民區",
      "lat": 22.653543,
      "lng": 120.31888,
      "lines": [
        "高雄環狀輕軌"
      ],
      "lineCount": 1,
      "lineSource": "gtfs",
      "lineUpdatedAt": "2026-06-14T15:08:27.205Z",
      "lineConfidence": "high"
    },
    {
      "id": 219793253,
      "name": "漢程客運金獅湖站",
      "type": "bus_station",
      "city": "高雄市",
      "district": "三民區",
      "lat": 22.6658452,
      "lng": 120.3213919,
      "routes": [
        "33(6:33繞駛後指部)",
        "72",
        "76",
        "77昌福幹線",
        "77昌福幹線(繞三民高中)",
        "92自由幹線",
        "168環西",
        "168環西區間",
        "168環東",
        "168環東區間",
        "217A新昌幹線",
        "217B新昌幹線",
        "217D新昌幹線(高應大發車)",
        "217E新昌幹線(大華里發車)",
        "8502",
        "紅31",
        "紅35",
        "紅35(繞駛崇實社區)",
        "綠2A"
      ],
      "routeCount": 19,
      "routeSource": "gtfs",
      "routeUpdatedAt": "2026-06-14T16:43:42.365Z",
      "routeConfidence": "high"
    },
    {
      "id": 662907819,
      "name": "國光客運高雄站",
      "type": "bus_station",
      "city": "高雄市",
      "district": "三民區",
      "lat": 22.6368789,
      "lng": 120.3027923,
      "routes": [
        "12",
        "12(延駛飛機路)",
        "26A",
        "26B",
        "28",
        "36",
        "53",
        "56A",
        "60覺民幹線",
        "60覺民幹線區間車",
        "69A小港幹線",
        "69B小港幹線(繞駛明鳳)",
        "69C小港幹線(繞駛學明)",
        "72",
        "82",
        "82公車式小黃",
        "83",
        "88建國幹線",
        "88建國幹線延駛",
        "205中華幹線",
        "218A內惟幹線",
        "218B內惟幹線(繞駛合群社區)",
        "301",
        "8043",
        "紅25公車式小黃",
        "紅25繞公車式小黃",
        "紅27",
        "紅30",
        "紅31"
      ],
      "routeCount": 29,
      "routeSource": "gtfs",
      "routeUpdatedAt": "2026-06-14T16:43:42.366Z",
      "routeConfidence": "high"
    },
    {
      "id": 778012730,
      "name": "高雄客運建國站",
      "type": "bus_station",
      "city": "高雄市",
      "district": "三民區",
      "lat": 22.6377432,
      "lng": 120.3004001
    }
  ]
}
