{
  "city": "高雄市",
  "district": "湖內區",
  "category": "transport",
  "updatedAt": "2026-06-11T16:04:46.906Z",
  "rev": 1,
  "count": 27,
  "items": [
    {
      "id": 3697220807,
      "name": "仁佑診所",
      "type": "bus",
      "city": "高雄市",
      "district": "湖內區",
      "lat": 22.9099152,
      "lng": 120.2240081,
      "routes": [
        "239",
        "8041C(部分繞駛樹人醫專)",
        "大湖線",
        "大湖線-海埔海山三興宮",
        "紅71A",
        "紅71B1",
        "紅71B2"
      ],
      "routeCount": 7,
      "routeSource": "gtfs",
      "routeUpdatedAt": "2026-06-14T16:43:42.480Z",
      "routeConfidence": "high"
    },
    {
      "id": 3697222531,
      "name": "湖內區公所(圍仔內)",
      "type": "bus",
      "city": "高雄市",
      "district": "湖內區",
      "lat": 22.9083867,
      "lng": 120.2112969,
      "routes": [
        "239",
        "8041C(部分繞駛樹人醫專)",
        "大湖線",
        "大湖線-海埔海山三興宮",
        "紅71A",
        "紅71B1",
        "紅71B2"
      ],
      "routeCount": 7,
      "routeSource": "gtfs",
      "routeUpdatedAt": "2026-06-14T16:43:42.481Z",
      "routeConfidence": "high"
    },
    {
      "id": 3697222533,
      "name": "圍內",
      "type": "bus",
      "city": "高雄市",
      "district": "湖內區",
      "lat": 22.9091421,
      "lng": 120.2210781,
      "routes": [
        "239",
        "8041C(部分繞駛樹人醫專)",
        "大湖線",
        "大湖線-海埔海山三興宮",
        "紅71A",
        "紅71B1",
        "紅71B2"
      ],
      "routeCount": 7,
      "routeSource": "gtfs",
      "routeUpdatedAt": "2026-06-14T16:43:42.481Z",
      "routeConfidence": "high"
    },
    {
      "id": 3697222541,
      "name": "太爺(中正路一段)",
      "type": "bus",
      "city": "高雄市",
      "district": "湖內區",
      "lat": 22.9095371,
      "lng": 120.2259726,
      "routes": [
        "239",
        "8041C(部分繞駛樹人醫專)",
        "8046A",
        "8046B(部分繞駛樹人醫專)",
        "大湖線",
        "大湖線-海埔海山三興宮",
        "紅71A",
        "紅71B1",
        "紅71B2"
      ],
      "routeCount": 9,
      "routeSource": "gtfs",
      "routeUpdatedAt": "2026-06-14T16:43:42.481Z",
      "routeConfidence": "high"
    },
    {
      "id": 3697222557,
      "name": "文賢里",
      "type": "bus",
      "city": "高雄市",
      "district": "湖內區",
      "lat": 22.9079665,
      "lng": 120.2086643,
      "routes": [
        "239",
        "8041C(部分繞駛樹人醫專)",
        "大湖線",
        "大湖線-海埔海山三興宮",
        "紅71A",
        "紅71B1",
        "紅71B2"
      ],
      "routeCount": 7,
      "routeSource": "gtfs",
      "routeUpdatedAt": "2026-06-14T16:43:42.481Z",
      "routeConfidence": "high"
    },
    {
      "id": 3697222559,
      "name": "新庄路口(中正路二段)",
      "type": "bus",
      "city": "高雄市",
      "district": "湖內區",
      "lat": 22.9095424,
      "lng": 120.2006033,
      "routes": [
        "239",
        "8041C(部分繞駛樹人醫專)",
        "大湖線",
        "大湖線-海埔海山三興宮",
        "紅71A",
        "紅71B1",
        "紅71B2"
      ],
      "routeCount": 7,
      "routeSource": "gtfs",
      "routeUpdatedAt": "2026-06-14T16:43:42.481Z",
      "routeConfidence": "high"
    },
    {
      "id": 3697222565,
      "name": "湖內農會",
      "type": "bus",
      "city": "高雄市",
      "district": "湖內區",
      "lat": 22.9085452,
      "lng": 120.2144553,
      "routes": [
        "239",
        "8041C(部分繞駛樹人醫專)",
        "大湖線",
        "大湖線-海埔海山三興宮",
        "紅71A",
        "紅71B1",
        "紅71B2"
      ],
      "routeCount": 7,
      "routeSource": "gtfs",
      "routeUpdatedAt": "2026-06-14T16:43:42.481Z",
      "routeConfidence": "high"
    },
    {
      "id": 3697222584,
      "name": "草仔寮",
      "type": "bus",
      "city": "高雄市",
      "district": "湖內區",
      "lat": 22.9120298,
      "lng": 120.1952244,
      "routes": [
        "239",
        "8041C(部分繞駛樹人醫專)",
        "大湖線",
        "大湖線-海埔海山三興宮",
        "紅71A",
        "紅71B1",
        "紅71B2"
      ],
      "routeCount": 7,
      "routeSource": "gtfs",
      "routeUpdatedAt": "2026-06-14T16:43:42.481Z",
      "routeConfidence": "high"
    },
    {
      "id": 3697222586,
      "name": "葉厝甲",
      "type": "bus",
      "city": "高雄市",
      "district": "湖內區",
      "lat": 22.9087604,
      "lng": 120.2171522,
      "routes": [
        "239",
        "8041C(部分繞駛樹人醫專)",
        "大湖線",
        "大湖線-海埔海山三興宮",
        "紅71A",
        "紅71B1",
        "紅71B2"
      ],
      "routeCount": 7,
      "routeSource": "gtfs",
      "routeUpdatedAt": "2026-06-14T16:43:42.483Z",
      "routeConfidence": "high"
    },
    {
      "id": 3908054009,
      "name": "三興宮",
      "type": "bus",
      "city": "高雄市",
      "district": "湖內區",
      "lat": 22.8989116,
      "lng": 120.2229325,
      "routes": [
        "大湖線-海埔海山三興宮"
      ],
      "routeCount": 1,
      "routeSource": "gtfs",
      "routeUpdatedAt": "2026-06-14T16:43:42.483Z",
      "routeConfidence": "high"
    },
    {
      "id": 3908054010,
      "name": "中賢里",
      "type": "bus",
      "city": "高雄市",
      "district": "湖內區",
      "lat": 22.9078643,
      "lng": 120.206218,
      "routes": [
        "239",
        "8041C(部分繞駛樹人醫專)",
        "大湖線",
        "大湖線-海埔海山三興宮",
        "紅71A",
        "紅71B1",
        "紅71B2"
      ],
      "routeCount": 7,
      "routeSource": "gtfs",
      "routeUpdatedAt": "2026-06-14T16:43:42.483Z",
      "routeConfidence": "high"
    },
    {
      "id": 3908054012,
      "name": "台農飼料廠",
      "type": "bus",
      "city": "高雄市",
      "district": "湖內區",
      "lat": 22.8980991,
      "lng": 120.2358535,
      "routes": [
        "8041C(部分繞駛樹人醫專)",
        "8046A",
        "8046B(部分繞駛樹人醫專)",
        "大湖線",
        "大湖線-海埔海山三興宮",
        "紅71A",
        "紅71B1",
        "紅71B2"
      ],
      "routeCount": 8,
      "routeSource": "gtfs",
      "routeUpdatedAt": "2026-06-14T16:43:42.483Z",
      "routeConfidence": "high"
    },
    {
      "id": 3908054014,
      "name": "大湖",
      "type": "bus",
      "city": "高雄市",
      "district": "湖內區",
      "lat": 22.8878682,
      "lng": 120.2430269,
      "routes": [
        "8041C(部分繞駛樹人醫專)",
        "8046A",
        "8046B(部分繞駛樹人醫專)",
        "大湖線",
        "大湖線-海埔海山三興宮",
        "紅71A",
        "紅71B1",
        "紅71B2"
      ],
      "routeCount": 8,
      "routeSource": "gtfs",
      "routeUpdatedAt": "2026-06-14T16:43:42.483Z",
      "routeConfidence": "high"
    },
    {
      "id": 3908054016,
      "name": "大湖火車站",
      "type": "bus",
      "city": "高雄市",
      "district": "湖內區",
      "lat": 22.8776685,
      "lng": 120.2524046,
      "routes": [
        "8041C(部分繞駛樹人醫專)",
        "8046A",
        "8046B(部分繞駛樹人醫專)",
        "大湖線",
        "大湖線-海埔海山三興宮",
        "紅71A",
        "紅71B1",
        "紅71B2",
        "紅71D"
      ],
      "routeCount": 9,
      "routeSource": "gtfs",
      "routeUpdatedAt": "2026-06-14T16:43:42.483Z",
      "routeConfidence": "high"
    },
    {
      "id": 3908054020,
      "name": "明寧靖王公園",
      "type": "bus",
      "city": "高雄市",
      "district": "湖內區",
      "lat": 22.878582,
      "lng": 120.239503,
      "routes": [
        "大湖線",
        "大湖線-海埔海山三興宮",
        "紅71A",
        "紅71B1"
      ],
      "routeCount": 4,
      "routeSource": "gtfs",
      "routeUpdatedAt": "2026-06-14T16:43:42.483Z",
      "routeConfidence": "high"
    },
    {
      "id": 3908054022,
      "name": "東方設計學院",
      "type": "bus",
      "city": "高雄市",
      "district": "湖內區",
      "lat": 22.8796023,
      "lng": 120.2481983,
      "routes": [
        "大湖線",
        "大湖線-海埔海山三興宮",
        "紅71A",
        "紅71B1",
        "紅71D"
      ],
      "routeCount": 5,
      "routeSource": "gtfs",
      "routeUpdatedAt": "2026-06-14T16:43:42.483Z",
      "routeConfidence": "high"
    },
    {
      "id": 3908054026,
      "name": "東方路口(東方技術學院)",
      "type": "bus",
      "city": "高雄市",
      "district": "湖內區",
      "lat": 22.8821636,
      "lng": 120.248463
    },
    {
      "id": 3908054029,
      "name": "中山大仁路口",
      "type": "bus",
      "city": "高雄市",
      "district": "湖內區",
      "lat": 22.8740152,
      "lng": 120.2537323,
      "routes": [
        "8041C(部分繞駛樹人醫專)",
        "8046A",
        "8046B(部分繞駛樹人醫專)",
        "紅71A",
        "紅71B1",
        "紅71B2",
        "紅71D"
      ],
      "routeCount": 7,
      "routeSource": "gtfs",
      "routeUpdatedAt": "2026-06-14T16:43:42.483Z",
      "routeConfidence": "high"
    },
    {
      "id": 3908054030,
      "name": "正義社區",
      "type": "bus",
      "city": "高雄市",
      "district": "湖內區",
      "lat": 22.8739839,
      "lng": 120.2365535
    },
    {
      "id": 3908054031,
      "name": "民族街口",
      "type": "bus",
      "city": "高雄市",
      "district": "湖內區",
      "lat": 22.8781061,
      "lng": 120.2320522,
      "routes": [
        "大湖線",
        "大湖線-海埔海山三興宮",
        "紅71A",
        "紅71B1"
      ],
      "routeCount": 4,
      "routeSource": "gtfs",
      "routeUpdatedAt": "2026-06-14T16:43:42.483Z",
      "routeConfidence": "high"
    },
    {
      "id": 3908054033,
      "name": "海山埔活動中心",
      "type": "bus",
      "city": "高雄市",
      "district": "湖內區",
      "lat": 22.8954056,
      "lng": 120.2236327
    },
    {
      "id": 3908054035,
      "name": "太爺(湖內國中)",
      "type": "bus",
      "city": "高雄市",
      "district": "湖內區",
      "lat": 22.9082652,
      "lng": 120.2279281
    },
    {
      "id": 3908054036,
      "name": "太爺(湖內國中)",
      "type": "bus",
      "city": "高雄市",
      "district": "湖內區",
      "lat": 22.9088141,
      "lng": 120.2271361,
      "routes": [
        "239",
        "8041C(部分繞駛樹人醫專)",
        "8046A",
        "8046B(部分繞駛樹人醫專)",
        "大湖線",
        "大湖線-海埔海山三興宮",
        "紅71A",
        "紅71B1",
        "紅71B2"
      ],
      "routeCount": 9,
      "routeSource": "gtfs",
      "routeUpdatedAt": "2026-06-14T16:43:42.484Z",
      "routeConfidence": "high"
    },
    {
      "id": 3908054039,
      "name": "牛蹄寮",
      "type": "bus",
      "city": "高雄市",
      "district": "湖內區",
      "lat": 22.9019637,
      "lng": 120.2316621,
      "routes": [
        "8041C(部分繞駛樹人醫專)",
        "8046A",
        "8046B(部分繞駛樹人醫專)",
        "大湖線",
        "大湖線-海埔海山三興宮",
        "紅71A",
        "紅71B1",
        "紅71B2"
      ],
      "routeCount": 8,
      "routeSource": "gtfs",
      "routeUpdatedAt": "2026-06-14T16:43:42.484Z",
      "routeConfidence": "high"
    },
    {
      "id": 3908054041,
      "name": "田尾里",
      "type": "bus",
      "city": "高雄市",
      "district": "湖內區",
      "lat": 22.8940603,
      "lng": 120.2406717,
      "routes": [
        "8041C(部分繞駛樹人醫專)",
        "8046A",
        "8046B(部分繞駛樹人醫專)",
        "大湖線",
        "大湖線-海埔海山三興宮",
        "紅71A",
        "紅71B1",
        "紅71B2"
      ],
      "routeCount": 8,
      "routeSource": "gtfs",
      "routeUpdatedAt": "2026-06-14T16:43:42.484Z",
      "routeConfidence": "high"
    },
    {
      "id": 8419633386,
      "name": "大湖埤",
      "type": "bus",
      "city": "高雄市",
      "district": "湖內區",
      "lat": 22.874664,
      "lng": 120.2249417,
      "routes": [
        "8043"
      ],
      "routeCount": 1,
      "routeSource": "gtfs",
      "routeUpdatedAt": "2026-06-14T16:43:42.484Z",
      "routeConfidence": "high"
    },
    {
      "id": 10708689164,
      "name": "湖內分局",
      "type": "bus",
      "city": "高雄市",
      "district": "湖內區",
      "lat": 22.8858564,
      "lng": 120.2453783,
      "routes": [
        "8041C(部分繞駛樹人醫專)",
        "8046A",
        "8046B(部分繞駛樹人醫專)",
        "大湖線",
        "大湖線-海埔海山三興宮",
        "紅71A",
        "紅71B1",
        "紅71B2"
      ],
      "routeCount": 8,
      "routeSource": "gtfs",
      "routeUpdatedAt": "2026-06-14T16:43:42.484Z",
      "routeConfidence": "high"
    }
  ]
}
