{"city":"雲林縣","district":"土庫鎮","category":"family","updatedAt":"2026-06-16T15:54:24.202Z","rev":24,"count":6,"items":[{"id":4663566789,"name":"源順麻油","lat":23.6720377,"lng":120.3946863,"address":null,"hasBabyChanging":false,"hasAccessible":false,"source":"OpenStreetMap","updatedAt":"2026-06-16T15:54:24.202Z","facilityType":"science","facilityLabel":"🔬 博物館","phone":null,"website":null,"wheelchair":false,"paid":null,"needsAddr":true},{"id":12737761201,"name":"土庫驛可可莊園","lat":23.6749845,"lng":120.3986671,"address":"雲林縣土庫鎮大同路1-2號","hasBabyChanging":false,"hasAccessible":false,"source":"OpenStreetMap","updatedAt":"2026-06-16T15:54:24.202Z","facilityType":"farm","facilityLabel":"🌾 農場","phone":"+886 5 6623488","website":"https://www.tukuyicocoa.tw/","wheelchair":false,"paid":null,"needsAddr":false},{"id":655244162,"name":"老人會公園","lat":23.67603175,"lng":120.38773760000001,"address":null,"hasBabyChanging":false,"hasAccessible":false,"source":"OpenStreetMap","updatedAt":"2026-06-16T15:54:24.202Z","facilityType":"park","facilityLabel":"🌳 中型公園","phone":null,"website":null,"wheelchair":false,"paid":null,"needsAddr":true},{"id":1375474787,"name":"三山國王公園","lat":23.671355900000002,"lng":120.3488159,"address":null,"hasBabyChanging":false,"hasAccessible":false,"source":"OpenStreetMap","updatedAt":"2026-06-16T15:54:24.202Z","facilityType":"park","facilityLabel":"🌳 小型公園","phone":null,"website":null,"wheelchair":false,"paid":null,"needsAddr":true},{"id":1375474789,"name":"秀潭無底潭公園","lat":23.64953035,"lng":120.34984695,"address":null,"hasBabyChanging":false,"hasAccessible":false,"source":"OpenStreetMap","updatedAt":"2026-06-16T15:54:24.202Z","facilityType":"park","facilityLabel":"🌳 小型公園","phone":null,"website":null,"wheelchair":false,"paid":null,"needsAddr":true},{"id":1375474802,"name":"石廟小公園","lat":23.68537135,"lng":120.3903447,"address":null,"hasBabyChanging":false,"hasAccessible":false,"source":"OpenStreetMap","updatedAt":"2026-06-16T15:54:24.202Z","facilityType":"park","facilityLabel":"🌳 小型公園","phone":null,"website":null,"wheelchair":false,"paid":null,"needsAddr":true}]}