{"city":"花蓮縣","district":"光復鄉","category":"toilets","updatedAt":"2026-06-12T07:40:23.325Z","rev":1,"count":41,"items":[{"id":289125172,"name":"光復 6160","lat":23.6663549,"lng":121.4211642,"address":null,"hasBabyChanging":false,"hasAccessible":false,"source":"OpenStreetMap","updatedAt":"2026-06-12T07:40:23.325Z","facilityType":"train","facilityLabel":"🚂 火車站","changingTable":false,"wheelchair":false,"needsAddr":false},{"id":2124910159,"name":"大農大富平地森林園區","lat":23.6223944,"lng":121.4015013,"address":null,"hasBabyChanging":false,"hasAccessible":false,"source":"OpenStreetMap","updatedAt":"2026-06-12T07:40:23.325Z","facilityType":"attraction","facilityLabel":"🏞️ 景點","changingTable":false,"wheelchair":false,"needsAddr":false},{"id":2125115335,"name":"阿漾咕咕","lat":23.6584482,"lng":121.4388201,"address":null,"hasBabyChanging":false,"hasAccessible":false,"source":"OpenStreetMap","updatedAt":"2026-06-12T07:40:23.325Z","facilityType":"attraction","facilityLabel":"🏞️ 景點","changingTable":false,"wheelchair":false,"needsAddr":false},{"id":2484567643,"name":"花糖文物館","lat":23.6589858,"lng":121.4216769,"address":null,"hasBabyChanging":false,"hasAccessible":true,"source":"OpenStreetMap","updatedAt":"2026-06-12T07:40:23.325Z","facilityType":"museum","facilityLabel":"🖼️ 博物館","changingTable":false,"wheelchair":true,"openingHours":"09:00-17:00","needsAddr":false},{"id":2493410382,"name":"富田派出所","lat":23.6590403,"lng":121.4498705,"address":"花蓮縣光復鄉北富村中正路二段55號","hasBabyChanging":false,"hasAccessible":false,"source":"OpenStreetMap","updatedAt":"2026-06-12T07:40:23.325Z","facilityType":"police","facilityLabel":"🚔 派出所","changingTable":false,"wheelchair":false,"needsAddr":false},{"id":2493421357,"name":"壇","lat":23.6582507,"lng":121.4485155,"address":null,"hasBabyChanging":false,"hasAccessible":false,"source":"OpenStreetMap","updatedAt":"2026-06-12T07:40:23.325Z","facilityType":"temple","facilityLabel":"🛕 廟宇","changingTable":false,"wheelchair":false,"needsAddr":false},{"id":2493421358,"name":"富田天主堂","lat":23.6586115,"lng":121.4476199,"address":null,"hasBabyChanging":false,"hasAccessible":false,"source":"OpenStreetMap","updatedAt":"2026-06-12T07:40:23.325Z","facilityType":"temple","facilityLabel":"🛕 廟宇","changingTable":false,"wheelchair":false,"needsAddr":false},{"id":2493799658,"name":"公共廁所","lat":23.6577596,"lng":121.4211332,"address":null,"hasBabyChanging":false,"hasAccessible":false,"source":"OpenStreetMap","updatedAt":"2026-06-12T07:40:23.325Z","facilityType":"toilet","facilityLabel":null,"changingTable":false,"wheelchair":false,"needsAddr":true},{"id":2536764164,"name":"大富派出所","lat":23.6058396,"lng":121.3923385,"address":"花蓮縣光復鄉大富村中山路一段23號","hasBabyChanging":false,"hasAccessible":false,"source":"OpenStreetMap","updatedAt":"2026-06-12T07:40:23.325Z","facilityType":"police","facilityLabel":"🚔 派出所","changingTable":false,"wheelchair":false,"needsAddr":false},{"id":2550637104,"name":"大進站","lat":23.6534853,"lng":121.4178612,"address":"花蓮縣光復鄉中山路一段232號","hasBabyChanging":false,"hasAccessible":false,"source":"OpenStreetMap","updatedAt":"2026-06-12T07:40:23.325Z","facilityType":"fuel","facilityLabel":"⛽ 加油站","changingTable":false,"wheelchair":false,"openingHours":"06:30-21:30","needsAddr":false},{"id":2550815615,"name":"岡界教會","lat":23.6345632,"lng":121.3939258,"address":null,"hasBabyChanging":false,"hasAccessible":false,"source":"OpenStreetMap","updatedAt":"2026-06-12T07:40:23.325Z","facilityType":"temple","facilityLabel":"🛕 廟宇","changingTable":false,"wheelchair":false,"needsAddr":false},{"id":3266660107,"name":"光復站","lat":23.6652484,"lng":121.4256058,"address":null,"hasBabyChanging":false,"hasAccessible":false,"source":"OpenStreetMap","updatedAt":"2026-06-12T07:40:23.325Z","facilityType":"bus","facilityLabel":"🚌 客運站","changingTable":false,"wheelchair":false,"needsAddr":false},{"id":3282452953,"name":"大農大富平地森林園區站","lat":23.6146087,"lng":121.4166707,"address":null,"hasBabyChanging":false,"hasAccessible":false,"source":"OpenStreetMap","updatedAt":"2026-06-12T07:40:23.325Z","facilityType":"bus","facilityLabel":"🚌 客運站","changingTable":false,"wheelchair":false,"needsAddr":false},{"id":4102373492,"name":"花蓮翱翔季","lat":23.6738987,"lng":121.4505764,"address":null,"hasBabyChanging":false,"hasAccessible":false,"source":"OpenStreetMap","updatedAt":"2026-06-12T07:40:23.325Z","facilityType":"attraction","facilityLabel":"🏞️ 景點","changingTable":false,"wheelchair":false,"needsAddr":false},{"id":4102392291,"name":"馬太鞍濕地","lat":23.6583597,"lng":121.4092788,"address":null,"hasBabyChanging":false,"hasAccessible":false,"source":"OpenStreetMap","updatedAt":"2026-06-12T07:40:23.325Z","facilityType":"attraction","facilityLabel":"🏞️ 景點","changingTable":false,"wheelchair":false,"needsAddr":false},{"id":5273776017,"name":"公共廁所","lat":23.6143958,"lng":121.4174075,"address":null,"hasBabyChanging":false,"hasAccessible":false,"source":"OpenStreetMap","updatedAt":"2026-06-12T07:40:23.325Z","facilityType":"toilet","facilityLabel":null,"changingTable":false,"wheelchair":false,"openingHours":"Mo-Su 08:00-17:00","needsAddr":true},{"id":5636492321,"name":"公共廁所","lat":23.6046214,"lng":121.4216229,"address":null,"hasBabyChanging":false,"hasAccessible":false,"source":"OpenStreetMap","updatedAt":"2026-06-12T07:40:23.325Z","facilityType":"toilet","facilityLabel":null,"changingTable":false,"wheelchair":false,"needsAddr":true},{"id":6128029047,"name":"光復鄉戶政事務所","lat":23.6655192,"lng":121.4250171,"address":"花蓮縣光復鄉中正路一段129號","hasBabyChanging":false,"hasAccessible":false,"source":"OpenStreetMap","updatedAt":"2026-06-12T07:40:23.325Z","facilityType":"government","facilityLabel":"🏛 公務機關","changingTable":false,"wheelchair":false,"needsAddr":false},{"id":8072394512,"name":"馬太鞍部落納骨碑","lat":23.6751931,"lng":121.4304417,"address":null,"hasBabyChanging":false,"hasAccessible":false,"source":"OpenStreetMap","updatedAt":"2026-06-12T07:40:23.325Z","facilityType":"attraction","facilityLabel":"🏞️ 景點","changingTable":false,"wheelchair":false,"needsAddr":false},{"id":8072394804,"name":"富田古井","lat":23.66122,"lng":121.4535396,"address":null,"hasBabyChanging":false,"hasAccessible":false,"source":"OpenStreetMap","updatedAt":"2026-06-12T07:40:23.325Z","facilityType":"attraction","facilityLabel":"🏞️ 景點","changingTable":false,"wheelchair":false,"needsAddr":false},{"id":8072394805,"name":"富田納骨碑","lat":23.6606782,"lng":121.4541833,"address":null,"hasBabyChanging":false,"hasAccessible":false,"source":"OpenStreetMap","updatedAt":"2026-06-12T07:40:23.325Z","facilityType":"attraction","facilityLabel":"🏞️ 景點","changingTable":false,"wheelchair":false,"needsAddr":false},{"id":9664515509,"name":"廟宇","lat":23.652615,"lng":121.3841147,"address":null,"hasBabyChanging":false,"hasAccessible":false,"source":"OpenStreetMap","updatedAt":"2026-06-12T07:40:23.325Z","facilityType":"temple","facilityLabel":"🛕 廟宇","changingTable":false,"wheelchair":false,"needsAddr":true},{"id":12247644318,"name":"景點","lat":23.6626466,"lng":121.3807936,"address":null,"hasBabyChanging":false,"hasAccessible":false,"source":"OpenStreetMap","updatedAt":"2026-06-12T07:40:23.325Z","facilityType":"attraction","facilityLabel":"🏞️ 景點","changingTable":false,"wheelchair":false,"needsAddr":true},{"id":13180721150,"name":"公共廁所","lat":23.6666436,"lng":121.4212232,"address":null,"hasBabyChanging":false,"hasAccessible":false,"source":"OpenStreetMap","updatedAt":"2026-06-12T07:40:23.325Z","facilityType":"toilet","facilityLabel":null,"changingTable":false,"wheelchair":false,"needsAddr":true},{"id":13201106848,"name":"三玄宮","lat":23.672914,"lng":121.4328934,"address":null,"hasBabyChanging":false,"hasAccessible":false,"source":"OpenStreetMap","updatedAt":"2026-06-12T07:40:23.325Z","facilityType":"temple","facilityLabel":"🛕 廟宇","changingTable":false,"wheelchair":false,"needsAddr":false},{"id":241884284,"name":"廟宇 (97641花蓮縣光復鄉中華路327號)","lat":23.6720875,"lng":121.424268,"address":"97641花蓮縣光復鄉中華路327號","hasBabyChanging":false,"hasAccessible":false,"source":"OpenStreetMap","updatedAt":"2026-06-12T07:40:23.325Z","facilityType":"temple","facilityLabel":"🛕 廟宇","changingTable":false,"wheelchair":false,"needsAddr":false},{"id":369964509,"name":"大富大農平地森林園區","lat":23.614517,"lng":121.4151285,"address":null,"hasBabyChanging":false,"hasAccessible":false,"source":"OpenStreetMap","updatedAt":"2026-06-12T07:40:23.325Z","facilityType":"theme_park","facilityLabel":"🎡 遊樂園","changingTable":false,"wheelchair":false,"openingHours":"Mo-Su 8:00-17:00","needsAddr":false},{"id":630206986,"name":"土地公廟","lat":23.6601107,"lng":121.4215435,"address":null,"hasBabyChanging":false,"hasAccessible":false,"source":"OpenStreetMap","updatedAt":"2026-06-12T07:40:23.325Z","facilityType":"temple","facilityLabel":"🛕 廟宇","changingTable":false,"wheelchair":false,"needsAddr":false},{"id":722870959,"name":"花東山琉璃禪寺","lat":23.5992188,"lng":121.4167563,"address":"花蓮縣光復鄉建國路一段26之2號","hasBabyChanging":false,"hasAccessible":false,"source":"OpenStreetMap","updatedAt":"2026-06-12T07:40:23.325Z","facilityType":"temple","facilityLabel":"🛕 廟宇","changingTable":false,"wheelchair":false,"needsAddr":false},{"id":866063138,"name":"太巴塱kakita'an祖屋","lat":23.6608462,"lng":121.4539496,"address":null,"hasBabyChanging":false,"hasAccessible":false,"source":"OpenStreetMap","updatedAt":"2026-06-12T07:40:23.325Z","facilityType":"attraction","facilityLabel":"🏞️ 景點","changingTable":false,"wheelchair":false,"needsAddr":false},{"id":963147085,"name":"台灣中油 馬太鞍站","lat":23.6738963,"lng":121.4227813,"address":"花蓮縣光復鄉林森路300號","hasBabyChanging":false,"hasAccessible":false,"source":"OpenStreetMap","updatedAt":"2026-06-12T07:40:23.325Z","facilityType":"fuel","facilityLabel":"⛽ 加油站","changingTable":false,"wheelchair":false,"openingHours":"Mo-Su 07:00-21:00","needsAddr":false},{"id":963147087,"name":"台灣中油 光復站","lat":23.6677535,"lng":121.4249152,"address":"花蓮縣光復鄉中山路二段340號","hasBabyChanging":false,"hasAccessible":false,"source":"OpenStreetMap","updatedAt":"2026-06-12T07:40:23.325Z","facilityType":"fuel","facilityLabel":"⛽ 加油站","changingTable":false,"wheelchair":false,"openingHours":"08:00-16:00","needsAddr":false},{"id":963147088,"name":"光復鄉公所","lat":23.6693821,"lng":121.4232799,"address":"花蓮縣光復鄉中華路257號","hasBabyChanging":false,"hasAccessible":false,"source":"OpenStreetMap","updatedAt":"2026-06-12T07:40:23.325Z","facilityType":"government","facilityLabel":"🏛 公務機關","changingTable":false,"wheelchair":false,"needsAddr":false},{"id":1433962933,"name":"長老教會馬太鞍教會","lat":23.6752589,"lng":121.4262222,"address":null,"hasBabyChanging":false,"hasAccessible":false,"source":"OpenStreetMap","updatedAt":"2026-06-12T07:40:23.325Z","facilityType":"temple","facilityLabel":"🛕 廟宇","changingTable":false,"wheelchair":false,"needsAddr":false},{"id":1434068723,"name":"光復分駐所","lat":23.6655861,"lng":121.4248915,"address":"花蓮縣光復鄉大華村中正路一段127號","hasBabyChanging":false,"hasAccessible":false,"source":"OpenStreetMap","updatedAt":"2026-06-12T07:40:23.325Z","facilityType":"police","facilityLabel":"🚔 派出所","changingTable":false,"wheelchair":false,"needsAddr":false},{"id":1434068802,"name":"保安寺","lat":23.6724746,"lng":121.4350952,"address":"花蓮縣光復鄉佛祖街314巷2號","hasBabyChanging":false,"hasAccessible":false,"source":"OpenStreetMap","updatedAt":"2026-06-12T07:40:23.325Z","facilityType":"temple","facilityLabel":"🛕 廟宇","changingTable":false,"wheelchair":false,"needsAddr":false},{"id":1434069000,"name":"大同活動中心","lat":23.6632519,"lng":121.4310057,"address":"花蓮縣光復鄉中正路一段370號","hasBabyChanging":false,"hasAccessible":false,"source":"OpenStreetMap","updatedAt":"2026-06-12T07:40:23.325Z","facilityType":"community","facilityLabel":"🏘️ 活動中心","changingTable":false,"wheelchair":false,"needsAddr":false},{"id":1434401927,"name":"花蓮縣光復鄉立圖書館","lat":23.6636744,"lng":121.4237259,"address":"花蓮縣光復鄉忠孝路23巷11號","hasBabyChanging":false,"hasAccessible":false,"source":"OpenStreetMap","updatedAt":"2026-06-12T07:40:23.325Z","facilityType":"library","facilityLabel":"📚 圖書館","changingTable":false,"wheelchair":false,"needsAddr":false},{"id":1450644716,"name":"西南活動中心","lat":23.6584643,"lng":121.4493492,"address":"花蓮縣光復鄉中正路二段72巷14號","hasBabyChanging":false,"hasAccessible":false,"source":"OpenStreetMap","updatedAt":"2026-06-12T07:40:23.325Z","facilityType":"community","facilityLabel":"🏘️ 活動中心","changingTable":false,"wheelchair":false,"needsAddr":false},{"id":1450644717,"name":"砂荖活動中心","lat":23.6418929,"lng":121.4510822,"address":"花蓮縣光復鄉建國路二段39號","hasBabyChanging":false,"hasAccessible":false,"source":"OpenStreetMap","updatedAt":"2026-06-12T07:40:23.325Z","facilityType":"community","facilityLabel":"🏘️ 活動中心","changingTable":false,"wheelchair":false,"needsAddr":false},{"id":3262383,"name":"花蓮觀光糖廠","lat":23.6576947,"lng":121.4218114,"address":"花蓮縣光復鄉大進村糖廠街19號","hasBabyChanging":false,"hasAccessible":true,"source":"OpenStreetMap","updatedAt":"2026-06-12T07:40:23.325Z","facilityType":"attraction","facilityLabel":"🏞️ 景點","changingTable":false,"wheelchair":true,"needsAddr":false}]}