{"city":"花蓮縣","district":"富里鄉","category":"toilets","updatedAt":"2026-06-12T07:40:23.325Z","rev":1,"count":42,"items":[{"id":1464098684,"name":"富里 6080","lat":23.1791523,"lng":121.2484471,"address":null,"hasBabyChanging":false,"hasAccessible":false,"source":"OpenStreetMap","updatedAt":"2026-06-12T07:40:23.325Z","facilityType":"train","facilityLabel":"🚂 火車站","changingTable":false,"wheelchair":false,"needsAddr":false},{"id":2493777837,"name":"台灣中油 富銘站","lat":23.2129704,"lng":121.2780259,"address":null,"hasBabyChanging":false,"hasAccessible":false,"source":"OpenStreetMap","updatedAt":"2026-06-12T07:40:23.325Z","facilityType":"fuel","facilityLabel":"⛽ 加油站","changingTable":false,"wheelchair":false,"openingHours":"24/7","needsAddr":false},{"id":2536764370,"name":"學田派出所","lat":23.1526065,"lng":121.2272823,"address":"花蓮縣富里鄉學田村民權路1號","hasBabyChanging":false,"hasAccessible":false,"source":"OpenStreetMap","updatedAt":"2026-06-12T07:40:23.325Z","facilityType":"police","facilityLabel":"🚔 派出所","changingTable":false,"wheelchair":false,"needsAddr":false},{"id":2536764427,"name":"富里分駐所","lat":23.1726146,"lng":121.2475247,"address":"花蓮縣富里鄉富里村中正路140號","hasBabyChanging":false,"hasAccessible":false,"source":"OpenStreetMap","updatedAt":"2026-06-12T07:40:23.325Z","facilityType":"police","facilityLabel":"🚔 派出所","changingTable":false,"wheelchair":false,"needsAddr":false},{"id":2536765841,"name":"竹田派出所","lat":23.220424,"lng":121.2823748,"address":"花蓮縣富里鄉竹田村40號","hasBabyChanging":false,"hasAccessible":false,"source":"OpenStreetMap","updatedAt":"2026-06-12T07:40:23.325Z","facilityType":"police","facilityLabel":"🚔 派出所","changingTable":false,"wheelchair":false,"needsAddr":false},{"id":3061301754,"name":"觀景台","lat":23.2197803,"lng":121.3073439,"address":null,"hasBabyChanging":false,"hasAccessible":false,"source":"OpenStreetMap","updatedAt":"2026-06-12T07:40:23.325Z","facilityType":"attraction","facilityLabel":"🏞️ 景點","changingTable":false,"wheelchair":false,"needsAddr":false},{"id":3181171183,"name":"富里","lat":23.1751464,"lng":121.2477604,"address":null,"hasBabyChanging":false,"hasAccessible":false,"source":"OpenStreetMap","updatedAt":"2026-06-12T07:40:23.325Z","facilityType":"bus","facilityLabel":"🚌 客運站","changingTable":false,"wheelchair":false,"needsAddr":false},{"id":3256866302,"name":"富里站","lat":23.1708608,"lng":121.2467825,"address":null,"hasBabyChanging":false,"hasAccessible":false,"source":"OpenStreetMap","updatedAt":"2026-06-12T07:40:23.325Z","facilityType":"bus","facilityLabel":"🚌 客運站","changingTable":false,"wheelchair":false,"needsAddr":false},{"id":3256866308,"name":"望通嶺","lat":23.1187089,"lng":121.280461,"address":null,"hasBabyChanging":false,"hasAccessible":false,"source":"OpenStreetMap","updatedAt":"2026-06-12T07:40:23.325Z","facilityType":"bus","facilityLabel":"🚌 客運站","changingTable":false,"wheelchair":false,"needsAddr":false},{"id":3280756153,"name":"富里衛生所","lat":23.1798433,"lng":121.2502073,"address":null,"hasBabyChanging":false,"hasAccessible":false,"source":"OpenStreetMap","updatedAt":"2026-06-12T07:40:23.325Z","facilityType":"clinic","facilityLabel":"🩺 診所","changingTable":false,"wheelchair":false,"needsAddr":false},{"id":3800295393,"name":"六十石山風景區","lat":23.2213781,"lng":121.316174,"address":null,"hasBabyChanging":false,"hasAccessible":false,"source":"OpenStreetMap","updatedAt":"2026-06-12T07:40:23.325Z","facilityType":"attraction","facilityLabel":"🏞️ 景點","changingTable":false,"wheelchair":false,"needsAddr":false},{"id":3800388266,"name":"臨水宮","lat":23.2214632,"lng":121.2912071,"address":null,"hasBabyChanging":false,"hasAccessible":false,"source":"OpenStreetMap","updatedAt":"2026-06-12T07:40:23.325Z","facilityType":"temple","facilityLabel":"🛕 廟宇","changingTable":false,"wheelchair":false,"needsAddr":false},{"id":3800388267,"name":"台灣基督長老教會達蘭埠教會","lat":23.226104,"lng":121.2898884,"address":null,"hasBabyChanging":false,"hasAccessible":false,"source":"OpenStreetMap","updatedAt":"2026-06-12T07:40:23.325Z","facilityType":"temple","facilityLabel":"🛕 廟宇","changingTable":false,"wheelchair":false,"needsAddr":false},{"id":3800390369,"name":"東富禪寺","lat":23.2206267,"lng":121.2955244,"address":null,"hasBabyChanging":false,"hasAccessible":false,"source":"OpenStreetMap","updatedAt":"2026-06-12T07:40:23.325Z","facilityType":"temple","facilityLabel":"🛕 廟宇","changingTable":false,"wheelchair":false,"needsAddr":false},{"id":3931764481,"name":"東竹 6090","lat":23.225984,"lng":121.2782583,"address":null,"hasBabyChanging":false,"hasAccessible":false,"source":"OpenStreetMap","updatedAt":"2026-06-12T07:40:23.325Z","facilityType":"train","facilityLabel":"🚂 火車站","changingTable":false,"wheelchair":false,"needsAddr":false},{"id":3931764482,"name":"東里 6100","lat":23.2724277,"lng":121.303996,"address":null,"hasBabyChanging":false,"hasAccessible":true,"source":"OpenStreetMap","updatedAt":"2026-06-12T07:40:23.325Z","facilityType":"train","facilityLabel":"🚂 火車站","changingTable":false,"wheelchair":true,"needsAddr":false},{"id":3942872672,"name":"長老教會","lat":23.1421314,"lng":121.2711379,"address":null,"hasBabyChanging":false,"hasAccessible":false,"source":"OpenStreetMap","updatedAt":"2026-06-12T07:40:23.325Z","facilityType":"temple","facilityLabel":"🛕 廟宇","changingTable":false,"wheelchair":false,"needsAddr":false},{"id":4102392289,"name":"六十石山金針花海","lat":23.2189387,"lng":121.3053555,"address":null,"hasBabyChanging":false,"hasAccessible":false,"source":"OpenStreetMap","updatedAt":"2026-06-12T07:40:23.325Z","facilityType":"attraction","facilityLabel":"🏞️ 景點","changingTable":false,"wheelchair":false,"needsAddr":false},{"id":4272120295,"name":"廁所","lat":23.2067981,"lng":121.3245969,"address":null,"hasBabyChanging":false,"hasAccessible":false,"source":"OpenStreetMap","updatedAt":"2026-06-12T07:40:23.325Z","facilityType":"toilet","facilityLabel":null,"changingTable":false,"wheelchair":false,"needsAddr":false},{"id":4908898322,"name":"景點","lat":23.2707972,"lng":121.3074367,"address":null,"hasBabyChanging":false,"hasAccessible":false,"source":"OpenStreetMap","updatedAt":"2026-06-12T07:40:23.325Z","facilityType":"attraction","facilityLabel":"🏞️ 景點","changingTable":false,"wheelchair":false,"needsAddr":true},{"id":4911012022,"name":"東部最大米倉","lat":23.2791354,"lng":121.3210634,"address":null,"hasBabyChanging":false,"hasAccessible":false,"source":"OpenStreetMap","updatedAt":"2026-06-12T07:40:23.325Z","facilityType":"attraction","facilityLabel":"🏞️ 景點","changingTable":false,"wheelchair":false,"needsAddr":false},{"id":5279694003,"name":"公共廁所","lat":23.2722501,"lng":121.304192,"address":null,"hasBabyChanging":false,"hasAccessible":true,"source":"OpenStreetMap","updatedAt":"2026-06-12T07:40:23.325Z","facilityType":"toilet","facilityLabel":null,"changingTable":false,"wheelchair":true,"needsAddr":true},{"id":6194144086,"name":"中油直營 富里站","lat":23.1825773,"lng":121.252225,"address":"花蓮縣富里鄉中興路85號","hasBabyChanging":false,"hasAccessible":false,"source":"OpenStreetMap","updatedAt":"2026-06-12T07:40:23.325Z","facilityType":"fuel","facilityLabel":"⛽ 加油站","changingTable":false,"wheelchair":false,"openingHours":"Mo-Su 07:00-21:00","needsAddr":false},{"id":6216726610,"name":"台灣中油 國光站","lat":23.2697418,"lng":121.3072706,"address":"花蓮縣富里鄉大莊路120號","hasBabyChanging":false,"hasAccessible":false,"source":"OpenStreetMap","updatedAt":"2026-06-12T07:40:23.325Z","facilityType":"fuel","facilityLabel":"⛽ 加油站","changingTable":false,"wheelchair":false,"openingHours":"Mo-Su 07:00-21:00","needsAddr":false},{"id":6359970014,"name":"福德祠","lat":23.2244058,"lng":121.2823602,"address":null,"hasBabyChanging":false,"hasAccessible":false,"source":"OpenStreetMap","updatedAt":"2026-06-12T07:40:23.325Z","facilityType":"temple","facilityLabel":"🛕 廟宇","changingTable":false,"wheelchair":false,"needsAddr":false},{"id":6800971671,"name":"台塑石油 富麗站","lat":23.2253921,"lng":121.2836605,"address":null,"hasBabyChanging":false,"hasAccessible":false,"source":"OpenStreetMap","updatedAt":"2026-06-12T07:40:23.325Z","facilityType":"fuel","facilityLabel":"⛽ 加油站","changingTable":false,"wheelchair":false,"needsAddr":false},{"id":6990107582,"name":"公共廁所","lat":23.1790358,"lng":121.2485477,"address":null,"hasBabyChanging":false,"hasAccessible":false,"source":"OpenStreetMap","updatedAt":"2026-06-12T07:40:23.325Z","facilityType":"toilet","facilityLabel":null,"changingTable":false,"wheelchair":false,"needsAddr":true},{"id":6990107583,"name":"景點","lat":23.1929286,"lng":121.2868242,"address":null,"hasBabyChanging":false,"hasAccessible":false,"source":"OpenStreetMap","updatedAt":"2026-06-12T07:40:23.325Z","facilityType":"attraction","facilityLabel":"🏞️ 景點","changingTable":false,"wheelchair":false,"needsAddr":true},{"id":8410740318,"name":"富里花海景觀區","lat":23.2060898,"lng":121.2725314,"address":null,"hasBabyChanging":false,"hasAccessible":false,"source":"OpenStreetMap","updatedAt":"2026-06-12T07:40:23.325Z","facilityType":"attraction","facilityLabel":"🏞️ 景點","changingTable":false,"wheelchair":false,"needsAddr":false},{"id":8690211874,"name":"公共廁所","lat":23.2704537,"lng":121.3071223,"address":null,"hasBabyChanging":false,"hasAccessible":false,"source":"OpenStreetMap","updatedAt":"2026-06-12T07:40:23.325Z","facilityType":"toilet","facilityLabel":null,"changingTable":false,"wheelchair":false,"needsAddr":true},{"id":9044759996,"name":"安通越嶺道第二觀景台","lat":23.2784326,"lng":121.3779102,"address":null,"hasBabyChanging":false,"hasAccessible":false,"source":"OpenStreetMap","updatedAt":"2026-06-12T07:40:23.325Z","facilityType":"attraction","facilityLabel":"🏞️ 景點","changingTable":false,"wheelchair":false,"needsAddr":false},{"id":9528698517,"name":"羅山桂竹林","lat":23.1870381,"lng":121.2879916,"address":null,"hasBabyChanging":false,"hasAccessible":false,"source":"OpenStreetMap","updatedAt":"2026-06-12T07:40:23.325Z","facilityType":"attraction","facilityLabel":"🏞️ 景點","changingTable":false,"wheelchair":false,"needsAddr":false},{"id":10147667061,"name":"福德祠","lat":23.1607113,"lng":121.240544,"address":null,"hasBabyChanging":false,"hasAccessible":false,"source":"OpenStreetMap","updatedAt":"2026-06-12T07:40:23.325Z","facilityType":"temple","facilityLabel":"🛕 廟宇","changingTable":false,"wheelchair":false,"needsAddr":false},{"id":13397226728,"name":"景點","lat":23.2786278,"lng":121.3204218,"address":null,"hasBabyChanging":false,"hasAccessible":false,"source":"OpenStreetMap","updatedAt":"2026-06-12T07:40:23.325Z","facilityType":"attraction","facilityLabel":"🏞️ 景點","changingTable":false,"wheelchair":false,"needsAddr":true},{"id":407441102,"name":"公共廁所","lat":23.1832594,"lng":121.2915007,"address":null,"hasBabyChanging":false,"hasAccessible":false,"source":"OpenStreetMap","updatedAt":"2026-06-12T07:40:23.325Z","facilityType":"toilet","facilityLabel":null,"changingTable":false,"wheelchair":false,"needsAddr":true},{"id":410181759,"name":"廁所","lat":23.1429755,"lng":121.2724722,"address":null,"hasBabyChanging":false,"hasAccessible":false,"source":"OpenStreetMap","updatedAt":"2026-06-12T07:40:23.325Z","facilityType":"toilet","facilityLabel":null,"changingTable":false,"wheelchair":false,"needsAddr":false},{"id":427938383,"name":"玉里醫院萬寧院區","lat":23.2525916,"lng":121.2962609,"address":null,"hasBabyChanging":false,"hasAccessible":false,"source":"OpenStreetMap","updatedAt":"2026-06-12T07:40:23.325Z","facilityType":"hospital","facilityLabel":"🏥 醫院","changingTable":false,"wheelchair":false,"needsAddr":false},{"id":428065693,"name":"東里派出所","lat":23.268385,"lng":121.305178,"address":"花蓮縣富里鄉東里村5鄰大庄路38號","hasBabyChanging":false,"hasAccessible":false,"source":"OpenStreetMap","updatedAt":"2026-06-12T07:40:23.325Z","facilityType":"police","facilityLabel":"🚔 派出所","changingTable":false,"wheelchair":false,"needsAddr":false},{"id":679196855,"name":"福德祠","lat":23.2230039,"lng":121.2822399,"address":null,"hasBabyChanging":false,"hasAccessible":false,"source":"OpenStreetMap","updatedAt":"2026-06-12T07:40:23.325Z","facilityType":"temple","facilityLabel":"🛕 廟宇","changingTable":false,"wheelchair":false,"needsAddr":false},{"id":1104651501,"name":"朝寧宮","lat":23.2482584,"lng":121.2979297,"address":null,"hasBabyChanging":false,"hasAccessible":false,"source":"OpenStreetMap","updatedAt":"2026-06-12T07:40:23.325Z","facilityType":"temple","facilityLabel":"🛕 廟宇","changingTable":false,"wheelchair":false,"needsAddr":false},{"id":1111551234,"name":"景點 (道化路)","lat":23.2676308,"lng":121.3044196,"address":"道化路","hasBabyChanging":false,"hasAccessible":false,"source":"OpenStreetMap","updatedAt":"2026-06-12T07:40:23.325Z","facilityType":"attraction","facilityLabel":"🏞️ 景點","changingTable":false,"wheelchair":false,"needsAddr":false},{"id":1458660320,"name":"永豐派出所","lat":23.1529709,"lng":121.2657708,"address":"花蓮縣富里鄉豐南村4鄰永豐93之4號","hasBabyChanging":false,"hasAccessible":false,"source":"OpenStreetMap","updatedAt":"2026-06-12T07:40:23.325Z","facilityType":"police","facilityLabel":"🚔 派出所","changingTable":false,"wheelchair":false,"needsAddr":false}]}