{"city":"花蓮縣","district":"鳳林鎮","category":"toilets","updatedAt":"2026-06-12T07:40:23.325Z","rev":1,"count":69,"items":[{"id":289125269,"name":"南平 6190","lat":23.7824277,"lng":121.4580926,"address":null,"hasBabyChanging":false,"hasAccessible":false,"source":"OpenStreetMap","updatedAt":"2026-06-12T07:40:23.325Z","facilityType":"train","facilityLabel":"🚂 火車站","changingTable":false,"wheelchair":false,"needsAddr":false},{"id":289680442,"name":"萬榮 6170","lat":23.7120001,"lng":121.4188366,"address":null,"hasBabyChanging":false,"hasAccessible":false,"source":"OpenStreetMap","updatedAt":"2026-06-12T07:40:23.325Z","facilityType":"train","facilityLabel":"🚂 火車站","changingTable":false,"wheelchair":false,"needsAddr":false},{"id":884857261,"name":"台灣中油","lat":23.8050737,"lng":121.4507311,"address":null,"hasBabyChanging":false,"hasAccessible":false,"source":"OpenStreetMap","updatedAt":"2026-06-12T07:40:23.325Z","facilityType":"fuel","facilityLabel":"⛽ 加油站","changingTable":false,"wheelchair":false,"needsAddr":false},{"id":2536763679,"name":"南平派出所","lat":23.7830005,"lng":121.4591403,"address":"花蓮縣鳳林鎮自強路372號","hasBabyChanging":false,"hasAccessible":false,"source":"OpenStreetMap","updatedAt":"2026-06-12T07:40:23.325Z","facilityType":"police","facilityLabel":"🚔 派出所","changingTable":false,"wheelchair":false,"needsAddr":false},{"id":2536764465,"name":"山興派出所","lat":23.7263317,"lng":121.4986144,"address":"花蓮縣鳳林鎮山興里山文路7之1號","hasBabyChanging":false,"hasAccessible":false,"source":"OpenStreetMap","updatedAt":"2026-06-12T07:40:23.325Z","facilityType":"police","facilityLabel":"🚔 派出所","changingTable":false,"wheelchair":false,"needsAddr":false},{"id":2536766156,"name":"長橋派出所","lat":23.7114263,"lng":121.4194486,"address":"花蓮縣鳳林鎮長橋里長橋路91號","hasBabyChanging":false,"hasAccessible":false,"source":"OpenStreetMap","updatedAt":"2026-06-12T07:40:23.325Z","facilityType":"police","facilityLabel":"🚔 派出所","changingTable":false,"wheelchair":false,"needsAddr":false},{"id":3206128902,"name":"鳳林分局","lat":23.74233,"lng":121.4508337,"address":"花蓮縣鳳林鎮信義路37號","hasBabyChanging":false,"hasAccessible":false,"source":"OpenStreetMap","updatedAt":"2026-06-12T07:40:23.325Z","facilityType":"police","facilityLabel":"🚔 派出所","changingTable":false,"wheelchair":false,"needsAddr":false},{"id":3727448786,"name":"山興天主堂","lat":23.7265661,"lng":121.4991511,"address":null,"hasBabyChanging":false,"hasAccessible":false,"source":"OpenStreetMap","updatedAt":"2026-06-12T07:40:23.325Z","facilityType":"temple","facilityLabel":"🛕 廟宇","changingTable":false,"wheelchair":false,"needsAddr":false},{"id":3793967454,"name":"大榮國小廁所","lat":23.7543561,"lng":121.4684448,"address":null,"hasBabyChanging":false,"hasAccessible":false,"source":"OpenStreetMap","updatedAt":"2026-06-12T07:40:23.325Z","facilityType":"toilet","facilityLabel":null,"changingTable":false,"wheelchair":false,"needsAddr":false},{"id":3835143757,"name":"移民村警察廳","lat":23.7524224,"lng":121.4676923,"address":"975花蓮縣鳳林鎮復興路71號","hasBabyChanging":false,"hasAccessible":false,"source":"OpenStreetMap","updatedAt":"2026-06-12T07:40:23.325Z","facilityType":"attraction","facilityLabel":"🏞️ 景點","changingTable":false,"wheelchair":false,"needsAddr":false},{"id":3835148764,"name":"廖快菸樓","lat":23.7534215,"lng":121.4682367,"address":"975花蓮縣鳳林鎮復興路81號","hasBabyChanging":false,"hasAccessible":false,"source":"OpenStreetMap","updatedAt":"2026-06-12T07:40:23.325Z","facilityType":"attraction","facilityLabel":"🏞️ 景點","changingTable":false,"wheelchair":false,"needsAddr":false},{"id":3835167857,"name":"校長夢工廠","lat":23.7475884,"lng":121.4502338,"address":"975花蓮縣鳳林鎮民生街16號","hasBabyChanging":false,"hasAccessible":false,"source":"OpenStreetMap","updatedAt":"2026-06-12T07:40:23.325Z","facilityType":"attraction","facilityLabel":"🏞️ 景點","changingTable":false,"wheelchair":false,"needsAddr":false},{"id":3835179857,"name":"鳳凰瀑布風景區","lat":23.7567186,"lng":121.4261261,"address":"花蓮縣鳳林鎮","hasBabyChanging":false,"hasAccessible":false,"source":"OpenStreetMap","updatedAt":"2026-06-12T07:40:23.325Z","facilityType":"attraction","facilityLabel":"🏞️ 景點","changingTable":false,"wheelchair":false,"needsAddr":false},{"id":3837322959,"name":"林田山-上徒步區","lat":23.7185634,"lng":121.4015704,"address":null,"hasBabyChanging":false,"hasAccessible":true,"source":"OpenStreetMap","updatedAt":"2026-06-12T07:40:23.325Z","facilityType":"theme_park","facilityLabel":"🎡 遊樂園","changingTable":false,"wheelchair":true,"needsAddr":false},{"id":3837332893,"name":"林田山-林業展示館","lat":23.7181852,"lng":121.3995749,"address":null,"hasBabyChanging":false,"hasAccessible":true,"source":"OpenStreetMap","updatedAt":"2026-06-12T07:40:23.325Z","facilityType":"theme_park","facilityLabel":"🎡 遊樂園","changingTable":false,"wheelchair":true,"needsAddr":false},{"id":3837362457,"name":"林田山-下徒步區","lat":23.7180329,"lng":121.3992208,"address":null,"hasBabyChanging":false,"hasAccessible":true,"source":"OpenStreetMap","updatedAt":"2026-06-12T07:40:23.325Z","facilityType":"theme_park","facilityLabel":"🎡 遊樂園","changingTable":false,"wheelchair":true,"needsAddr":false},{"id":4102385791,"name":"劉明謙診所","lat":23.7485136,"lng":121.4495319,"address":null,"hasBabyChanging":false,"hasAccessible":false,"source":"OpenStreetMap","updatedAt":"2026-06-12T07:40:23.325Z","facilityType":"clinic","facilityLabel":"🩺 診所","changingTable":false,"wheelchair":false,"needsAddr":false},{"id":4142274520,"name":"大道山廟","lat":23.7591193,"lng":121.4630997,"address":null,"hasBabyChanging":false,"hasAccessible":false,"source":"OpenStreetMap","updatedAt":"2026-06-12T07:40:23.325Z","facilityType":"temple","facilityLabel":"🛕 廟宇","changingTable":false,"wheelchair":false,"needsAddr":false},{"id":4142312339,"name":"樹林尾伯公廟","lat":23.7713705,"lng":121.4612285,"address":null,"hasBabyChanging":false,"hasAccessible":false,"source":"OpenStreetMap","updatedAt":"2026-06-12T07:40:23.325Z","facilityType":"temple","facilityLabel":"🛕 廟宇","changingTable":false,"wheelchair":false,"needsAddr":false},{"id":4142312342,"name":"土地公廟","lat":23.7680661,"lng":121.4741978,"address":null,"hasBabyChanging":false,"hasAccessible":false,"source":"OpenStreetMap","updatedAt":"2026-06-12T07:40:23.325Z","facilityType":"temple","facilityLabel":"🛕 廟宇","changingTable":false,"wheelchair":false,"needsAddr":false},{"id":4202409413,"name":"鳳林壽天宮","lat":23.7452881,"lng":121.4470183,"address":"975花蓮縣鳳林鎮中美路41號","hasBabyChanging":false,"hasAccessible":false,"source":"OpenStreetMap","updatedAt":"2026-06-12T07:40:23.325Z","facilityType":"temple","facilityLabel":"🛕 廟宇","changingTable":false,"wheelchair":false,"needsAddr":false},{"id":4202409422,"name":"慈雲禪寺","lat":23.7461886,"lng":121.4493274,"address":"花蓮縣鳳林鎮光復路67號","hasBabyChanging":false,"hasAccessible":false,"source":"OpenStreetMap","updatedAt":"2026-06-12T07:40:23.325Z","facilityType":"temple","facilityLabel":"🛕 廟宇","changingTable":false,"wheelchair":false,"needsAddr":false},{"id":4202409431,"name":"花蓮勝安宮鳳林分堂管理委員會","lat":23.7442517,"lng":121.451136,"address":"花蓮縣鳳林鎮光華路107號","hasBabyChanging":false,"hasAccessible":false,"source":"OpenStreetMap","updatedAt":"2026-06-12T07:40:23.325Z","facilityType":"temple","facilityLabel":"🛕 廟宇","changingTable":false,"wheelchair":false,"needsAddr":false},{"id":4202409432,"name":"鳳林鎮公所","lat":23.7442369,"lng":121.4516039,"address":"花蓮縣鳳林鎮光華路124號","hasBabyChanging":false,"hasAccessible":false,"source":"OpenStreetMap","updatedAt":"2026-06-12T07:40:23.325Z","facilityType":"government","facilityLabel":"🏛 公務機關","changingTable":false,"wheelchair":false,"needsAddr":false},{"id":4202409433,"name":"台灣電力股份有限公司","lat":23.745639,"lng":121.4517534,"address":"花蓮縣鳳林鎮光華路126號","hasBabyChanging":false,"hasAccessible":false,"source":"OpenStreetMap","updatedAt":"2026-06-12T07:40:23.325Z","facilityType":"government","facilityLabel":"🏛 公務機關","changingTable":false,"wheelchair":false,"needsAddr":false},{"id":4202409440,"name":"鳳林榮民醫院社區門診部","lat":23.746092,"lng":121.4479932,"address":"花蓮縣鳳林鎮中山路27號","hasBabyChanging":false,"hasAccessible":false,"source":"OpenStreetMap","updatedAt":"2026-06-12T07:40:23.325Z","facilityType":"clinic","facilityLabel":"🩺 診所","changingTable":false,"wheelchair":false,"needsAddr":false},{"id":4447087998,"name":"林榮新光 6200","lat":23.8025895,"lng":121.4620218,"address":"975花蓮縣鳳林鎮林榮里55號","hasBabyChanging":false,"hasAccessible":false,"source":"OpenStreetMap","updatedAt":"2026-06-12T07:40:23.325Z","facilityType":"train","facilityLabel":"🚂 火車站","changingTable":false,"wheelchair":false,"needsAddr":false},{"id":4631200715,"name":"水車路土地公廟","lat":23.7945299,"lng":121.4598007,"address":"鳳林","hasBabyChanging":false,"hasAccessible":false,"source":"OpenStreetMap","updatedAt":"2026-06-12T07:40:23.325Z","facilityType":"temple","facilityLabel":"🛕 廟宇","changingTable":false,"wheelchair":false,"needsAddr":false},{"id":4693550509,"name":"茄苳神木","lat":23.7701493,"lng":121.4528805,"address":null,"hasBabyChanging":false,"hasAccessible":false,"source":"OpenStreetMap","updatedAt":"2026-06-12T07:40:23.325Z","facilityType":"attraction","facilityLabel":"🏞️ 景點","changingTable":false,"wheelchair":false,"needsAddr":false},{"id":4693550510,"name":"福德正神","lat":23.7701401,"lng":121.4528917,"address":null,"hasBabyChanging":false,"hasAccessible":false,"source":"OpenStreetMap","updatedAt":"2026-06-12T07:40:23.325Z","facilityType":"temple","facilityLabel":"🛕 廟宇","changingTable":false,"wheelchair":false,"needsAddr":false},{"id":5014093061,"name":"鳳林 6180","lat":23.746295,"lng":121.4467128,"address":"花蓮縣鳳林鎮中山路43號","hasBabyChanging":false,"hasAccessible":true,"source":"OpenStreetMap","updatedAt":"2026-06-12T07:40:23.325Z","facilityType":"train","facilityLabel":"🚂 火車站","changingTable":false,"wheelchair":true,"needsAddr":false},{"id":5268138244,"name":"台灣中油","lat":23.7668255,"lng":121.4561699,"address":null,"hasBabyChanging":false,"hasAccessible":false,"source":"OpenStreetMap","updatedAt":"2026-06-12T07:40:23.325Z","facilityType":"fuel","facilityLabel":"⛽ 加油站","changingTable":false,"wheelchair":false,"needsAddr":false},{"id":5268143206,"name":"台灣中油","lat":23.755079,"lng":121.4522628,"address":null,"hasBabyChanging":false,"hasAccessible":false,"source":"OpenStreetMap","updatedAt":"2026-06-12T07:40:23.325Z","facilityType":"fuel","facilityLabel":"⛽ 加油站","changingTable":false,"wheelchair":false,"openingHours":"Mo-Su 06:00-22:00","needsAddr":false},{"id":5268144098,"name":"公共廁所","lat":23.7459695,"lng":121.4467517,"address":null,"hasBabyChanging":false,"hasAccessible":true,"source":"OpenStreetMap","updatedAt":"2026-06-12T07:40:23.325Z","facilityType":"toilet","facilityLabel":null,"changingTable":false,"wheelchair":true,"needsAddr":true},{"id":5268145572,"name":"公務機關","lat":23.7447878,"lng":121.4517725,"address":null,"hasBabyChanging":false,"hasAccessible":false,"source":"OpenStreetMap","updatedAt":"2026-06-12T07:40:23.325Z","facilityType":"government","facilityLabel":"🏛 公務機關","changingTable":false,"wheelchair":false,"needsAddr":true},{"id":5268147338,"name":"廟宇","lat":23.7440525,"lng":121.4533469,"address":null,"hasBabyChanging":false,"hasAccessible":false,"source":"OpenStreetMap","updatedAt":"2026-06-12T07:40:23.325Z","facilityType":"temple","facilityLabel":"🛕 廟宇","changingTable":false,"wheelchair":false,"needsAddr":true},{"id":5951164070,"name":"廟宇","lat":23.743989,"lng":121.4626324,"address":null,"hasBabyChanging":false,"hasAccessible":false,"source":"OpenStreetMap","updatedAt":"2026-06-12T07:40:23.325Z","facilityType":"temple","facilityLabel":"🛕 廟宇","changingTable":false,"wheelchair":false,"needsAddr":true},{"id":6802128433,"name":"台塑石油 富南站","lat":23.7292597,"lng":121.4404893,"address":null,"hasBabyChanging":false,"hasAccessible":false,"source":"OpenStreetMap","updatedAt":"2026-06-12T07:40:23.325Z","facilityType":"fuel","facilityLabel":"⛽ 加油站","changingTable":false,"wheelchair":false,"needsAddr":false},{"id":6802168624,"name":"五聖宮","lat":23.7524445,"lng":121.4518967,"address":null,"hasBabyChanging":false,"hasAccessible":false,"source":"OpenStreetMap","updatedAt":"2026-06-12T07:40:23.325Z","facilityType":"temple","facilityLabel":"🛕 廟宇","changingTable":false,"wheelchair":false,"needsAddr":false},{"id":6894254394,"name":"台灣基督長老教會鳳林教會","lat":23.7470458,"lng":121.4479525,"address":null,"hasBabyChanging":false,"hasAccessible":false,"source":"OpenStreetMap","updatedAt":"2026-06-12T07:40:23.325Z","facilityType":"temple","facilityLabel":"🛕 廟宇","changingTable":false,"wheelchair":false,"needsAddr":false},{"id":10653459505,"name":"公共廁所","lat":23.7269492,"lng":121.4969266,"address":null,"hasBabyChanging":false,"hasAccessible":false,"source":"OpenStreetMap","updatedAt":"2026-06-12T07:40:23.325Z","facilityType":"toilet","facilityLabel":null,"changingTable":false,"wheelchair":false,"needsAddr":true},{"id":11254410302,"name":"公共廁所","lat":23.7954425,"lng":121.4761488,"address":null,"hasBabyChanging":false,"hasAccessible":false,"source":"OpenStreetMap","updatedAt":"2026-06-12T07:40:23.325Z","facilityType":"toilet","facilityLabel":null,"changingTable":false,"wheelchair":false,"needsAddr":true},{"id":11254623454,"name":"兆豐故事館","lat":23.801352,"lng":121.4645675,"address":null,"hasBabyChanging":false,"hasAccessible":false,"source":"OpenStreetMap","updatedAt":"2026-06-12T07:40:23.325Z","facilityType":"museum","facilityLabel":"🖼️ 博物館","changingTable":false,"wheelchair":false,"needsAddr":false},{"id":11255431941,"name":"公共廁所","lat":23.7975917,"lng":121.4687236,"address":null,"hasBabyChanging":false,"hasAccessible":false,"source":"OpenStreetMap","updatedAt":"2026-06-12T07:40:23.325Z","facilityType":"toilet","facilityLabel":null,"changingTable":false,"wheelchair":false,"needsAddr":true},{"id":11939864864,"name":"公共廁所","lat":23.7475054,"lng":121.4519451,"address":null,"hasBabyChanging":false,"hasAccessible":false,"source":"OpenStreetMap","updatedAt":"2026-06-12T07:40:23.325Z","facilityType":"toilet","facilityLabel":null,"changingTable":false,"wheelchair":false,"needsAddr":true},{"id":12518241159,"name":"公共廁所","lat":23.8062529,"lng":121.4491974,"address":null,"hasBabyChanging":false,"hasAccessible":false,"source":"OpenStreetMap","updatedAt":"2026-06-12T07:40:23.325Z","facilityType":"toilet","facilityLabel":null,"changingTable":false,"wheelchair":false,"needsAddr":true},{"id":12518461609,"name":"林田圳虹吸式圳道","lat":23.7631135,"lng":121.4665335,"address":null,"hasBabyChanging":false,"hasAccessible":false,"source":"OpenStreetMap","updatedAt":"2026-06-12T07:40:23.325Z","facilityType":"attraction","facilityLabel":"🏞️ 景點","changingTable":false,"wheelchair":false,"openingHours":"24/7","needsAddr":false},{"id":12518470695,"name":"平林圳過水橋","lat":23.7930293,"lng":121.449472,"address":null,"hasBabyChanging":false,"hasAccessible":false,"source":"OpenStreetMap","updatedAt":"2026-06-12T07:40:23.325Z","facilityType":"attraction","facilityLabel":"🏞️ 景點","changingTable":false,"wheelchair":false,"openingHours":"24/7","needsAddr":false},{"id":387684974,"name":"林榮社區活動中心","lat":23.8026238,"lng":121.4520306,"address":"花蓮縣鳳林鎮永康路54號","hasBabyChanging":false,"hasAccessible":false,"source":"OpenStreetMap","updatedAt":"2026-06-12T07:40:23.325Z","facilityType":"community","facilityLabel":"🏘️ 活動中心","changingTable":false,"wheelchair":false,"needsAddr":false},{"id":387684977,"name":"碧雲寺","lat":23.8033055,"lng":121.4520558,"address":null,"hasBabyChanging":false,"hasAccessible":false,"source":"OpenStreetMap","updatedAt":"2026-06-12T07:40:23.325Z","facilityType":"temple","facilityLabel":"🛕 廟宇","changingTable":false,"wheelchair":false,"needsAddr":false},{"id":420276505,"name":"義民亭","lat":23.7116995,"lng":121.4196431,"address":null,"hasBabyChanging":false,"hasAccessible":false,"source":"OpenStreetMap","updatedAt":"2026-06-12T07:40:23.325Z","facilityType":"temple","facilityLabel":"🛕 廟宇","changingTable":false,"wheelchair":false,"needsAddr":false},{"id":420278550,"name":"馬瑞診所","lat":23.7120328,"lng":121.4203833,"address":null,"hasBabyChanging":false,"hasAccessible":false,"source":"OpenStreetMap","updatedAt":"2026-06-12T07:40:23.325Z","facilityType":"clinic","facilityLabel":"🩺 診所","changingTable":false,"wheelchair":false,"needsAddr":false},{"id":420332037,"name":"鳳林衛生所","lat":23.7448736,"lng":121.4511502,"address":"花蓮縣鳳林鎮光華路95號","hasBabyChanging":false,"hasAccessible":false,"source":"OpenStreetMap","updatedAt":"2026-06-12T07:40:23.325Z","facilityType":"clinic","facilityLabel":"🩺 診所","changingTable":false,"wheelchair":false,"needsAddr":false},{"id":709686177,"name":"北林村社區活動中心","lat":23.7672462,"lng":121.4709659,"address":null,"hasBabyChanging":false,"hasAccessible":false,"source":"OpenStreetMap","updatedAt":"2026-06-12T07:40:23.325Z","facilityType":"community","facilityLabel":"🏘️ 活動中心","changingTable":false,"wheelchair":false,"needsAddr":false},{"id":736385635,"name":"鳳林客家文物館","lat":23.7475644,"lng":121.451566,"address":"975花蓮縣鳳林鎮中華路164號","hasBabyChanging":false,"hasAccessible":true,"source":"OpenStreetMap","updatedAt":"2026-06-12T07:40:23.325Z","facilityType":"museum","facilityLabel":"🖼️ 博物館","changingTable":false,"wheelchair":true,"needsAddr":false},{"id":750977326,"name":"中山堂","lat":23.7167064,"lng":121.3980628,"address":"花蓮縣鳳林鎮林安路22號","hasBabyChanging":false,"hasAccessible":false,"source":"OpenStreetMap","updatedAt":"2026-06-12T07:40:23.325Z","facilityType":"attraction","facilityLabel":"🏞️ 景點","changingTable":false,"wheelchair":false,"needsAddr":false},{"id":771190246,"name":"林田山林業文化園區","lat":23.7173015,"lng":121.3992904,"address":"花蓮縣鳳林鎮鳳林鎮森榮里林森路99巷99號","hasBabyChanging":false,"hasAccessible":false,"source":"OpenStreetMap","updatedAt":"2026-06-12T07:40:23.325Z","facilityType":"park","facilityLabel":"🌳 公園","changingTable":false,"wheelchair":false,"needsAddr":false},{"id":771190256,"name":"公共廁所","lat":23.7165206,"lng":121.3979572,"address":null,"hasBabyChanging":false,"hasAccessible":false,"source":"OpenStreetMap","updatedAt":"2026-06-12T07:40:23.325Z","facilityType":"toilet","facilityLabel":null,"changingTable":false,"wheelchair":false,"needsAddr":true},{"id":771192966,"name":"森榮聖保祿天主堂","lat":23.7163406,"lng":121.3990175,"address":null,"hasBabyChanging":false,"hasAccessible":false,"source":"OpenStreetMap","updatedAt":"2026-06-12T07:40:23.325Z","facilityType":"temple","facilityLabel":"🛕 廟宇","changingTable":false,"wheelchair":false,"needsAddr":false},{"id":771192972,"name":"花蓮分署萬榮工作站","lat":23.7175915,"lng":121.3975525,"address":"花蓮縣鳳林鎮林森路99號","hasBabyChanging":false,"hasAccessible":false,"source":"OpenStreetMap","updatedAt":"2026-06-12T07:40:23.325Z","facilityType":"government","facilityLabel":"🏛 公務機關","changingTable":false,"wheelchair":false,"needsAddr":false},{"id":780136286,"name":"鳳林夜市","lat":23.7458433,"lng":121.4505886,"address":"中華路","hasBabyChanging":false,"hasAccessible":false,"source":"OpenStreetMap","updatedAt":"2026-06-12T07:40:23.325Z","facilityType":"nightmarket","facilityLabel":"🍢 夜市","changingTable":false,"wheelchair":false,"needsAddr":false},{"id":791662463,"name":"鳳禮里土地公廟","lat":23.7494864,"lng":121.4494298,"address":null,"hasBabyChanging":false,"hasAccessible":false,"source":"OpenStreetMap","updatedAt":"2026-06-12T07:40:23.325Z","facilityType":"temple","facilityLabel":"🛕 廟宇","changingTable":false,"wheelchair":false,"needsAddr":false},{"id":814930249,"name":"廁所","lat":23.7709773,"lng":121.4687106,"address":null,"hasBabyChanging":false,"hasAccessible":false,"source":"OpenStreetMap","updatedAt":"2026-06-12T07:40:23.325Z","facilityType":"toilet","facilityLabel":null,"changingTable":false,"wheelchair":false,"needsAddr":false},{"id":814980373,"name":"廁所","lat":23.8008174,"lng":121.4530041,"address":null,"hasBabyChanging":false,"hasAccessible":true,"source":"OpenStreetMap","updatedAt":"2026-06-12T07:40:23.325Z","facilityType":"toilet","facilityLabel":null,"changingTable":false,"wheelchair":true,"needsAddr":false},{"id":814980383,"name":"一樓圖書館","lat":23.8013789,"lng":121.452658,"address":null,"hasBabyChanging":false,"hasAccessible":false,"source":"OpenStreetMap","updatedAt":"2026-06-12T07:40:23.325Z","facilityType":"library","facilityLabel":"📚 圖書館","changingTable":false,"wheelchair":false,"needsAddr":false},{"id":972046929,"name":"花蓮縣鳳林鎮大榮一村社區活動中心","lat":23.7454345,"lng":121.4573797,"address":"花蓮縣鳳林鎮大榮二路44號","hasBabyChanging":false,"hasAccessible":false,"source":"OpenStreetMap","updatedAt":"2026-06-12T07:40:23.325Z","facilityType":"community","facilityLabel":"🏘️ 活動中心","changingTable":false,"wheelchair":false,"needsAddr":false},{"id":1214844717,"name":"新光動物園","lat":23.7984195,"lng":121.4685927,"address":null,"hasBabyChanging":false,"hasAccessible":false,"source":"OpenStreetMap","updatedAt":"2026-06-12T07:40:23.325Z","facilityType":"zoo","facilityLabel":"🦁 動物園","changingTable":false,"wheelchair":false,"needsAddr":false},{"id":1352927465,"name":"牛根草社區發展促進會","lat":23.7838142,"lng":121.4560972,"address":"花蓮縣鳳林鎮南平里八德路56號","hasBabyChanging":false,"hasAccessible":false,"source":"OpenStreetMap","updatedAt":"2026-06-12T07:40:23.325Z","facilityType":"community","facilityLabel":"🏘️ 活動中心","changingTable":false,"wheelchair":false,"openingHours":"Mo-Fr 08:00-16:00","needsAddr":false},{"id":13294585,"name":"榮民總醫院鳳林分院","lat":23.7263614,"lng":121.4401316,"address":null,"hasBabyChanging":false,"hasAccessible":false,"source":"OpenStreetMap","updatedAt":"2026-06-12T07:40:23.325Z","facilityType":"hospital","facilityLabel":"🏥 醫院","changingTable":false,"wheelchair":false,"needsAddr":false}]}