{"city":"台南市","district":"後壁區","category":"family","updatedAt":"2026-06-11T02:40:46.199Z","rev":14,"count":11,"items":[{"id":193288633,"name":"天鵝湖公園","lat":23.33076835,"lng":120.32011035,"address":null,"hasBabyChanging":false,"hasAccessible":false,"source":"OpenStreetMap","updatedAt":"2026-06-11T02:40:46.199Z","facilityType":"park","facilityLabel":"🌳 大型公園","phone":null,"website":null,"wheelchair":false,"paid":null,"needsAddr":true},{"id":197484619,"name":"烏樹林文化園區","lat":23.3302005,"lng":120.37328445,"address":null,"hasBabyChanging":false,"hasAccessible":false,"source":"OpenStreetMap","updatedAt":"2026-06-11T02:40:46.199Z","facilityType":"theme_park","facilityLabel":"🎡 遊樂園","phone":null,"website":null,"wheelchair":false,"paid":null,"needsAddr":true},{"id":496183570,"name":"鐵道館","lat":23.32888425,"lng":120.37280295,"address":null,"hasBabyChanging":false,"hasAccessible":false,"source":"OpenStreetMap","updatedAt":"2026-06-11T02:40:46.199Z","facilityType":"railway","facilityLabel":"🚂 鐵道交通","phone":null,"website":null,"wheelchair":false,"paid":null,"needsAddr":true},{"id":532934191,"name":"蘭花公園","lat":23.33945005,"lng":120.37581855,"address":null,"hasBabyChanging":false,"hasAccessible":false,"source":"OpenStreetMap","updatedAt":"2026-06-11T02:40:46.199Z","facilityType":"park","facilityLabel":"🌳 大型公園","phone":null,"website":null,"wheelchair":false,"paid":null,"needsAddr":true},{"id":538941552,"name":"台糖鐵道自行車道","lat":23.36812985,"lng":120.37703644999999,"address":null,"hasBabyChanging":false,"hasAccessible":false,"source":"OpenStreetMap","updatedAt":"2026-06-11T02:40:46.199Z","facilityType":"railway","facilityLabel":"🚂 鐵道交通","phone":null,"website":null,"wheelchair":false,"paid":null,"needsAddr":true},{"id":538941556,"name":"台糖鐵道自行車道","lat":23.37776355,"lng":120.38555535,"address":null,"hasBabyChanging":false,"hasAccessible":false,"source":"OpenStreetMap","updatedAt":"2026-06-11T02:40:46.199Z","facilityType":"railway","facilityLabel":"🚂 鐵道交通","phone":null,"website":null,"wheelchair":false,"paid":null,"needsAddr":true},{"id":538941566,"name":"台糖鐵道自行車道","lat":23.379912349999998,"lng":120.39578925,"address":null,"hasBabyChanging":false,"hasAccessible":false,"source":"OpenStreetMap","updatedAt":"2026-06-11T02:40:46.199Z","facilityType":"railway","facilityLabel":"🚂 鐵道交通","phone":null,"website":null,"wheelchair":false,"paid":null,"needsAddr":true},{"id":555867917,"name":"黑糖間","lat":23.38277145,"lng":120.33716820000001,"address":null,"hasBabyChanging":false,"hasAccessible":false,"source":"OpenStreetMap","updatedAt":"2026-06-11T02:40:46.199Z","facilityType":"park","facilityLabel":"🌳 小型公園","phone":null,"website":null,"wheelchair":false,"paid":null,"needsAddr":true},{"id":555914237,"name":"梁家古厝","lat":23.38080865,"lng":120.3363889,"address":null,"hasBabyChanging":false,"hasAccessible":false,"source":"OpenStreetMap","updatedAt":"2026-06-11T02:40:46.199Z","facilityType":"park","facilityLabel":"🌳 小型公園","phone":null,"website":null,"wheelchair":false,"paid":null,"needsAddr":true},{"id":641410532,"name":"幸福花園","lat":23.38265985,"lng":120.33512135000001,"address":null,"hasBabyChanging":false,"hasAccessible":false,"source":"OpenStreetMap","updatedAt":"2026-06-11T02:40:46.199Z","facilityType":"park","facilityLabel":"🌳 小型公園","phone":null,"website":null,"wheelchair":false,"paid":null,"needsAddr":true},{"id":1453399951,"name":"台糖鐵道自行車道","lat":23.376721500000002,"lng":120.3806399,"address":null,"hasBabyChanging":false,"hasAccessible":false,"source":"OpenStreetMap","updatedAt":"2026-06-11T02:40:46.199Z","facilityType":"railway","facilityLabel":"🚂 鐵道交通","phone":null,"website":null,"wheelchair":false,"paid":null,"needsAddr":true}]}