{"city":"台中市","district":"大里區","category":"medical","updatedAt":"2026-06-10T15:41:05.166Z","rev":1,"count":88,"items":[{"id":3614442583,"name":"健華藥局","lat":24.0870546,"lng":120.7072531,"address":"412台中市大里區塗城路455號","hasBabyChanging":false,"hasAccessible":false,"source":"OpenStreetMap","updatedAt":"2026-06-10T15:41:05.166Z","facilityType":"pharmacy","facilityLabel":"💊 藥局","phone":"+886 4 2492 6988","website":null,"wheelchair":false,"needsAddr":false},{"id":3617859827,"name":"康是美","lat":24.0874802,"lng":120.702461,"address":"412台中市大里區成功路171號","hasBabyChanging":false,"hasAccessible":false,"source":"OpenStreetMap","updatedAt":"2026-06-10T15:41:05.166Z","facilityType":"pharmacy","facilityLabel":"💊 藥妝","phone":"+886 4 3700 7675","website":"https://www.cosmed.com.tw/","wheelchair":false,"needsAddr":false},{"id":3617868996,"name":"屈臣氏","lat":24.0964087,"lng":120.699025,"address":"412台中市大里區仁化路563號1-3F樓","hasBabyChanging":false,"hasAccessible":false,"source":"OpenStreetMap","updatedAt":"2026-06-10T15:41:05.166Z","facilityType":"pharmacy","facilityLabel":"💊 藥妝","phone":"+886 4 2491 3090","website":null,"wheelchair":false,"needsAddr":false},{"id":3617873047,"name":"屈臣氏","lat":24.0908555,"lng":120.703412,"address":"412台中市大里區塗城路536號","hasBabyChanging":false,"hasAccessible":false,"source":"OpenStreetMap","updatedAt":"2026-06-10T15:41:05.166Z","facilityType":"pharmacy","facilityLabel":"💊 藥妝","phone":"+886 4 2495 1061","website":null,"wheelchair":false,"needsAddr":false},{"id":3621306601,"name":"楊文澤小兒科診所","lat":24.0912035,"lng":120.6952122,"address":"412台中市大里區塗城路864號","hasBabyChanging":false,"hasAccessible":false,"source":"OpenStreetMap","updatedAt":"2026-06-10T15:41:05.166Z","facilityType":"clinic","facilityLabel":"👶 小兒科","phone":"+886 4 2493 0319","website":null,"wheelchair":false,"needsAddr":false},{"id":3621348119,"name":"調侒民俗理療養生館","lat":24.0908851,"lng":120.6935118,"address":"412台中市大里區塗城路954號","hasBabyChanging":false,"hasAccessible":false,"source":"OpenStreetMap","updatedAt":"2026-06-10T15:41:05.166Z","facilityType":"clinic","facilityLabel":"🩺 診所","phone":"+886 978 377 595","website":null,"wheelchair":false,"needsAddr":false},{"id":3621535800,"name":"丁丁藥局","lat":24.1123751,"lng":120.678797,"address":"41266臺中市大里區國光路二段551-1號","hasBabyChanging":false,"hasAccessible":false,"source":"OpenStreetMap","updatedAt":"2026-06-10T15:41:05.166Z","facilityType":"pharmacy","facilityLabel":"💊 藥局","phone":"+886-4 2406 9711","website":"https://www.norbelbaby.com.tw/","wheelchair":false,"needsAddr":false},{"id":3622916362,"name":"林生药局","lat":24.0906034,"lng":120.6932561,"address":"412台中市大里區塗城路1059號","hasBabyChanging":false,"hasAccessible":false,"source":"OpenStreetMap","updatedAt":"2026-06-10T15:41:05.166Z","facilityType":"pharmacy","facilityLabel":"💊 藥局","phone":"+886 4 2495 3052","website":"http://ezlife.tw/ezhealth/ezhealth.php?r=hospitalList/admin&hospital_id=28510&lastsearch=1","wheelchair":false,"needsAddr":false},{"id":3622964484,"name":"世宏中醫診所","lat":24.1088709,"lng":120.6766233,"address":"412台中市大里區永隆路268號","hasBabyChanging":false,"hasAccessible":false,"source":"OpenStreetMap","updatedAt":"2026-06-10T15:41:05.166Z","facilityType":"clinic","facilityLabel":"🩺 診所","phone":"+886 4 2406 2733","website":null,"wheelchair":false,"needsAddr":false},{"id":3622967744,"name":"新欣牙醫診所","lat":24.0908852,"lng":120.6961583,"address":"412台中市大里區塗城路822號","hasBabyChanging":false,"hasAccessible":false,"source":"OpenStreetMap","updatedAt":"2026-06-10T15:41:05.166Z","facilityType":"dentist","facilityLabel":"🦷 牙醫","phone":"+886 4 2493 9922","website":"http://drwells-hsin-hsin.blogspot.tw/p/blog-page.html","wheelchair":false,"needsAddr":false},{"id":3624777282,"name":"愛普生動物醫院","lat":24.085751,"lng":120.7083954,"address":"412台中市大里區美群路46號","hasBabyChanging":false,"hasAccessible":false,"source":"OpenStreetMap","updatedAt":"2026-06-10T15:41:05.166Z","facilityType":"vet","facilityLabel":"🐾 動物醫院","phone":"+886 4 2495 0118","website":null,"wheelchair":false,"needsAddr":false},{"id":3627180402,"name":"樺生藥局","lat":24.099308,"lng":120.6770265,"address":"412台中市大里區新興路55號","hasBabyChanging":false,"hasAccessible":false,"source":"OpenStreetMap","updatedAt":"2026-06-10T15:41:05.166Z","facilityType":"pharmacy","facilityLabel":"💊 藥局","phone":null,"website":null,"wheelchair":false,"needsAddr":false},{"id":3627186486,"name":"永欣藥局新興店","lat":24.0987574,"lng":120.6772401,"address":"412台中市大里區新興路24號","hasBabyChanging":false,"hasAccessible":false,"source":"OpenStreetMap","updatedAt":"2026-06-10T15:41:05.166Z","facilityType":"pharmacy","facilityLabel":"💊 藥局","phone":"+886 4 2407 7085","website":null,"wheelchair":false,"needsAddr":false},{"id":3627200515,"name":"誠安牙醫診所","lat":24.0887595,"lng":120.7008816,"address":"412台中市大里區塗城路687號","hasBabyChanging":false,"hasAccessible":false,"source":"OpenStreetMap","updatedAt":"2026-06-10T15:41:05.166Z","facilityType":"dentist","facilityLabel":"🦷 牙醫","phone":"+886 4 2492 4006","website":null,"wheelchair":false,"needsAddr":false},{"id":3627234178,"name":"陳建利診所","lat":24.0880608,"lng":120.7026363,"address":"412台中市大里區成功路385號二樓","hasBabyChanging":false,"hasAccessible":false,"source":"OpenStreetMap","updatedAt":"2026-06-10T15:41:05.166Z","facilityType":"clinic","facilityLabel":"🩺 診所","phone":"+886 4 2493 5145","website":null,"wheelchair":false,"needsAddr":false},{"id":3627577891,"name":"光明眼科","lat":24.0887803,"lng":120.7013926,"address":"412台中市大里區塗城路532號","hasBabyChanging":false,"hasAccessible":true,"source":"OpenStreetMap","updatedAt":"2026-06-10T15:41:05.166Z","facilityType":"clinic","facilityLabel":"🩺 診所","phone":"+886 4 2496 6336","website":"https://www.nhi.gov.tw/Query/Query3_Detail.aspx?HospID=3536202895","wheelchair":true,"needsAddr":false},{"id":3628096912,"name":"建姿醫療用品","lat":24.1094561,"lng":120.6808521,"address":"412台中市大里區東榮路481號","hasBabyChanging":false,"hasAccessible":false,"source":"OpenStreetMap","updatedAt":"2026-06-10T15:41:05.166Z","facilityType":"pharmacy","facilityLabel":"💊 藥局","phone":"+886 4 2481 8668","website":null,"wheelchair":false,"needsAddr":false},{"id":3628098470,"name":"全家药局","lat":24.0829426,"lng":120.6973285,"address":"412台中市大里區中興路一段109-6號","hasBabyChanging":false,"hasAccessible":false,"source":"OpenStreetMap","updatedAt":"2026-06-10T15:41:05.166Z","facilityType":"pharmacy","facilityLabel":"💊 藥局","phone":"+886 4 2492 9976","website":null,"wheelchair":false,"needsAddr":false},{"id":3628170889,"name":"綠洲藥局","lat":24.088185,"lng":120.7038209,"address":"412台中市大里區塗城路603號","hasBabyChanging":false,"hasAccessible":false,"source":"OpenStreetMap","updatedAt":"2026-06-10T15:41:05.166Z","facilityType":"pharmacy","facilityLabel":"💊 藥局","phone":"+886 4 2493 2626","website":null,"wheelchair":false,"needsAddr":false},{"id":3864344081,"name":"Animal Hospital","lat":24.1128087,"lng":120.6788002,"address":"臺中市大里區國光路二段555號","hasBabyChanging":false,"hasAccessible":false,"source":"OpenStreetMap","updatedAt":"2026-06-10T15:41:05.166Z","facilityType":"vet","facilityLabel":"🐾 動物醫院","phone":"+886 4 2406 0719","website":null,"wheelchair":false,"needsAddr":false},{"id":3864453057,"name":"牙醫診所","lat":24.1139097,"lng":120.6812995,"address":null,"hasBabyChanging":false,"hasAccessible":false,"source":"OpenStreetMap","updatedAt":"2026-06-10T15:41:05.166Z","facilityType":"dentist","facilityLabel":"🦷 牙醫","phone":"+886424812888","website":null,"wheelchair":false,"needsAddr":true},{"id":3891682149,"name":"東榮牙醫診所","lat":24.1092341,"lng":120.6764816,"address":null,"hasBabyChanging":false,"hasAccessible":false,"source":"OpenStreetMap","updatedAt":"2026-06-10T15:41:05.166Z","facilityType":"dentist","facilityLabel":"🦷 牙醫","phone":null,"website":null,"wheelchair":false,"needsAddr":true},{"id":3993331341,"name":"牙醫診所","lat":24.1079165,"lng":120.6840631,"address":null,"hasBabyChanging":false,"hasAccessible":false,"source":"OpenStreetMap","updatedAt":"2026-06-10T15:41:05.166Z","facilityType":"dentist","facilityLabel":"🦷 牙醫","phone":null,"website":null,"wheelchair":false,"needsAddr":true},{"id":4242336457,"name":"藥","lat":24.0884082,"lng":120.7028739,"address":null,"hasBabyChanging":false,"hasAccessible":false,"source":"OpenStreetMap","updatedAt":"2026-06-10T15:41:05.166Z","facilityType":"pharmacy","facilityLabel":"💊 藥局","phone":null,"website":null,"wheelchair":false,"needsAddr":true},{"id":4242336462,"name":"祐德牙醫診所","lat":24.0886727,"lng":120.7029323,"address":null,"hasBabyChanging":false,"hasAccessible":false,"source":"OpenStreetMap","updatedAt":"2026-06-10T15:41:05.166Z","facilityType":"dentist","facilityLabel":"🦷 牙醫","phone":null,"website":null,"wheelchair":false,"needsAddr":true},{"id":4242336467,"name":"啟益堂蔘藥行","lat":24.0886412,"lng":120.7029263,"address":null,"hasBabyChanging":false,"hasAccessible":false,"source":"OpenStreetMap","updatedAt":"2026-06-10T15:41:05.166Z","facilityType":"pharmacy","facilityLabel":"💊 藥局","phone":null,"website":null,"wheelchair":false,"needsAddr":true},{"id":4242336468,"name":"三德健保藥局","lat":24.0890818,"lng":120.70287,"address":null,"hasBabyChanging":false,"hasAccessible":false,"source":"OpenStreetMap","updatedAt":"2026-06-10T15:41:05.166Z","facilityType":"pharmacy","facilityLabel":"💊 藥局","phone":null,"website":null,"wheelchair":false,"needsAddr":true},{"id":4242635448,"name":"向陽皮膚診所","lat":24.0914033,"lng":120.6915337,"address":null,"hasBabyChanging":false,"hasAccessible":false,"source":"OpenStreetMap","updatedAt":"2026-06-10T15:41:05.166Z","facilityType":"clinic","facilityLabel":"🩺 診所","phone":null,"website":null,"wheelchair":false,"needsAddr":true},{"id":4242635449,"name":"加州牙醫診所","lat":24.0913825,"lng":120.6915766,"address":null,"hasBabyChanging":false,"hasAccessible":false,"source":"OpenStreetMap","updatedAt":"2026-06-10T15:41:05.166Z","facilityType":"dentist","facilityLabel":"🦷 牙醫","phone":null,"website":null,"wheelchair":false,"needsAddr":true},{"id":4242635450,"name":"祥安婦產科","lat":24.0913384,"lng":120.6916088,"address":null,"hasBabyChanging":false,"hasAccessible":false,"source":"OpenStreetMap","updatedAt":"2026-06-10T15:41:05.166Z","facilityType":"clinic","facilityLabel":"🩺 診所","phone":null,"website":null,"wheelchair":false,"needsAddr":true},{"id":4242635452,"name":"鼎好牙醫診所","lat":24.0910911,"lng":120.6919226,"address":null,"hasBabyChanging":false,"hasAccessible":false,"source":"OpenStreetMap","updatedAt":"2026-06-10T15:41:05.166Z","facilityType":"dentist","facilityLabel":"🦷 牙醫","phone":null,"website":null,"wheelchair":false,"needsAddr":true},{"id":4242635453,"name":"順和眼科","lat":24.0910703,"lng":120.6920165,"address":null,"hasBabyChanging":false,"hasAccessible":false,"source":"OpenStreetMap","updatedAt":"2026-06-10T15:41:05.166Z","facilityType":"clinic","facilityLabel":"🩺 診所","phone":null,"website":null,"wheelchair":false,"needsAddr":true},{"id":4256859002,"name":"一品堂大里中醫診所","lat":24.1052398,"lng":120.6799124,"address":"412台中市大里區永大街20號","hasBabyChanging":false,"hasAccessible":false,"source":"OpenStreetMap","updatedAt":"2026-06-10T15:41:05.166Z","facilityType":"clinic","facilityLabel":"🩺 診所","phone":"+886 4 2418 1159","website":"https://www.facebook.com/pages/%E4%B8%80%E5%93%81%E5%A0%82%E4%B8%AD%E9%86%AB%E8%A8%BA%E6%89%80%E4%B9%8B%E5%A4%A7%E9%87%8C%E5%88%86%E9%99%A2/249433215236691","wheelchair":false,"needsAddr":false},{"id":4256859004,"name":"博生婦產科","lat":24.1036549,"lng":120.6848501,"address":"412台中市大里區德芳南路352號","hasBabyChanging":false,"hasAccessible":false,"source":"OpenStreetMap","updatedAt":"2026-06-10T15:41:05.166Z","facilityType":"clinic","facilityLabel":"🩺 診所","phone":"+886 4 2483 9277","website":"http://www.bosin.tw/","wheelchair":false,"needsAddr":false},{"id":4257093216,"name":"連福藥局","lat":24.0876087,"lng":120.696217,"address":"台中市大里區中興路一段290號","hasBabyChanging":false,"hasAccessible":false,"source":"OpenStreetMap","updatedAt":"2026-06-10T15:41:05.166Z","facilityType":"pharmacy","facilityLabel":"💊 藥局","phone":"+886 4 2492 3448","website":null,"wheelchair":false,"needsAddr":false},{"id":4258130457,"name":"日新牙醫診所","lat":24.1072043,"lng":120.6766083,"address":"412台中市大里區永隆路167號","hasBabyChanging":false,"hasAccessible":false,"source":"OpenStreetMap","updatedAt":"2026-06-10T15:41:05.166Z","facilityType":"dentist","facilityLabel":"🦷 牙醫","phone":null,"website":null,"wheelchair":false,"needsAddr":false},{"id":4258161982,"name":"廣益藥局","lat":24.1061129,"lng":120.6893642,"address":"台中市大里區中興路二段167號","hasBabyChanging":false,"hasAccessible":false,"source":"OpenStreetMap","updatedAt":"2026-06-10T15:41:05.166Z","facilityType":"pharmacy","facilityLabel":"💊 藥局","phone":"+886 4 2483 9630","website":"https://www.nhi.gov.tw/Query/Query3_Detail.aspx?HospID=593620B012","wheelchair":false,"needsAddr":false},{"id":4258189790,"name":"惠羣牙醫診所","lat":24.1058058,"lng":120.6880951,"address":"412台中市大里區大里路43號","hasBabyChanging":false,"hasAccessible":false,"source":"OpenStreetMap","updatedAt":"2026-06-10T15:41:05.166Z","facilityType":"dentist","facilityLabel":"🦷 牙醫","phone":"+886 4 2481 3516","website":"https://www.nhi.gov.tw/Query/Query3_Detail.aspx?HospID=3736200368","wheelchair":false,"needsAddr":false},{"id":4513028510,"name":"凱能醫療器材","lat":24.109824,"lng":120.6805941,"address":null,"hasBabyChanging":false,"hasAccessible":false,"source":"OpenStreetMap","updatedAt":"2026-06-10T15:41:05.166Z","facilityType":"pharmacy","facilityLabel":"💊 藥局","phone":null,"website":null,"wheelchair":false,"needsAddr":true},{"id":4514839378,"name":"大明牙醫診所","lat":24.1068449,"lng":120.6863622,"address":null,"hasBabyChanging":false,"hasAccessible":true,"source":"OpenStreetMap","updatedAt":"2026-06-10T15:41:05.166Z","facilityType":"dentist","facilityLabel":"🦷 牙醫","phone":"+886 4 2483 3680","website":null,"wheelchair":true,"needsAddr":true},{"id":4526237084,"name":"屈臣氏","lat":24.1155053,"lng":120.6797189,"address":null,"hasBabyChanging":false,"hasAccessible":false,"source":"OpenStreetMap","updatedAt":"2026-06-10T15:41:05.166Z","facilityType":"pharmacy","facilityLabel":"💊 藥妝","phone":null,"website":null,"wheelchair":false,"needsAddr":true},{"id":4526253542,"name":"全國動物醫院","lat":24.1106731,"lng":120.6791942,"address":null,"hasBabyChanging":false,"hasAccessible":false,"source":"OpenStreetMap","updatedAt":"2026-06-10T15:41:05.166Z","facilityType":"vet","facilityLabel":"🐾 動物醫院","phone":null,"website":null,"wheelchair":false,"needsAddr":true},{"id":4621033781,"name":"寶雅","lat":24.1122818,"lng":120.6792126,"address":null,"hasBabyChanging":false,"hasAccessible":false,"source":"OpenStreetMap","updatedAt":"2026-06-10T15:41:05.166Z","facilityType":"pharmacy","facilityLabel":"💊 藥局","phone":null,"website":null,"wheelchair":false,"needsAddr":true},{"id":4660616690,"name":"藥局","lat":24.0908282,"lng":120.6940027,"address":null,"hasBabyChanging":false,"hasAccessible":false,"source":"OpenStreetMap","updatedAt":"2026-06-10T15:41:05.166Z","facilityType":"pharmacy","facilityLabel":"💊 藥局","phone":null,"website":null,"wheelchair":false,"needsAddr":true},{"id":5031397852,"name":"慶昇中醫診所","lat":24.1060208,"lng":120.6895932,"address":"41270臺中市大里區中興路二段380-1號","hasBabyChanging":false,"hasAccessible":false,"source":"OpenStreetMap","updatedAt":"2026-06-10T15:41:05.166Z","facilityType":"clinic","facilityLabel":"🩺 診所","phone":"+886-4-2483-8798","website":null,"wheelchair":false,"needsAddr":false},{"id":5242048764,"name":"動物醫院","lat":24.1073067,"lng":120.6806117,"address":null,"hasBabyChanging":false,"hasAccessible":false,"source":"OpenStreetMap","updatedAt":"2026-06-10T15:41:05.166Z","facilityType":"vet","facilityLabel":"🐾 動物醫院","phone":null,"website":null,"wheelchair":false,"needsAddr":true},{"id":5247440191,"name":"牙醫診所","lat":24.1065206,"lng":120.6885728,"address":null,"hasBabyChanging":false,"hasAccessible":true,"source":"OpenStreetMap","updatedAt":"2026-06-10T15:41:05.166Z","facilityType":"dentist","facilityLabel":"🦷 牙醫","phone":null,"website":null,"wheelchair":true,"needsAddr":true},{"id":5248870306,"name":"顏安耳鼻喉科","lat":24.1125631,"lng":120.6837652,"address":"臺中市大里區益民路二段317號","hasBabyChanging":false,"hasAccessible":false,"source":"OpenStreetMap","updatedAt":"2026-06-10T15:41:05.166Z","facilityType":"clinic","facilityLabel":"👂 耳鼻喉科","phone":"+886-4-24872999","website":null,"wheelchair":false,"needsAddr":false},{"id":5385240319,"name":"康聖耳鼻喉科","lat":24.1099959,"lng":120.6839775,"address":null,"hasBabyChanging":false,"hasAccessible":false,"source":"OpenStreetMap","updatedAt":"2026-06-10T15:41:05.166Z","facilityType":"clinic","facilityLabel":"👂 耳鼻喉科","phone":null,"website":null,"wheelchair":false,"needsAddr":true},{"id":5385240523,"name":"全家牙醫診所","lat":24.1107049,"lng":120.6839998,"address":null,"hasBabyChanging":false,"hasAccessible":false,"source":"OpenStreetMap","updatedAt":"2026-06-10T15:41:05.166Z","facilityType":"dentist","facilityLabel":"🦷 牙醫","phone":"+886-4-24823777","website":null,"wheelchair":false,"needsAddr":true},{"id":5418166566,"name":"漢生堂中醫診所","lat":24.1004892,"lng":120.6876741,"address":null,"hasBabyChanging":false,"hasAccessible":false,"source":"OpenStreetMap","updatedAt":"2026-06-10T15:41:05.166Z","facilityType":"clinic","facilityLabel":"🩺 診所","phone":null,"website":null,"wheelchair":false,"needsAddr":true},{"id":5419846500,"name":"德芳大藥局","lat":24.1117723,"lng":120.6840276,"address":"臺中市大里區益民路二段302號","hasBabyChanging":false,"hasAccessible":false,"source":"OpenStreetMap","updatedAt":"2026-06-10T15:41:05.166Z","facilityType":"pharmacy","facilityLabel":"💊 藥局","phone":null,"website":null,"wheelchair":false,"needsAddr":false},{"id":5419846502,"name":"欣仁診所","lat":24.1091881,"lng":120.6793014,"address":null,"hasBabyChanging":false,"hasAccessible":false,"source":"OpenStreetMap","updatedAt":"2026-06-10T15:41:05.166Z","facilityType":"clinic","facilityLabel":"🩺 診所","phone":null,"website":null,"wheelchair":false,"needsAddr":true},{"id":5419846503,"name":"普門堂中醫診所","lat":24.1122601,"lng":120.6837272,"address":"臺中市大里區益民路二段313號","hasBabyChanging":false,"hasAccessible":false,"source":"OpenStreetMap","updatedAt":"2026-06-10T15:41:05.166Z","facilityType":"clinic","facilityLabel":"🩺 診所","phone":null,"website":null,"wheelchair":false,"needsAddr":false},{"id":5422372858,"name":"信元藥局","lat":24.115298,"lng":120.6839908,"address":null,"hasBabyChanging":false,"hasAccessible":false,"source":"OpenStreetMap","updatedAt":"2026-06-10T15:41:05.166Z","facilityType":"pharmacy","facilityLabel":"💊 藥局","phone":null,"website":null,"wheelchair":false,"needsAddr":true},{"id":5699118461,"name":"江宗龍小兒科診所","lat":24.1126785,"lng":120.6837715,"address":null,"hasBabyChanging":false,"hasAccessible":false,"source":"OpenStreetMap","updatedAt":"2026-06-10T15:41:05.166Z","facilityType":"clinic","facilityLabel":"👶 小兒科","phone":null,"website":null,"wheelchair":false,"needsAddr":true},{"id":5699118462,"name":"全育牙醫診所","lat":24.1129769,"lng":120.6837688,"address":null,"hasBabyChanging":false,"hasAccessible":false,"source":"OpenStreetMap","updatedAt":"2026-06-10T15:41:05.166Z","facilityType":"dentist","facilityLabel":"🦷 牙醫","phone":null,"website":null,"wheelchair":false,"needsAddr":true},{"id":6109126188,"name":"康是美","lat":24.1149083,"lng":120.6803392,"address":null,"hasBabyChanging":false,"hasAccessible":false,"source":"OpenStreetMap","updatedAt":"2026-06-10T15:41:05.166Z","facilityType":"pharmacy","facilityLabel":"💊 藥妝","phone":null,"website":null,"wheelchair":false,"needsAddr":true},{"id":6134345247,"name":"Time Dental Clinic","lat":24.1110324,"lng":120.683795,"address":null,"hasBabyChanging":false,"hasAccessible":false,"source":"OpenStreetMap","updatedAt":"2026-06-10T15:41:05.166Z","facilityType":"dentist","facilityLabel":"🦷 牙醫","phone":null,"website":null,"wheelchair":false,"needsAddr":true},{"id":6470853805,"name":"牙醫診所","lat":24.1066064,"lng":120.6827839,"address":null,"hasBabyChanging":false,"hasAccessible":false,"source":"OpenStreetMap","updatedAt":"2026-06-10T15:41:05.166Z","facilityType":"dentist","facilityLabel":"🦷 牙醫","phone":null,"website":null,"wheelchair":false,"needsAddr":true},{"id":8500575456,"name":"康是美","lat":24.1102969,"lng":120.6884924,"address":null,"hasBabyChanging":false,"hasAccessible":false,"source":"OpenStreetMap","updatedAt":"2026-06-10T15:41:05.166Z","facilityType":"pharmacy","facilityLabel":"💊 藥妝","phone":null,"website":null,"wheelchair":false,"needsAddr":true},{"id":10028828967,"name":"大里尚品牙醫","lat":24.1150445,"lng":120.6829637,"address":null,"hasBabyChanging":false,"hasAccessible":false,"source":"OpenStreetMap","updatedAt":"2026-06-10T15:41:05.166Z","facilityType":"dentist","facilityLabel":"🦷 牙醫","phone":null,"website":null,"wheelchair":false,"needsAddr":true},{"id":10028829000,"name":"沛然診所","lat":24.1150849,"lng":120.6835075,"address":null,"hasBabyChanging":false,"hasAccessible":false,"source":"OpenStreetMap","updatedAt":"2026-06-10T15:41:05.166Z","facilityType":"clinic","facilityLabel":"🩺 診所","phone":null,"website":null,"wheelchair":false,"needsAddr":true},{"id":10028829001,"name":"啟禾皮膚科診所","lat":24.1150868,"lng":120.6835438,"address":null,"hasBabyChanging":false,"hasAccessible":false,"source":"OpenStreetMap","updatedAt":"2026-06-10T15:41:05.166Z","facilityType":"clinic","facilityLabel":"🩺 診所","phone":null,"website":null,"wheelchair":false,"needsAddr":true},{"id":10176236423,"name":"柯麗麗婦產科","lat":24.1122285,"lng":120.6898492,"address":"412台中市大里區中興路二段389號","hasBabyChanging":false,"hasAccessible":false,"source":"OpenStreetMap","updatedAt":"2026-06-10T15:41:05.166Z","facilityType":"clinic","facilityLabel":"🩺 診所","phone":"+886 4 24827769","website":null,"wheelchair":false,"needsAddr":false},{"id":10586499507,"name":"佑全","lat":24.1043654,"lng":120.6887935,"address":null,"hasBabyChanging":false,"hasAccessible":true,"source":"OpenStreetMap","updatedAt":"2026-06-10T15:41:05.166Z","facilityType":"pharmacy","facilityLabel":"💊 藥局","phone":null,"website":null,"wheelchair":true,"needsAddr":true},{"id":10699688623,"name":"牙醫診所","lat":24.111846,"lng":120.6895514,"address":null,"hasBabyChanging":false,"hasAccessible":false,"source":"OpenStreetMap","updatedAt":"2026-06-10T15:41:05.166Z","facilityType":"dentist","facilityLabel":"🦷 牙醫","phone":null,"website":null,"wheelchair":false,"needsAddr":true},{"id":11262071284,"name":"陳祥雪小兒科診所","lat":24.1049719,"lng":120.6880901,"address":"臺中市大里區長榮里26鄰新生西路42號","hasBabyChanging":false,"hasAccessible":false,"source":"OpenStreetMap","updatedAt":"2026-06-10T15:41:05.166Z","facilityType":"clinic","facilityLabel":"👶 小兒科","phone":null,"website":"https://medical-clinic-2769.business.site/","wheelchair":false,"needsAddr":false},{"id":11262071287,"name":"易安動物醫院","lat":24.1050776,"lng":120.6877364,"address":"臺中市大里區長榮里26鄰新生西路70號","hasBabyChanging":false,"hasAccessible":false,"source":"OpenStreetMap","updatedAt":"2026-06-10T15:41:05.166Z","facilityType":"vet","facilityLabel":"🐾 動物醫院","phone":"+886 4 2483 4110","website":null,"wheelchair":false,"needsAddr":false},{"id":11262071292,"name":"蔡景晴婦產科診所","lat":24.1049376,"lng":120.6890217,"address":"臺中市大里區長榮里1鄰中興路二段145號","hasBabyChanging":false,"hasAccessible":false,"source":"OpenStreetMap","updatedAt":"2026-06-10T15:41:05.166Z","facilityType":"clinic","facilityLabel":"🩺 診所","phone":null,"website":null,"wheelchair":false,"needsAddr":false},{"id":11393885941,"name":"戴啟訓診所","lat":24.106657,"lng":120.6858322,"address":"臺中市大里區長榮里14鄰益民路二段111號","hasBabyChanging":false,"hasAccessible":false,"source":"OpenStreetMap","updatedAt":"2026-06-10T15:41:05.166Z","facilityType":"clinic","facilityLabel":"🩺 診所","phone":null,"website":null,"wheelchair":false,"needsAddr":false},{"id":11393885943,"name":"李良小兒科","lat":24.1066814,"lng":120.6856502,"address":"臺中市大里區長榮里14鄰益民路二段117號","hasBabyChanging":false,"hasAccessible":false,"source":"OpenStreetMap","updatedAt":"2026-06-10T15:41:05.166Z","facilityType":"clinic","facilityLabel":"👶 小兒科","phone":null,"website":null,"wheelchair":false,"needsAddr":false},{"id":13157667612,"name":"𧙗生中醫","lat":24.1078014,"lng":120.6896389,"address":null,"hasBabyChanging":false,"hasAccessible":false,"source":"OpenStreetMap","updatedAt":"2026-06-10T15:41:05.166Z","facilityType":"clinic","facilityLabel":"🩺 診所","phone":null,"website":null,"wheelchair":false,"needsAddr":true},{"id":299637978,"name":"聯鎰藥局","lat":24.0872979,"lng":120.7061538,"address":"412台中市大里區塗城路503號","hasBabyChanging":false,"hasAccessible":false,"source":"OpenStreetMap","updatedAt":"2026-06-10T15:41:05.166Z","facilityType":"pharmacy","facilityLabel":"💊 藥局","phone":"+886 4 2492 5531","website":"http://poi.zhupiter.com/p/cht-240377/%E8%81%AF%E9%8E%B0%E8%97%A5%E5%B1%80/","wheelchair":false,"needsAddr":false},{"id":303725084,"name":"大直診所","lat":24.1106398,"lng":120.6897656,"address":"412台中市大里區中興路二段335號","hasBabyChanging":false,"hasAccessible":false,"source":"OpenStreetMap","updatedAt":"2026-06-10T15:41:05.166Z","facilityType":"clinic","facilityLabel":"🩺 診所","phone":"+886 4 2485 2200","website":"http://drdazhi.com/about_01.php","wheelchair":false,"needsAddr":false},{"id":303725102,"name":"三商藥局","lat":24.1104036,"lng":120.6897783,"address":"412臺中市大里區中興路二段333號","hasBabyChanging":false,"hasAccessible":false,"source":"OpenStreetMap","updatedAt":"2026-06-10T15:41:05.166Z","facilityType":"pharmacy","facilityLabel":"💊 藥局","phone":"+886 4 2485 2071","website":"https://www.nhi.gov.tw/Query/Query3_Detail.aspx?HospID=593620A917","wheelchair":false,"needsAddr":false},{"id":303725750,"name":"菁品牙醫","lat":24.1170648,"lng":120.6897062,"address":"413臺中市大里區中興路二段692號","hasBabyChanging":false,"hasAccessible":true,"source":"OpenStreetMap","updatedAt":"2026-06-10T15:41:05.166Z","facilityType":"dentist","facilityLabel":"🦷 牙醫","phone":"+886 4 2487 0800","website":null,"wheelchair":true,"needsAddr":false},{"id":303744984,"name":"久德藥局","lat":24.0906096,"lng":120.6931927,"address":"412臺中市大里區塗城路1061號","hasBabyChanging":false,"hasAccessible":false,"source":"OpenStreetMap","updatedAt":"2026-06-10T15:41:05.166Z","facilityType":"pharmacy","facilityLabel":"💊 藥局","phone":"+886 4 2496 2507","website":null,"wheelchair":false,"needsAddr":false},{"id":356330011,"name":"屈臣氏","lat":24.1096575,"lng":120.69014,"address":"臺中市大里區中興路二段470;472號","hasBabyChanging":false,"hasAccessible":false,"source":"OpenStreetMap","updatedAt":"2026-06-10T15:41:05.166Z","facilityType":"pharmacy","facilityLabel":"💊 藥妝","phone":"+886 4 2486 4562","website":null,"wheelchair":false,"needsAddr":false},{"id":460130376,"name":"診所","lat":24.1103776,"lng":120.6799362,"address":null,"hasBabyChanging":false,"hasAccessible":false,"source":"OpenStreetMap","updatedAt":"2026-06-10T15:41:05.166Z","facilityType":"clinic","facilityLabel":"🩺 診所","phone":null,"website":null,"wheelchair":false,"needsAddr":true},{"id":549623387,"name":"寶雅","lat":24.1105466,"lng":120.6904811,"address":"台中市大里區中興路二段480號","hasBabyChanging":false,"hasAccessible":true,"source":"OpenStreetMap","updatedAt":"2026-06-10T15:41:05.166Z","facilityType":"pharmacy","facilityLabel":"💊 藥局","phone":null,"website":null,"wheelchair":true,"needsAddr":false},{"id":656644785,"name":"霧峰澄清醫院","lat":24.0856537,"lng":120.6994281,"address":"412台中市大里區成功路55號","hasBabyChanging":false,"hasAccessible":false,"source":"OpenStreetMap","updatedAt":"2026-06-10T15:41:05.166Z","facilityType":"hospital","facilityLabel":"🏥 醫院","phone":null,"website":null,"wheelchair":false,"needsAddr":false},{"id":915106407,"name":"牙醫診所","lat":24.1087041,"lng":120.6907455,"address":null,"hasBabyChanging":false,"hasAccessible":false,"source":"OpenStreetMap","updatedAt":"2026-06-10T15:41:05.166Z","facilityType":"dentist","facilityLabel":"🦷 牙醫","phone":null,"website":null,"wheelchair":false,"needsAddr":true},{"id":917505289,"name":"德彥中醫診所","lat":24.1009891,"lng":120.687288,"address":null,"hasBabyChanging":false,"hasAccessible":false,"source":"OpenStreetMap","updatedAt":"2026-06-10T15:41:05.166Z","facilityType":"clinic","facilityLabel":"🩺 診所","phone":null,"website":null,"wheelchair":false,"needsAddr":true},{"id":926252255,"name":"佳仁內科診所","lat":24.1037911,"lng":120.6857105,"address":"412臺中市大里區大里路110號","hasBabyChanging":false,"hasAccessible":false,"source":"OpenStreetMap","updatedAt":"2026-06-10T15:41:05.166Z","facilityType":"clinic","facilityLabel":"🩺 診所","phone":null,"website":null,"wheelchair":false,"needsAddr":false},{"id":1071323645,"name":"臺中市大里區衛生所","lat":24.097682,"lng":120.6792096,"address":"412023臺中市大里區大衛路82號","hasBabyChanging":false,"hasAccessible":false,"source":"OpenStreetMap","updatedAt":"2026-06-10T15:41:05.166Z","facilityType":"health_center","facilityLabel":"🏥 衛生所","phone":"+886 4 24061500","website":"https://www.daliphc.taichung.gov.tw","wheelchair":false,"needsAddr":false},{"id":1072972559,"name":"新菩提醫院","lat":24.1149204,"lng":120.6889359,"address":null,"hasBabyChanging":false,"hasAccessible":false,"source":"OpenStreetMap","updatedAt":"2026-06-10T15:41:05.166Z","facilityType":"hospital","facilityLabel":"🏥 醫院","phone":null,"website":null,"wheelchair":false,"needsAddr":true},{"id":14714155,"name":"大里仁愛醫院","lat":24.1096206,"lng":120.6804862,"address":"臺中市大里區東榮路483號","hasBabyChanging":false,"hasAccessible":false,"source":"OpenStreetMap","updatedAt":"2026-06-10T15:41:05.166Z","facilityType":"hospital","facilityLabel":"🏥 醫院","phone":"+886 4 2481 9900","website":"https://www.jah.org.tw/","wheelchair":false,"needsAddr":false}]}