{"city":"台中市","district":"東勢區","category":"medical","updatedAt":"2026-06-10T15:41:05.166Z","rev":1,"count":17,"items":[{"id":2999227366,"name":"屈臣氏","lat":24.2519525,"lng":120.8300803,"address":null,"hasBabyChanging":false,"hasAccessible":false,"source":"OpenStreetMap","updatedAt":"2026-06-10T15:41:05.166Z","facilityType":"pharmacy","facilityLabel":"💊 藥妝","phone":null,"website":null,"wheelchair":false,"needsAddr":true},{"id":3040298759,"name":"東福診所","lat":24.2575127,"lng":120.8304109,"address":null,"hasBabyChanging":false,"hasAccessible":false,"source":"OpenStreetMap","updatedAt":"2026-06-10T15:41:05.166Z","facilityType":"clinic","facilityLabel":"🩺 診所","phone":"+886 4 2577 0238","website":null,"wheelchair":false,"needsAddr":true},{"id":3040298762,"name":"宏欣牙醫診所","lat":24.2574487,"lng":120.8302197,"address":null,"hasBabyChanging":false,"hasAccessible":false,"source":"OpenStreetMap","updatedAt":"2026-06-10T15:41:05.166Z","facilityType":"dentist","facilityLabel":"🦷 牙醫","phone":"+886 4 2577 2408","website":null,"wheelchair":false,"needsAddr":true},{"id":3198284274,"name":"康是美","lat":24.2564626,"lng":120.8285504,"address":null,"hasBabyChanging":false,"hasAccessible":false,"source":"OpenStreetMap","updatedAt":"2026-06-10T15:41:05.166Z","facilityType":"pharmacy","facilityLabel":"💊 藥妝","phone":null,"website":null,"wheelchair":false,"needsAddr":true},{"id":10069943727,"name":"合麗牙醫診所","lat":24.257257,"lng":120.8281671,"address":null,"hasBabyChanging":false,"hasAccessible":false,"source":"OpenStreetMap","updatedAt":"2026-06-10T15:41:05.166Z","facilityType":"dentist","facilityLabel":"🦷 牙醫","phone":null,"website":null,"wheelchair":false,"needsAddr":true},{"id":13710063982,"name":"湯瑪仕小兒科診所","lat":24.2568588,"lng":120.8283578,"address":"臺中市東勢區豐勢路445號","hasBabyChanging":false,"hasAccessible":false,"source":"OpenStreetMap","updatedAt":"2026-06-10T15:41:05.166Z","facilityType":"clinic","facilityLabel":"👶 小兒科","phone":null,"website":null,"wheelchair":false,"needsAddr":false},{"id":13710063983,"name":"仁合婦產科診所","lat":24.257259,"lng":120.829692,"address":null,"hasBabyChanging":false,"hasAccessible":false,"source":"OpenStreetMap","updatedAt":"2026-06-10T15:41:05.166Z","facilityType":"clinic","facilityLabel":"🩺 診所","phone":null,"website":null,"wheelchair":false,"needsAddr":true},{"id":13710063988,"name":"仁祐堂中醫","lat":24.257925,"lng":120.8279194,"address":"臺中市東勢區豐勢路487號","hasBabyChanging":false,"hasAccessible":false,"source":"OpenStreetMap","updatedAt":"2026-06-10T15:41:05.166Z","facilityType":"clinic","facilityLabel":"🩺 診所","phone":null,"website":null,"wheelchair":false,"needsAddr":false},{"id":288449284,"name":"乾狀元中藥房","lat":24.2513448,"lng":120.831198,"address":null,"hasBabyChanging":false,"hasAccessible":false,"source":"OpenStreetMap","updatedAt":"2026-06-10T15:41:05.166Z","facilityType":"pharmacy","facilityLabel":"💊 藥局","phone":null,"website":null,"wheelchair":false,"needsAddr":true},{"id":291883249,"name":"華辰診所","lat":24.253791,"lng":120.8298121,"address":null,"hasBabyChanging":false,"hasAccessible":false,"source":"OpenStreetMap","updatedAt":"2026-06-10T15:41:05.166Z","facilityType":"clinic","facilityLabel":"🩺 診所","phone":null,"website":null,"wheelchair":false,"needsAddr":true},{"id":292822103,"name":"雅之診所","lat":24.2574946,"lng":120.8279907,"address":"423臺中市東勢區豐勢路490號","hasBabyChanging":false,"hasAccessible":false,"source":"OpenStreetMap","updatedAt":"2026-06-10T15:41:05.166Z","facilityType":"clinic","facilityLabel":"🩺 診所","phone":null,"website":null,"wheelchair":false,"needsAddr":false},{"id":292822105,"name":"東勢區衛生所","lat":24.2576591,"lng":120.8283344,"address":"423臺中市東勢區豐勢路490號","hasBabyChanging":false,"hasAccessible":false,"source":"OpenStreetMap","updatedAt":"2026-06-10T15:41:05.166Z","facilityType":"health_center","facilityLabel":"🏥 衛生所","phone":null,"website":null,"wheelchair":false,"needsAddr":false},{"id":709816361,"name":"東勢區農會附設農民醫院","lat":24.2536198,"lng":120.8290937,"address":"臺中市東勢區南平里７鄰忠孝街1號","hasBabyChanging":false,"hasAccessible":false,"source":"OpenStreetMap","updatedAt":"2026-06-10T15:41:05.166Z","facilityType":"hospital","facilityLabel":"🏥 醫院","phone":"+886 4 2577 1919","website":"http://www.fh.org.tw/","wheelchair":false,"needsAddr":false},{"id":729089044,"name":"慶恩內兒皮膚科","lat":24.2563092,"lng":120.8284842,"address":"臺中市東勢區豐勢路417號","hasBabyChanging":false,"hasAccessible":false,"source":"OpenStreetMap","updatedAt":"2026-06-10T15:41:05.166Z","facilityType":"clinic","facilityLabel":"🩺 診所","phone":"+886 4 2587 9589","website":null,"wheelchair":false,"needsAddr":false},{"id":14978105,"name":"臺中市 90延 豐原 - 和平衛生所(往豐原)","lat":24.2194563,"lng":120.8048897,"address":null,"hasBabyChanging":false,"hasAccessible":false,"source":"OpenStreetMap","updatedAt":"2026-06-10T15:41:05.166Z","facilityType":"health_center","facilityLabel":"🏥 衛生所","phone":null,"website":null,"wheelchair":false,"needsAddr":true},{"id":15010810,"name":"臺中市 821 東勢 - 和平衛生所(往東勢)","lat":24.2090435,"lng":120.858513,"address":null,"hasBabyChanging":false,"hasAccessible":false,"source":"OpenStreetMap","updatedAt":"2026-06-10T15:41:05.166Z","facilityType":"health_center","facilityLabel":"🏥 衛生所","phone":null,"website":null,"wheelchair":false,"needsAddr":true},{"id":15011588,"name":"臺中市 黃9 和平衛生所 - 福民國小(往福民國小)","lat":24.1668893,"lng":120.8746393,"address":null,"hasBabyChanging":false,"hasAccessible":false,"source":"OpenStreetMap","updatedAt":"2026-06-10T15:41:05.166Z","facilityType":"health_center","facilityLabel":"🏥 衛生所","phone":null,"website":null,"wheelchair":false,"needsAddr":true}]}