{"city":"台中市","district":"梧棲區","category":"medical","updatedAt":"2026-06-10T15:41:05.166Z","rev":1,"count":18,"items":[{"id":3739851755,"name":"丁丁藥局","lat":24.2540884,"lng":120.5293811,"address":"43541臺中市梧棲區民生街79號","hasBabyChanging":false,"hasAccessible":false,"source":"OpenStreetMap","updatedAt":"2026-06-10T15:41:05.166Z","facilityType":"pharmacy","facilityLabel":"💊 藥局","phone":"+886-4 2656 2807","website":"https://www.norbelbaby.com.tw/","wheelchair":false,"needsAddr":false},{"id":4647495699,"name":"中港藥局","lat":24.2479286,"lng":120.5425047,"address":null,"hasBabyChanging":false,"hasAccessible":false,"source":"OpenStreetMap","updatedAt":"2026-06-10T15:41:05.166Z","facilityType":"pharmacy","facilityLabel":"💊 藥局","phone":null,"website":null,"wheelchair":false,"needsAddr":true},{"id":4651800798,"name":"王維堅牙醫診所","lat":24.2508219,"lng":120.5333554,"address":null,"hasBabyChanging":false,"hasAccessible":false,"source":"OpenStreetMap","updatedAt":"2026-06-10T15:41:05.166Z","facilityType":"dentist","facilityLabel":"🦷 牙醫","phone":null,"website":null,"wheelchair":false,"needsAddr":true},{"id":5134329247,"name":"藥局","lat":24.2562041,"lng":120.5338736,"address":null,"hasBabyChanging":false,"hasAccessible":false,"source":"OpenStreetMap","updatedAt":"2026-06-10T15:41:05.166Z","facilityType":"pharmacy","facilityLabel":"💊 藥局","phone":null,"website":null,"wheelchair":false,"needsAddr":true},{"id":5135250076,"name":"南昌藥局","lat":24.2607804,"lng":120.542835,"address":null,"hasBabyChanging":false,"hasAccessible":false,"source":"OpenStreetMap","updatedAt":"2026-06-10T15:41:05.166Z","facilityType":"pharmacy","facilityLabel":"💊 藥局","phone":null,"website":null,"wheelchair":false,"needsAddr":true},{"id":5135363934,"name":"忠港醫院","lat":24.2524715,"lng":120.5360374,"address":null,"hasBabyChanging":false,"hasAccessible":false,"source":"OpenStreetMap","updatedAt":"2026-06-10T15:41:05.166Z","facilityType":"clinic","facilityLabel":"🩺 診所","phone":null,"website":null,"wheelchair":false,"needsAddr":true},{"id":5135363950,"name":"大芳藥局","lat":24.2473989,"lng":120.5380368,"address":null,"hasBabyChanging":false,"hasAccessible":false,"source":"OpenStreetMap","updatedAt":"2026-06-10T15:41:05.166Z","facilityType":"pharmacy","facilityLabel":"💊 藥局","phone":null,"website":null,"wheelchair":false,"needsAddr":true},{"id":5136630185,"name":"福德藥局","lat":24.2553749,"lng":120.5404828,"address":null,"hasBabyChanging":false,"hasAccessible":false,"source":"OpenStreetMap","updatedAt":"2026-06-10T15:41:05.166Z","facilityType":"pharmacy","facilityLabel":"💊 藥局","phone":null,"website":null,"wheelchair":false,"needsAddr":true},{"id":6124969191,"name":"Tomod's","lat":24.2584931,"lng":120.5201017,"address":null,"hasBabyChanging":false,"hasAccessible":false,"source":"OpenStreetMap","updatedAt":"2026-06-10T15:41:05.166Z","facilityType":"pharmacy","facilityLabel":"💊 藥局","phone":null,"website":null,"wheelchair":false,"needsAddr":true},{"id":6510327089,"name":"義德診所","lat":24.2424955,"lng":120.54764,"address":null,"hasBabyChanging":false,"hasAccessible":false,"source":"OpenStreetMap","updatedAt":"2026-06-10T15:41:05.166Z","facilityType":"clinic","facilityLabel":"🩺 診所","phone":null,"website":null,"wheelchair":false,"needsAddr":true},{"id":9958777657,"name":"佑全保健藥妝","lat":24.2553087,"lng":120.5310139,"address":null,"hasBabyChanging":false,"hasAccessible":false,"source":"OpenStreetMap","updatedAt":"2026-06-10T15:41:05.166Z","facilityType":"pharmacy","facilityLabel":"💊 藥局","phone":null,"website":null,"wheelchair":false,"needsAddr":true},{"id":9960757755,"name":"屈臣氏","lat":24.2565558,"lng":120.5315544,"address":null,"hasBabyChanging":false,"hasAccessible":false,"source":"OpenStreetMap","updatedAt":"2026-06-10T15:41:05.166Z","facilityType":"pharmacy","facilityLabel":"💊 藥妝","phone":null,"website":null,"wheelchair":false,"needsAddr":true},{"id":12119761165,"name":"大樹藥局","lat":24.2574105,"lng":120.5349018,"address":null,"hasBabyChanging":false,"hasAccessible":false,"source":"OpenStreetMap","updatedAt":"2026-06-10T15:41:05.166Z","facilityType":"pharmacy","facilityLabel":"💊 藥局","phone":null,"website":null,"wheelchair":false,"needsAddr":true},{"id":12123916692,"name":"寶成中醫","lat":24.2506879,"lng":120.5293657,"address":null,"hasBabyChanging":false,"hasAccessible":false,"source":"OpenStreetMap","updatedAt":"2026-06-10T15:41:05.166Z","facilityType":"clinic","facilityLabel":"🩺 診所","phone":null,"website":null,"wheelchair":false,"needsAddr":true},{"id":13835117345,"name":"康是美","lat":24.2533939,"lng":120.529654,"address":null,"hasBabyChanging":false,"hasAccessible":false,"source":"OpenStreetMap","updatedAt":"2026-06-10T15:41:05.166Z","facilityType":"pharmacy","facilityLabel":"💊 藥妝","phone":null,"website":null,"wheelchair":false,"needsAddr":true},{"id":259922124,"name":"童綜合醫院梧棲院區","lat":24.2469933,"lng":120.5426053,"address":"43541臺中市梧棲區大庄里臺灣大道八段699號","hasBabyChanging":false,"hasAccessible":true,"source":"OpenStreetMap","updatedAt":"2026-06-10T15:41:05.166Z","facilityType":"hospital","facilityLabel":"🏥 醫院","phone":"+886-4-2658-1919","website":"http://zh-tw.sltung.com.tw/","wheelchair":true,"needsAddr":false},{"id":494689643,"name":"白牙醫診所","lat":24.2468526,"lng":120.5377147,"address":"43545台中市梧棲區中央路一段859-2號一樓","hasBabyChanging":false,"hasAccessible":false,"source":"OpenStreetMap","updatedAt":"2026-06-10T15:41:05.166Z","facilityType":"dentist","facilityLabel":"🦷 牙醫","phone":null,"website":null,"wheelchair":false,"needsAddr":false},{"id":526931533,"name":"梧棲衛生所","lat":24.2548112,"lng":120.5320493,"address":null,"hasBabyChanging":false,"hasAccessible":false,"source":"OpenStreetMap","updatedAt":"2026-06-10T15:41:05.166Z","facilityType":"health_center","facilityLabel":"🏥 衛生所","phone":null,"website":null,"wheelchair":false,"needsAddr":true}]}