{
  "city": "新北市",
  "category": "family",
  "updatedAt": "2026-06-12T17:58:17.132Z",
  "items": [
    {
      "id": 3702472092,
      "name": "觀海長堤賞鳥",
      "facilityType": "tourist_attraction",
      "facilityLabel": "🧭 旅遊景點",
      "lat": 25.1687691,
      "lng": 121.4166833,
      "source": "OpenStreetMap",
      "updatedAt": "2026-06-12T17:58:17.114Z"
    },
    {
      "id": 4818061821,
      "name": "淡水河口-台北港-林口火力發電廠、西海岸、夕陽落海、賞鷹平台",
      "facilityType": "tourist_attraction",
      "facilityLabel": "🧭 旅遊景點",
      "lat": 25.1312588,
      "lng": 121.4141769,
      "source": "OpenStreetMap",
      "updatedAt": "2026-06-12T17:58:17.115Z"
    },
    {
      "id": 6572314479,
      "name": "眺望台北港",
      "facilityType": "tourist_attraction",
      "facilityLabel": "🧭 旅遊景點",
      "lat": 25.1317894,
      "lng": 121.4226285,
      "source": "OpenStreetMap",
      "updatedAt": "2026-06-12T17:58:17.117Z"
    },
    {
      "id": 6574270378,
      "name": "往上駱駝嶺",
      "facilityType": "visitor_center",
      "facilityLabel": "🛎 旅客中心",
      "lat": 25.1314821,
      "lng": 121.4279933,
      "source": "OpenStreetMap",
      "updatedAt": "2026-06-12T17:58:17.118Z"
    },
    {
      "id": 6574270379,
      "name": "往下駱駝嶺",
      "facilityType": "visitor_center",
      "facilityLabel": "🛎 旅客中心",
      "lat": 25.131708,
      "lng": 121.4262426,
      "source": "OpenStreetMap",
      "updatedAt": "2026-06-12T17:58:17.120Z"
    },
    {
      "id": 6581287065,
      "name": "往八里廖添丁洞4.5公里 荒野小徑自行小心",
      "facilityType": "visitor_center",
      "facilityLabel": "🛎 旅客中心",
      "lat": 25.1307847,
      "lng": 121.4146455,
      "source": "OpenStreetMap",
      "updatedAt": "2026-06-12T17:58:17.121Z"
    },
    {
      "id": 6581287067,
      "name": "蝴蝶的食物",
      "facilityType": "visitor_center",
      "facilityLabel": "🛎 旅客中心",
      "lat": 25.1304186,
      "lng": 121.4152137,
      "source": "OpenStreetMap",
      "updatedAt": "2026-06-12T17:58:17.122Z"
    },
    {
      "id": 6581797621,
      "name": "廖添丁洞",
      "facilityType": "tourist_attraction",
      "facilityLabel": "🧭 旅遊景點",
      "lat": 25.1284608,
      "lng": 121.4106949,
      "source": "OpenStreetMap",
      "updatedAt": "2026-06-12T17:58:17.123Z"
    },
    {
      "id": 6583659555,
      "name": "往休憩平台",
      "facilityType": "visitor_center",
      "facilityLabel": "🛎 旅客中心",
      "lat": 25.1339033,
      "lng": 121.4237891,
      "source": "OpenStreetMap",
      "updatedAt": "2026-06-12T17:58:17.124Z"
    },
    {
      "id": 6586041928,
      "name": "看台北港",
      "facilityType": "tourist_attraction",
      "facilityLabel": "🧭 旅遊景點",
      "lat": 25.1365779,
      "lng": 121.4246508,
      "source": "OpenStreetMap",
      "updatedAt": "2026-06-12T17:58:17.124Z"
    },
    {
      "id": 6604990943,
      "name": "2椅",
      "facilityType": "visitor_center",
      "facilityLabel": "🛎 旅客中心",
      "lat": 25.1334894,
      "lng": 121.421412,
      "source": "OpenStreetMap",
      "updatedAt": "2026-06-12T17:58:17.125Z"
    },
    {
      "id": 6604993929,
      "name": "7椅",
      "facilityType": "visitor_center",
      "facilityLabel": "🛎 旅客中心",
      "lat": 25.1353567,
      "lng": 121.423016,
      "source": "OpenStreetMap",
      "updatedAt": "2026-06-12T17:58:17.125Z"
    },
    {
      "id": 6604993930,
      "name": "6椅",
      "facilityType": "visitor_center",
      "facilityLabel": "🛎 旅客中心",
      "lat": 25.1351409,
      "lng": 121.4232862,
      "source": "OpenStreetMap",
      "updatedAt": "2026-06-12T17:58:17.125Z"
    },
    {
      "id": 6604993931,
      "name": "5椅",
      "facilityType": "visitor_center",
      "facilityLabel": "🛎 旅客中心",
      "lat": 25.1346749,
      "lng": 121.4227488,
      "source": "OpenStreetMap",
      "updatedAt": "2026-06-12T17:58:17.126Z"
    },
    {
      "id": 6604993932,
      "name": "4椅",
      "facilityType": "visitor_center",
      "facilityLabel": "🛎 旅客中心",
      "lat": 25.134315,
      "lng": 121.4219993,
      "source": "OpenStreetMap",
      "updatedAt": "2026-06-12T17:58:17.126Z"
    },
    {
      "id": 6604993933,
      "name": "3椅",
      "facilityType": "visitor_center",
      "facilityLabel": "🛎 旅客中心",
      "lat": 25.1339602,
      "lng": 121.4225393,
      "source": "OpenStreetMap",
      "updatedAt": "2026-06-12T17:58:17.127Z"
    },
    {
      "id": 6604993934,
      "name": "1椅",
      "facilityType": "visitor_center",
      "facilityLabel": "🛎 旅客中心",
      "lat": 25.1329435,
      "lng": 121.4213942,
      "source": "OpenStreetMap",
      "updatedAt": "2026-06-12T17:58:17.127Z"
    },
    {
      "id": 6616373001,
      "name": "看台北港夕陽",
      "facilityType": "tourist_attraction",
      "facilityLabel": "🧭 旅遊景點",
      "lat": 25.1378626,
      "lng": 121.4255158,
      "source": "OpenStreetMap",
      "updatedAt": "2026-06-12T17:58:17.127Z"
    },
    {
      "id": 6616373002,
      "name": "看淡水河口",
      "facilityType": "tourist_attraction",
      "facilityLabel": "🧭 旅遊景點",
      "lat": 25.1380633,
      "lng": 121.4261499,
      "source": "OpenStreetMap",
      "updatedAt": "2026-06-12T17:58:17.128Z"
    },
    {
      "id": 6627131032,
      "name": "2-1椅",
      "facilityType": "visitor_center",
      "facilityLabel": "🛎 旅客中心",
      "lat": 25.1328682,
      "lng": 121.4219068,
      "source": "OpenStreetMap",
      "updatedAt": "2026-06-12T17:58:17.128Z"
    },
    {
      "id": 9933558358,
      "name": "紅灘風箏滑翔翼基地",
      "facilityType": "tourist_attraction",
      "facilityLabel": "🧭 旅遊景點",
      "lat": 25.1653749,
      "lng": 121.4103085,
      "source": "OpenStreetMap",
      "updatedAt": "2026-06-12T17:58:17.129Z"
    },
    {
      "id": 11155787387,
      "name": "觀音山中繼站解說牌",
      "facilityType": "visitor_center",
      "facilityLabel": "🛎 旅客中心",
      "lat": 25.1321649,
      "lng": 121.425426,
      "source": "OpenStreetMap",
      "updatedAt": "2026-06-12T17:58:17.129Z"
    },
    {
      "id": 11155787396,
      "name": "觀音山登山步道圖",
      "facilityType": "visitor_center",
      "facilityLabel": "🛎 旅客中心",
      "lat": 25.1316948,
      "lng": 121.4250759,
      "source": "OpenStreetMap",
      "updatedAt": "2026-06-12T17:58:17.130Z"
    },
    {
      "id": 13742140261,
      "name": "南北之星下船接駁點",
      "facilityType": "tourist_attraction",
      "facilityLabel": "🧭 旅遊景點",
      "lat": 25.151132,
      "lng": 121.3913887,
      "source": "OpenStreetMap",
      "updatedAt": "2026-06-12T17:58:17.130Z"
    },
    {
      "id": 99806368,
      "name": "渡船頭街",
      "facilityType": "tourist_attraction",
      "facilityLabel": "🧭 旅遊景點",
      "lat": 25.158523,
      "lng": 121.4347858,
      "source": "OpenStreetMap",
      "updatedAt": "2026-06-12T17:58:17.131Z"
    },
    {
      "id": 406128361,
      "name": "硬漢嶺",
      "facilityType": "tourist_attraction",
      "facilityLabel": "🧭 旅遊景點",
      "lat": 25.1359547,
      "lng": 121.4267018,
      "source": "OpenStreetMap",
      "updatedAt": "2026-06-12T17:58:17.131Z"
    },
    {
      "id": 7004405,
      "name": "挖子尾自然保留區",
      "facilityType": "spot",
      "facilityLabel": "📍 親子景點",
      "lat": 25.1655309,
      "lng": 121.4187189,
      "source": "OpenStreetMap",
      "updatedAt": "2026-06-12T17:58:17.132Z"
    },
    {
      "id": 7071783,
      "name": "淡水河口保護區",
      "facilityType": "spot",
      "facilityLabel": "📍 親子景點",
      "lat": 25.1408199,
      "lng": 121.4475341,
      "source": "OpenStreetMap",
      "updatedAt": "2026-06-12T17:58:17.132Z"
    }
  ]
}
