{
  "city": "新北市",
  "category": "family",
  "updatedAt": "2026-06-14T04:37:53.395Z",
  "items": [
    {
      "id": 861099512,
      "name": "野柳地質公園入口",
      "facilityType": "tourist_attraction",
      "facilityLabel": "🧭 旅遊景點",
      "lat": 25.2056713,
      "lng": 121.6904145,
      "source": "OpenStreetMap",
      "updatedAt": "2026-06-12T18:03:57.432Z"
    },
    {
      "id": 2319980918,
      "name": "富士古道",
      "facilityType": "visitor_center",
      "facilityLabel": "🛎 旅客中心",
      "lat": 25.1642117,
      "lng": 121.5983269,
      "source": "OpenStreetMap",
      "updatedAt": "2026-06-12T18:03:57.434Z"
    },
    {
      "id": 4199791989,
      "name": "仙女鞋",
      "facilityType": "tourist_attraction",
      "facilityLabel": "🧭 旅遊景點",
      "lat": 25.2094273,
      "lng": 121.6933791,
      "source": "OpenStreetMap",
      "updatedAt": "2026-06-12T18:03:57.436Z"
    },
    {
      "id": 4199791990,
      "name": "冰淇淋石",
      "facilityType": "tourist_attraction",
      "facilityLabel": "🧭 旅遊景點",
      "lat": 25.2075065,
      "lng": 121.6909667,
      "source": "OpenStreetMap",
      "updatedAt": "2026-06-12T18:03:57.437Z"
    },
    {
      "id": 4199791991,
      "name": "女王頭",
      "facilityType": "tourist_attraction",
      "facilityLabel": "🧭 旅遊景點",
      "lat": 25.2087809,
      "lng": 121.693133,
      "source": "OpenStreetMap",
      "updatedAt": "2026-06-12T18:03:57.439Z"
    },
    {
      "id": 4199791992,
      "name": "女王頭II",
      "facilityType": "tourist_attraction",
      "facilityLabel": "🧭 旅遊景點",
      "lat": 25.2070247,
      "lng": 121.6918975,
      "source": "OpenStreetMap",
      "updatedAt": "2026-06-12T18:03:57.441Z"
    },
    {
      "id": 4199791995,
      "name": "海蝕溝",
      "facilityType": "tourist_attraction",
      "facilityLabel": "🧭 旅遊景點",
      "lat": 25.2090193,
      "lng": 121.6945001,
      "source": "OpenStreetMap",
      "updatedAt": "2026-06-12T18:03:57.442Z"
    },
    {
      "id": 4199792026,
      "name": "船舶測速台",
      "facilityType": "tourist_attraction",
      "facilityLabel": "🧭 旅遊景點",
      "lat": 25.2087641,
      "lng": 121.6939151,
      "source": "OpenStreetMap",
      "updatedAt": "2026-06-12T18:03:57.443Z"
    },
    {
      "id": 4199792027,
      "name": "豆腐岩",
      "facilityType": "tourist_attraction",
      "facilityLabel": "🧭 旅遊景點",
      "lat": 25.2107486,
      "lng": 121.6948288,
      "source": "OpenStreetMap",
      "updatedAt": "2026-06-12T18:03:57.444Z"
    },
    {
      "id": 4199792028,
      "name": "野柳的海水作用",
      "facilityType": "visitor_center",
      "facilityLabel": "🛎 旅客中心",
      "lat": 25.2085845,
      "lng": 121.6936041,
      "source": "OpenStreetMap",
      "updatedAt": "2026-06-12T18:03:57.444Z"
    },
    {
      "id": 4392903892,
      "name": "萬里拳頭石",
      "facilityType": "tourist_attraction",
      "facilityLabel": "🧭 旅遊景點",
      "lat": 25.1792229,
      "lng": 121.7007553,
      "source": "OpenStreetMap",
      "updatedAt": "2026-06-12T18:03:57.445Z"
    },
    {
      "id": 4839256324,
      "name": "小野柳",
      "facilityType": "tourist_attraction",
      "facilityLabel": "🧭 旅遊景點",
      "lat": 25.2023113,
      "lng": 121.6941902,
      "source": "OpenStreetMap",
      "updatedAt": "2026-06-12T18:03:57.445Z"
    },
    {
      "id": 5520260435,
      "name": "頭前溪瀑布",
      "facilityType": "tourist_attraction",
      "facilityLabel": "🧭 旅遊景點",
      "lat": 25.1668873,
      "lng": 121.6144279,
      "source": "OpenStreetMap",
      "updatedAt": "2026-06-12T18:03:57.446Z"
    },
    {
      "id": 5832788730,
      "name": "翡翠灣",
      "facilityType": "tourist_attraction",
      "facilityLabel": "🧭 旅遊景點",
      "lat": 25.1885328,
      "lng": 121.685678,
      "source": "OpenStreetMap",
      "updatedAt": "2026-06-12T18:03:57.446Z"
    },
    {
      "id": 7325338285,
      "name": "柳杉林",
      "facilityType": "tourist_attraction",
      "facilityLabel": "🧭 旅遊景點",
      "lat": 25.152095,
      "lng": 121.5940467,
      "source": "OpenStreetMap",
      "updatedAt": "2026-06-12T18:03:57.447Z"
    },
    {
      "id": 8552443620,
      "name": "土地公瀑布",
      "facilityType": "tourist_attraction",
      "facilityLabel": "🧭 旅遊景點",
      "lat": 25.1589234,
      "lng": 121.6187388,
      "source": "OpenStreetMap",
      "updatedAt": "2026-06-12T18:03:57.447Z"
    },
    {
      "id": 9621024117,
      "name": "磺山地熱口",
      "facilityType": "tourist_attraction",
      "facilityLabel": "🧭 旅遊景點",
      "lat": 25.1882276,
      "lng": 121.6141529,
      "source": "OpenStreetMap",
      "updatedAt": "2026-06-12T18:03:57.447Z"
    },
    {
      "id": 11432356893,
      "name": "萬里六坑煤礦",
      "facilityType": "visitor_center",
      "facilityLabel": "🛎 旅客中心",
      "lat": 25.1709819,
      "lng": 121.6776676,
      "source": "OpenStreetMap",
      "updatedAt": "2026-06-12T18:03:57.448Z"
    },
    {
      "id": 11664351669,
      "name": "俏皮公主II",
      "facilityType": "tourist_attraction",
      "facilityLabel": "🧭 旅遊景點",
      "lat": 25.2068373,
      "lng": 121.6919241,
      "source": "OpenStreetMap",
      "updatedAt": "2026-06-12T18:03:57.448Z"
    },
    {
      "id": 11770409752,
      "name": "萬中瀑布",
      "facilityType": "tourist_attraction",
      "facilityLabel": "🧭 旅遊景點",
      "lat": 25.1740078,
      "lng": 121.6967361,
      "source": "OpenStreetMap",
      "updatedAt": "2026-06-12T18:03:57.449Z"
    },
    {
      "id": 12047558093,
      "name": "石門嶺",
      "facilityType": "tourist_attraction",
      "facilityLabel": "🧭 旅遊景點",
      "lat": 25.1371839,
      "lng": 121.6083891,
      "source": "OpenStreetMap",
      "updatedAt": "2026-06-12T18:03:57.449Z"
    },
    {
      "id": 12830912148,
      "name": "展望基隆嶼",
      "facilityType": "tourist_attraction",
      "facilityLabel": "🧭 旅遊景點",
      "lat": 25.1735595,
      "lng": 121.6706694,
      "source": "OpenStreetMap",
      "updatedAt": "2026-06-12T18:03:57.450Z"
    },
    {
      "id": 12830919355,
      "name": "萬里六坑礦口步道地圖",
      "facilityType": "visitor_center",
      "facilityLabel": "🛎 旅客中心",
      "lat": 25.1702789,
      "lng": 121.6753324,
      "source": "OpenStreetMap",
      "updatedAt": "2026-06-12T18:03:57.450Z"
    },
    {
      "id": 13890668395,
      "name": "野柳遊客中心",
      "facilityType": "visitor_center",
      "facilityLabel": "🛎 旅客中心",
      "lat": 25.2053871,
      "lng": 121.6901077,
      "source": "OpenStreetMap",
      "updatedAt": "2026-06-12T18:03:57.451Z"
    },
    {
      "id": 13890675029,
      "name": "俏皮公主",
      "facilityType": "tourist_attraction",
      "facilityLabel": "🧭 旅遊景點",
      "lat": 25.2079437,
      "lng": 121.6919598,
      "source": "OpenStreetMap",
      "updatedAt": "2026-06-12T18:03:57.451Z"
    },
    {
      "id": 13890675058,
      "name": "船舶測速台簡介",
      "facilityType": "visitor_center",
      "facilityLabel": "🛎 旅客中心",
      "lat": 25.2087855,
      "lng": 121.6939349,
      "source": "OpenStreetMap",
      "updatedAt": "2026-06-12T18:03:57.451Z"
    },
    {
      "id": 536718884,
      "name": "台電北部展示館",
      "facilityType": "science",
      "facilityLabel": "🔬 博物館",
      "lat": 25.2065571,
      "lng": 121.6588021,
      "source": "OpenStreetMap",
      "updatedAt": "2026-06-12T18:03:57.452Z",
      "address": "20741新北市萬里區八斗60號"
    },
    {
      "id": 7063878,
      "name": "北海岸沿海保護區",
      "facilityType": "spot",
      "facilityLabel": "📍 親子景點",
      "lat": 25.2562653,
      "lng": 121.5839477,
      "source": "OpenStreetMap",
      "updatedAt": "2026-06-12T18:03:57.452Z"
    },
    {
      "id": 7063880,
      "name": "野柳岬自然保護區",
      "facilityType": "spot",
      "facilityLabel": "📍 親子景點",
      "lat": 25.2114858,
      "lng": 121.6949706,
      "source": "OpenStreetMap",
      "updatedAt": "2026-06-12T18:03:57.453Z"
    },
    {
      "id": 7230688,
      "name": "瑪鋉溪上游水源涵養特別景觀區",
      "facilityType": "spot",
      "facilityLabel": "📍 親子景點",
      "lat": 25.139757,
      "lng": 121.6173946,
      "source": "OpenStreetMap",
      "updatedAt": "2026-06-12T18:03:57.453Z"
    },
    {
      "id": 7230692,
      "name": "七星山自然文化景觀特別景觀區",
      "facilityType": "spot",
      "facilityLabel": "📍 親子景點",
      "lat": 25.1606679,
      "lng": 121.5714252,
      "source": "OpenStreetMap",
      "updatedAt": "2026-06-12T18:03:57.454Z"
    },
    {
      "id": 7230693,
      "name": "磺嘴山大尖後山外圍特別景觀區",
      "facilityType": "spot",
      "facilityLabel": "📍 親子景點",
      "lat": 25.1638419,
      "lng": 121.6019338,
      "source": "OpenStreetMap",
      "updatedAt": "2026-06-12T18:03:57.454Z"
    },
    {
      "id": 7230695,
      "name": "磺嘴山生態保護區",
      "facilityType": "spot",
      "facilityLabel": "📍 親子景點",
      "lat": 25.173395,
      "lng": 121.5991047,
      "source": "OpenStreetMap",
      "updatedAt": "2026-06-12T18:03:57.455Z"
    }
  ]
}