{"city":"宜蘭縣","district":"蘇澳鎮","category":"medical","updatedAt":"2026-06-12T02:55:18.707Z","rev":1,"count":6,"items":[{"id":4213963731,"name":"屈臣氏","lat":24.5961911,"lng":121.8512293,"address":null,"hasBabyChanging":false,"hasAccessible":false,"source":"OpenStreetMap","updatedAt":"2026-06-12T02:55:18.707Z","facilityType":"pharmacy","facilityLabel":"💊 藥妝","phone":null,"website":null,"wheelchair":false,"needsAddr":true},{"id":4213963739,"name":"南陽藥局","lat":24.5960935,"lng":121.8495717,"address":null,"hasBabyChanging":false,"hasAccessible":false,"source":"OpenStreetMap","updatedAt":"2026-06-12T02:55:18.707Z","facilityType":"pharmacy","facilityLabel":"💊 藥局","phone":null,"website":null,"wheelchair":false,"needsAddr":true},{"id":4213963744,"name":"皇牙醫診所","lat":24.5957838,"lng":121.8481448,"address":null,"hasBabyChanging":false,"hasAccessible":false,"source":"OpenStreetMap","updatedAt":"2026-06-12T02:55:18.707Z","facilityType":"dentist","facilityLabel":"🦷 牙醫","phone":null,"website":null,"wheelchair":false,"needsAddr":true},{"id":325023284,"name":"台北榮民總醫院蘇澳分院","lat":24.6139611,"lng":121.8487918,"address":"270宜蘭縣蘇澳鎮蘇濱路一段301號","hasBabyChanging":false,"hasAccessible":false,"source":"OpenStreetMap","updatedAt":"2026-06-12T02:55:18.707Z","facilityType":"hospital","facilityLabel":"🏥 醫院","phone":"+886 39 905 106","website":"http://www.savh.gov.tw/savh/","wheelchair":false,"needsAddr":false},{"id":460574769,"name":"建生醫院","lat":24.5960405,"lng":121.8462868,"address":null,"hasBabyChanging":false,"hasAccessible":false,"source":"OpenStreetMap","updatedAt":"2026-06-12T02:55:18.707Z","facilityType":"hospital","facilityLabel":"🏥 醫院","phone":"+886-3-9962246","website":null,"wheelchair":false,"needsAddr":true},{"id":733832157,"name":"蘇澳鎮衛生所","lat":24.5940533,"lng":121.8416482,"address":"宜蘭縣蘇澳鎮志成路60號","hasBabyChanging":false,"hasAccessible":false,"source":"OpenStreetMap","updatedAt":"2026-06-12T02:55:18.707Z","facilityType":"health_center","facilityLabel":"🏥 衛生所","phone":null,"website":null,"wheelchair":false,"needsAddr":false}]}