{
  "city": "宜蘭縣",
  "category": "transport",
  "updatedAt": "2026-06-11T16:04:46.906Z",
  "rev": 1,
  "count": 780,
  "items": [
    {
      "id": 5109042267,
      "name": "宜蘭火車站(前站)",
      "type": "bus",
      "city": "宜蘭縣",
      "district": "宜蘭市",
      "lat": 24.7540547,
      "lng": 121.7571818,
      "routes": [
        "722",
        "751",
        "752",
        "753",
        "791",
        "1743",
        "1743A",
        "1744",
        "1751",
        "1766",
        "1767",
        "1767A",
        "1785",
        "1786",
        "1787",
        "1788",
        "1789",
        "1790",
        "紅1",
        "黃1",
        "綠16",
        "綠18"
      ],
      "routeCount": 22,
      "routeSource": "gtfs",
      "routeUpdatedAt": "2026-06-14T16:43:44.801Z",
      "routeConfidence": "high"
    },
    {
      "id": 2618159167,
      "name": "宜蘭大學",
      "type": "bus",
      "city": "宜蘭縣",
      "district": "宜蘭市",
      "lat": 24.7456641,
      "lng": 121.7486956,
      "routes": [
        "751",
        "753",
        "771",
        "771A",
        "771B",
        "772",
        "772A",
        "1786"
      ],
      "routeCount": 8,
      "routeSource": "gtfs",
      "routeUpdatedAt": "2026-06-14T16:43:44.801Z",
      "routeConfidence": "high"
    },
    {
      "id": 3315230593,
      "name": "大福路口",
      "type": "bus",
      "city": "宜蘭縣",
      "district": "宜蘭市",
      "lat": 24.7652739,
      "lng": 121.7670666,
      "routes": [
        "771",
        "771A",
        "771B"
      ],
      "routeCount": 3,
      "routeSource": "gtfs",
      "routeUpdatedAt": "2026-06-14T16:43:44.801Z",
      "routeConfidence": "high"
    },
    {
      "id": 3315230595,
      "name": "宜蘭高商",
      "type": "bus",
      "city": "宜蘭縣",
      "district": "宜蘭市",
      "lat": 24.7554476,
      "lng": 121.7650239,
      "routes": [
        "771",
        "771A",
        "771B",
        "793"
      ],
      "routeCount": 4,
      "routeSource": "gtfs",
      "routeUpdatedAt": "2026-06-14T16:06:29.492Z",
      "routeConfidence": "high"
    },
    {
      "id": 3315230597,
      "name": "黎明國小",
      "type": "bus",
      "city": "宜蘭縣",
      "district": "宜蘭市",
      "lat": 24.7518955,
      "lng": 121.7638127,
      "routes": [
        "771",
        "771A",
        "771B",
        "791",
        "793",
        "1787",
        "1788"
      ],
      "routeCount": 7,
      "routeSource": "gtfs",
      "routeUpdatedAt": "2026-06-14T16:43:44.801Z",
      "routeConfidence": "high"
    },
    {
      "id": 3315230602,
      "name": "仁愛醫院",
      "type": "bus",
      "city": "宜蘭縣",
      "district": "宜蘭市",
      "lat": 24.7486675,
      "lng": 121.7542319,
      "routes": [
        "752",
        "771",
        "771A",
        "771B",
        "791"
      ],
      "routeCount": 5,
      "routeSource": "gtfs",
      "routeUpdatedAt": "2026-06-14T16:43:44.801Z",
      "routeConfidence": "high"
    },
    {
      "id": 3315230603,
      "name": "宜蘭自來水公司",
      "type": "bus",
      "city": "宜蘭縣",
      "district": "宜蘭市",
      "lat": 24.7485657,
      "lng": 121.7532746,
      "routes": [
        "771A",
        "771B",
        "772",
        "772A"
      ],
      "routeCount": 4,
      "routeSource": "gtfs",
      "routeUpdatedAt": "2026-06-14T16:06:29.492Z",
      "routeConfidence": "high"
    },
    {
      "id": 3315230606,
      "name": "蘭陽女中",
      "type": "bus",
      "city": "宜蘭縣",
      "district": "宜蘭市",
      "lat": 24.745451,
      "lng": 121.7530742,
      "routes": [
        "771",
        "771A",
        "771B",
        "772",
        "772A"
      ],
      "routeCount": 5,
      "routeSource": "gtfs",
      "routeUpdatedAt": "2026-06-14T16:43:44.801Z",
      "routeConfidence": "high"
    },
    {
      "id": 3315239044,
      "name": "復興國中",
      "type": "bus",
      "city": "宜蘭縣",
      "district": "宜蘭市",
      "lat": 24.7492493,
      "lng": 121.7466752,
      "routes": [
        "771",
        "771A",
        "771B"
      ],
      "routeCount": 3,
      "routeSource": "gtfs",
      "routeUpdatedAt": "2026-06-14T16:43:44.801Z",
      "routeConfidence": "high"
    },
    {
      "id": 3315239046,
      "name": "文化中心(宜蘭高中)",
      "type": "bus",
      "city": "宜蘭縣",
      "district": "宜蘭市",
      "lat": 24.7499587,
      "lng": 121.74409,
      "routes": [
        "771",
        "771A",
        "771B"
      ],
      "routeCount": 3,
      "routeSource": "gtfs",
      "routeUpdatedAt": "2026-06-14T16:43:44.802Z",
      "routeConfidence": "high"
    },
    {
      "id": 3315239048,
      "name": "宜中路",
      "type": "bus",
      "city": "宜蘭縣",
      "district": "宜蘭市",
      "lat": 24.7469161,
      "lng": 121.7426483,
      "routes": [
        "771",
        "771A",
        "771B"
      ],
      "routeCount": 3,
      "routeSource": "gtfs",
      "routeUpdatedAt": "2026-06-14T16:43:44.802Z",
      "routeConfidence": "high"
    },
    {
      "id": 3315257173,
      "name": "女中路三段1",
      "type": "bus",
      "city": "宜蘭縣",
      "district": "宜蘭市",
      "lat": 24.7464,
      "lng": 121.7396306,
      "routes": [
        "771",
        "771A"
      ],
      "routeCount": 2,
      "routeSource": "gtfs",
      "routeUpdatedAt": "2026-06-14T16:06:29.492Z",
      "routeConfidence": "high"
    },
    {
      "id": 3315257175,
      "name": "女中路三段2",
      "type": "bus",
      "city": "宜蘭縣",
      "district": "宜蘭市",
      "lat": 24.7476374,
      "lng": 121.7354759,
      "routes": [
        "771",
        "771A",
        "771B"
      ],
      "routeCount": 3,
      "routeSource": "gtfs",
      "routeUpdatedAt": "2026-06-14T16:43:44.802Z",
      "routeConfidence": "high"
    },
    {
      "id": 3315257177,
      "name": "金六結",
      "type": "bus",
      "city": "宜蘭縣",
      "district": "宜蘭市",
      "lat": 24.7521437,
      "lng": 121.7378309,
      "routes": [
        "771",
        "771A",
        "771B"
      ],
      "routeCount": 3,
      "routeSource": "gtfs",
      "routeUpdatedAt": "2026-06-14T16:06:29.493Z",
      "routeConfidence": "high"
    },
    {
      "id": 3315268299,
      "name": "七結",
      "type": "bus",
      "city": "宜蘭縣",
      "district": "宜蘭市",
      "lat": 24.7490126,
      "lng": 121.7333292,
      "routes": [
        "722",
        "752"
      ],
      "routeCount": 2,
      "routeSource": "gtfs",
      "routeUpdatedAt": "2026-06-14T16:06:29.493Z",
      "routeConfidence": "high"
    },
    {
      "id": 5109038435,
      "name": "泰山路(光復國小)",
      "type": "bus",
      "city": "宜蘭縣",
      "district": "宜蘭市",
      "lat": 24.7544177,
      "lng": 121.7477216,
      "routes": [
        "1743",
        "1743A",
        "1744",
        "1751",
        "1785"
      ],
      "routeCount": 5,
      "routeSource": "gtfs",
      "routeUpdatedAt": "2026-06-14T16:43:44.802Z",
      "routeConfidence": "high"
    },
    {
      "id": 5109038437,
      "name": "負廓里",
      "type": "bus",
      "city": "宜蘭縣",
      "district": "宜蘭市",
      "lat": 24.7542484,
      "lng": 121.7436339,
      "routes": [
        "1743",
        "1743A",
        "1744",
        "1751",
        "1785"
      ],
      "routeCount": 5,
      "routeSource": "gtfs",
      "routeUpdatedAt": "2026-06-14T16:43:44.802Z",
      "routeConfidence": "high"
    },
    {
      "id": 5109038441,
      "name": "南屏國小",
      "type": "bus",
      "city": "宜蘭縣",
      "district": "宜蘭市",
      "lat": 24.7535103,
      "lng": 121.7423451,
      "routes": [
        "722",
        "752"
      ],
      "routeCount": 2,
      "routeSource": "gtfs",
      "routeUpdatedAt": "2026-06-14T16:43:44.802Z",
      "routeConfidence": "high"
    },
    {
      "id": 5109038443,
      "name": "金六結",
      "type": "bus",
      "city": "宜蘭縣",
      "district": "宜蘭市",
      "lat": 24.7519941,
      "lng": 121.7389655,
      "routes": [
        "722",
        "752",
        "771",
        "771A",
        "771B",
        "1743",
        "1743A",
        "1744",
        "1751",
        "1785"
      ],
      "routeCount": 10,
      "routeSource": "gtfs",
      "routeUpdatedAt": "2026-06-14T16:43:44.802Z",
      "routeConfidence": "high"
    },
    {
      "id": 5109042264,
      "name": "幸福轉運站",
      "type": "bus",
      "city": "宜蘭縣",
      "district": "宜蘭市",
      "lat": 24.7516056,
      "lng": 121.7562483,
      "routes": [
        "751",
        "781",
        "1743",
        "1743A",
        "1744",
        "1751",
        "1766",
        "1767",
        "1767A",
        "1785",
        "1786",
        "1787",
        "1788",
        "1789",
        "1790",
        "紅1",
        "黃1",
        "綠16"
      ],
      "routeCount": 18,
      "routeSource": "gtfs",
      "routeUpdatedAt": "2026-06-14T16:43:44.802Z",
      "routeConfidence": "high"
    },
    {
      "id": 5109042271,
      "name": "宜蘭中山公園",
      "type": "bus",
      "city": "宜蘭縣",
      "district": "宜蘭市",
      "lat": 24.75433,
      "lng": 121.7539631,
      "routes": [
        "722",
        "751",
        "772",
        "772A",
        "1743",
        "1743A",
        "1744",
        "1751",
        "1766",
        "1767",
        "1767A",
        "1785",
        "1786",
        "1789",
        "1790",
        "紅1",
        "黃1"
      ],
      "routeCount": 17,
      "routeSource": "gtfs",
      "routeUpdatedAt": "2026-06-14T16:43:44.803Z",
      "routeConfidence": "high"
    },
    {
      "id": 5109058964,
      "name": "宜蘭運動公園",
      "type": "bus",
      "city": "宜蘭縣",
      "district": "宜蘭市",
      "lat": 24.7402213,
      "lng": 121.7587937,
      "routes": [
        "271",
        "271A",
        "471",
        "772",
        "772A",
        "781",
        "1572",
        "1572A",
        "1766",
        "1767",
        "1767A",
        "1915",
        "1915A",
        "1915C",
        "紅2"
      ],
      "routeCount": 15,
      "routeSource": "gtfs",
      "routeUpdatedAt": "2026-06-14T16:43:44.803Z",
      "routeConfidence": "high"
    },
    {
      "id": 5109058966,
      "name": "三角",
      "type": "bus",
      "city": "宜蘭縣",
      "district": "宜蘭市",
      "lat": 24.7421762,
      "lng": 121.7566708,
      "routes": [
        "271",
        "271A",
        "471",
        "772",
        "772A",
        "781",
        "1766",
        "1767",
        "1767A",
        "紅2"
      ],
      "routeCount": 10,
      "routeSource": "gtfs",
      "routeUpdatedAt": "2026-06-14T16:43:44.803Z",
      "routeConfidence": "high"
    },
    {
      "id": 5109058969,
      "name": "綠九市場",
      "type": "bus",
      "city": "宜蘭縣",
      "district": "宜蘭市",
      "lat": 24.7491722,
      "lng": 121.7551982,
      "routes": [
        "771",
        "771A",
        "771B",
        "781",
        "1766",
        "1767",
        "1767A",
        "紅2"
      ],
      "routeCount": 8,
      "routeSource": "gtfs",
      "routeUpdatedAt": "2026-06-14T16:43:44.803Z",
      "routeConfidence": "high"
    },
    {
      "id": 5113096623,
      "name": "北橋頭",
      "type": "bus",
      "city": "宜蘭縣",
      "district": "宜蘭市",
      "lat": 24.7217829,
      "lng": 121.7700202,
      "routes": [
        "271",
        "271A",
        "471",
        "781",
        "1766",
        "1767",
        "1767A",
        "紅2"
      ],
      "routeCount": 8,
      "routeSource": "gtfs",
      "routeUpdatedAt": "2026-06-14T16:43:44.803Z",
      "routeConfidence": "high"
    },
    {
      "id": 5113096626,
      "name": "城仔",
      "type": "bus",
      "city": "宜蘭縣",
      "district": "宜蘭市",
      "lat": 24.7261805,
      "lng": 121.7672977,
      "routes": [
        "271",
        "271A",
        "471",
        "772",
        "772A",
        "781",
        "791",
        "1766",
        "1767",
        "1767A",
        "紅2"
      ],
      "routeCount": 11,
      "routeSource": "gtfs",
      "routeUpdatedAt": "2026-06-14T16:43:44.804Z",
      "routeConfidence": "high"
    },
    {
      "id": 5113096628,
      "name": "宜蘭縣政府",
      "type": "bus",
      "city": "宜蘭縣",
      "district": "宜蘭市",
      "lat": 24.7309873,
      "lng": 121.7646959,
      "routes": [
        "271",
        "271A",
        "471",
        "772",
        "772A",
        "781",
        "1572",
        "1572A",
        "1766",
        "1767",
        "1767A",
        "1915",
        "1915A",
        "1915C",
        "紅2"
      ],
      "routeCount": 15,
      "routeSource": "gtfs",
      "routeUpdatedAt": "2026-06-14T16:43:44.804Z",
      "routeConfidence": "high"
    },
    {
      "id": 5297323818,
      "name": "大坡(龍潭)",
      "type": "bus",
      "city": "宜蘭縣",
      "district": "宜蘭市",
      "lat": 24.7790696,
      "lng": 121.7411047,
      "routes": [
        "772",
        "772A",
        "黃1",
        "綠16"
      ],
      "routeCount": 4,
      "routeSource": "gtfs",
      "routeUpdatedAt": "2026-06-14T16:43:44.804Z",
      "routeConfidence": "high"
    },
    {
      "id": 5297323820,
      "name": "育龍路口",
      "type": "bus",
      "city": "宜蘭縣",
      "district": "宜蘭市",
      "lat": 24.7772539,
      "lng": 121.7437279,
      "routes": [
        "772",
        "772A",
        "綠16"
      ],
      "routeCount": 3,
      "routeSource": "gtfs",
      "routeUpdatedAt": "2026-06-14T16:43:44.804Z",
      "routeConfidence": "high"
    },
    {
      "id": 5297324822,
      "name": "新生國小",
      "type": "bus",
      "city": "宜蘭縣",
      "district": "宜蘭市",
      "lat": 24.7700154,
      "lng": 121.7550109,
      "routes": [
        "772",
        "772A",
        "黃1",
        "綠16"
      ],
      "routeCount": 4,
      "routeSource": "gtfs",
      "routeUpdatedAt": "2026-06-14T16:43:44.804Z",
      "routeConfidence": "high"
    },
    {
      "id": 5297324824,
      "name": "梅洲里",
      "type": "bus",
      "city": "宜蘭縣",
      "district": "宜蘭市",
      "lat": 24.7740404,
      "lng": 121.7481464,
      "routes": [
        "772",
        "772A",
        "黃1"
      ],
      "routeCount": 3,
      "routeSource": "gtfs",
      "routeUpdatedAt": "2026-06-14T16:43:44.804Z",
      "routeConfidence": "high"
    },
    {
      "id": 5658281760,
      "name": "宜蘭後火車站",
      "type": "bus",
      "city": "宜蘭縣",
      "district": "宜蘭市",
      "lat": 24.7541071,
      "lng": 121.7591116,
      "routes": [
        "771",
        "771A",
        "771B",
        "772",
        "772A",
        "793"
      ],
      "routeCount": 6,
      "routeSource": "gtfs",
      "routeUpdatedAt": "2026-06-14T16:43:44.804Z",
      "routeConfidence": "high"
    },
    {
      "id": 5658284323,
      "name": "宜蘭",
      "type": "train",
      "city": "宜蘭縣",
      "district": "宜蘭市",
      "lat": 24.7545601,
      "lng": 121.7583109
    },
    {
      "id": 5796424356,
      "name": "宜蘭市公所",
      "type": "bus",
      "city": "宜蘭縣",
      "district": "宜蘭市",
      "lat": 24.7520038,
      "lng": 121.7530002,
      "routes": [
        "752",
        "772",
        "772A",
        "791"
      ],
      "routeCount": 4,
      "routeSource": "gtfs",
      "routeUpdatedAt": "2026-06-14T16:43:44.804Z",
      "routeConfidence": "high"
    },
    {
      "id": 5796489380,
      "name": "第一銀行",
      "type": "bus",
      "city": "宜蘭縣",
      "district": "宜蘭市",
      "lat": 24.7572285,
      "lng": 121.7524892,
      "routes": [
        "371",
        "1766",
        "1767",
        "1767A",
        "1790",
        "紅1",
        "黃1"
      ],
      "routeCount": 7,
      "routeSource": "gtfs",
      "routeUpdatedAt": "2026-06-14T16:43:44.804Z",
      "routeConfidence": "high"
    },
    {
      "id": 5796508499,
      "name": "北門",
      "type": "bus",
      "city": "宜蘭縣",
      "district": "宜蘭市",
      "lat": 24.7593877,
      "lng": 121.7531919,
      "routes": [
        "371",
        "772",
        "772A",
        "1766",
        "1767",
        "1767A",
        "1790",
        "紅1",
        "黃1"
      ],
      "routeCount": 9,
      "routeSource": "gtfs",
      "routeUpdatedAt": "2026-06-14T16:43:44.804Z",
      "routeConfidence": "high"
    },
    {
      "id": 5796531159,
      "name": "河濱公園",
      "type": "bus",
      "city": "宜蘭縣",
      "district": "宜蘭市",
      "lat": 24.7640957,
      "lng": 121.754588,
      "routes": [
        "371",
        "772",
        "772A",
        "1766",
        "1767",
        "1767A",
        "紅1",
        "黃1"
      ],
      "routeCount": 8,
      "routeSource": "gtfs",
      "routeUpdatedAt": "2026-06-14T16:43:44.805Z",
      "routeConfidence": "high"
    },
    {
      "id": 5796531161,
      "name": "蘭陽別院",
      "type": "bus",
      "city": "宜蘭縣",
      "district": "宜蘭市",
      "lat": 24.7623969,
      "lng": 121.754124,
      "routes": [
        "371",
        "772",
        "772A",
        "1766",
        "1767",
        "1767A",
        "1790",
        "紅1",
        "黃1"
      ],
      "routeCount": 9,
      "routeSource": "gtfs",
      "routeUpdatedAt": "2026-06-14T16:43:44.805Z",
      "routeConfidence": "high"
    },
    {
      "id": 5796539377,
      "name": "新生里",
      "type": "bus",
      "city": "宜蘭縣",
      "district": "宜蘭市",
      "lat": 24.7683603,
      "lng": 121.75607,
      "routes": [
        "371",
        "772",
        "772A",
        "1766",
        "1767",
        "1767A",
        "1790",
        "紅1",
        "黃1"
      ],
      "routeCount": 9,
      "routeSource": "gtfs",
      "routeUpdatedAt": "2026-06-14T16:43:44.805Z",
      "routeConfidence": "high"
    },
    {
      "id": 5796586806,
      "name": "中山路五段",
      "type": "bus",
      "city": "宜蘭縣",
      "district": "宜蘭市",
      "lat": 24.7715081,
      "lng": 121.7571173,
      "routes": [
        "綠16"
      ],
      "routeCount": 1,
      "routeSource": "gtfs",
      "routeUpdatedAt": "2026-06-14T16:06:29.494Z",
      "routeConfidence": "high"
    },
    {
      "id": 5796611856,
      "name": "新生里活動中心",
      "type": "bus",
      "city": "宜蘭縣",
      "district": "宜蘭市",
      "lat": 24.7647996,
      "lng": 121.7639637,
      "routes": [
        "1790"
      ],
      "routeCount": 1,
      "routeSource": "gtfs",
      "routeUpdatedAt": "2026-06-14T16:43:44.805Z",
      "routeConfidence": "high"
    },
    {
      "id": 5796657703,
      "name": "新生橋",
      "type": "bus",
      "city": "宜蘭縣",
      "district": "宜蘭市",
      "lat": 24.7664399,
      "lng": 121.7688748,
      "routes": [
        "1790"
      ],
      "routeCount": 1,
      "routeSource": "gtfs",
      "routeUpdatedAt": "2026-06-14T16:43:44.805Z",
      "routeConfidence": "high"
    },
    {
      "id": 5796657705,
      "name": "巧仁宮",
      "type": "bus",
      "city": "宜蘭縣",
      "district": "宜蘭市",
      "lat": 24.7658115,
      "lng": 121.7668055,
      "routes": [
        "1790"
      ],
      "routeCount": 1,
      "routeSource": "gtfs",
      "routeUpdatedAt": "2026-06-14T16:43:44.805Z",
      "routeConfidence": "high"
    },
    {
      "id": 5801543353,
      "name": "台富",
      "type": "bus",
      "city": "宜蘭縣",
      "district": "宜蘭市",
      "lat": 24.7766041,
      "lng": 121.75861,
      "routes": [
        "371",
        "1766",
        "1767",
        "1767A",
        "紅1"
      ],
      "routeCount": 5,
      "routeSource": "gtfs",
      "routeUpdatedAt": "2026-06-14T16:43:44.805Z",
      "routeConfidence": "high"
    },
    {
      "id": 5801543355,
      "name": "吳沙路",
      "type": "bus",
      "city": "宜蘭縣",
      "district": "宜蘭市",
      "lat": 24.7734503,
      "lng": 121.7579797,
      "routes": [
        "371",
        "1766",
        "1767",
        "1767A",
        "紅1"
      ],
      "routeCount": 5,
      "routeSource": "gtfs",
      "routeUpdatedAt": "2026-06-14T16:43:44.805Z",
      "routeConfidence": "high"
    },
    {
      "id": 5801551434,
      "name": "一結",
      "type": "bus",
      "city": "宜蘭縣",
      "district": "宜蘭市",
      "lat": 24.7826752,
      "lng": 121.7604017,
      "routes": [
        "371",
        "1766",
        "1767",
        "1767A",
        "紅1"
      ],
      "routeCount": 5,
      "routeSource": "gtfs",
      "routeUpdatedAt": "2026-06-14T16:43:44.805Z",
      "routeConfidence": "high"
    },
    {
      "id": 5801551436,
      "name": "茭白里",
      "type": "bus",
      "city": "宜蘭縣",
      "district": "宜蘭市",
      "lat": 24.7798771,
      "lng": 121.7595649,
      "routes": [
        "371",
        "1766",
        "1767",
        "1767A",
        "紅1"
      ],
      "routeCount": 5,
      "routeSource": "gtfs",
      "routeUpdatedAt": "2026-06-14T16:43:44.805Z",
      "routeConfidence": "high"
    },
    {
      "id": 6511419030,
      "name": "宜蘭轉運站",
      "type": "bus",
      "city": "宜蘭縣",
      "district": "宜蘭市",
      "lat": 24.7511283,
      "lng": 121.7593313,
      "routes": [
        "472",
        "722",
        "751",
        "752",
        "753",
        "771",
        "771A",
        "771B",
        "772",
        "772A",
        "791",
        "793",
        "1571",
        "1571A",
        "1572",
        "1572A",
        "1661",
        "1661A",
        "1665",
        "1665A",
        "1743",
        "1743A",
        "1744",
        "1745",
        "1750",
        "1750A",
        "1751",
        "1766",
        "1767",
        "1767A",
        "1785",
        "1786",
        "1787",
        "1788",
        "1789",
        "1790",
        "1878",
        "1878A",
        "1878B",
        "1878C",
        "1915",
        "1915A",
        "1915C",
        "1916",
        "1916A",
        "紅1",
        "紅2",
        "黃1",
        "綠16",
        "綠18"
      ],
      "routeCount": 50,
      "routeSource": "gtfs",
      "routeUpdatedAt": "2026-06-14T16:43:44.806Z",
      "routeConfidence": "high"
    },
    {
      "id": 7112872586,
      "name": "七張橋",
      "type": "bus",
      "city": "宜蘭縣",
      "district": "宜蘭市",
      "lat": 24.7617317,
      "lng": 121.7784833,
      "routes": [
        "771",
        "771A",
        "771B"
      ],
      "routeCount": 3,
      "routeSource": "gtfs",
      "routeUpdatedAt": "2026-06-14T16:06:29.495Z",
      "routeConfidence": "high"
    },
    {
      "id": 7112872785,
      "name": "慈雲寺",
      "type": "bus",
      "city": "宜蘭縣",
      "district": "宜蘭市",
      "lat": 24.7648802,
      "lng": 121.7695604,
      "routes": [
        "771",
        "771A",
        "771B"
      ],
      "routeCount": 3,
      "routeSource": "gtfs",
      "routeUpdatedAt": "2026-06-14T16:43:44.806Z",
      "routeConfidence": "high"
    },
    {
      "id": 8388040214,
      "name": "進士路",
      "type": "bus",
      "city": "宜蘭縣",
      "district": "宜蘭市",
      "lat": 24.7434003,
      "lng": 121.7475848,
      "routes": [
        "771A"
      ],
      "routeCount": 1,
      "routeSource": "gtfs",
      "routeUpdatedAt": "2026-06-14T16:43:44.806Z",
      "routeConfidence": "high"
    },
    {
      "id": 8388040216,
      "name": "自強路",
      "type": "bus",
      "city": "宜蘭縣",
      "district": "宜蘭市",
      "lat": 24.742851,
      "lng": 121.7503716,
      "routes": [
        "753",
        "771A"
      ],
      "routeCount": 2,
      "routeSource": "gtfs",
      "routeUpdatedAt": "2026-06-14T16:43:44.807Z",
      "routeConfidence": "high"
    },
    {
      "id": 8388066818,
      "name": "健康路一段",
      "type": "bus",
      "city": "宜蘭縣",
      "district": "宜蘭市",
      "lat": 24.7441631,
      "lng": 121.7527836,
      "routes": [
        "753",
        "771A"
      ],
      "routeCount": 2,
      "routeSource": "gtfs",
      "routeUpdatedAt": "2026-06-14T16:43:44.807Z",
      "routeConfidence": "high"
    },
    {
      "id": 8388066821,
      "name": "陽大醫院(蘭陽院區)",
      "type": "bus",
      "city": "宜蘭縣",
      "district": "宜蘭市",
      "lat": 24.74935,
      "lng": 121.7582948,
      "routes": [
        "751",
        "752",
        "753",
        "771",
        "771A",
        "771B",
        "772",
        "772A",
        "791",
        "793",
        "黃1",
        "綠16"
      ],
      "routeCount": 12,
      "routeSource": "gtfs",
      "routeUpdatedAt": "2026-06-14T16:43:44.807Z",
      "routeConfidence": "high"
    },
    {
      "id": 8388066831,
      "name": "大樹公",
      "type": "bus",
      "city": "宜蘭縣",
      "district": "宜蘭市",
      "lat": 24.7562223,
      "lng": 121.7687098,
      "routes": [
        "771",
        "771A",
        "771B"
      ],
      "routeCount": 3,
      "routeSource": "gtfs",
      "routeUpdatedAt": "2026-06-14T16:43:44.807Z",
      "routeConfidence": "high"
    },
    {
      "id": 8388066834,
      "name": "延平路",
      "type": "bus",
      "city": "宜蘭縣",
      "district": "宜蘭市",
      "lat": 24.7573189,
      "lng": 121.7738952,
      "routes": [
        "771",
        "771A",
        "771B",
        "793"
      ],
      "routeCount": 4,
      "routeSource": "gtfs",
      "routeUpdatedAt": "2026-06-14T16:43:44.807Z",
      "routeConfidence": "high"
    },
    {
      "id": 8388066840,
      "name": "七張路",
      "type": "bus",
      "city": "宜蘭縣",
      "district": "宜蘭市",
      "lat": 24.7642198,
      "lng": 121.7719512,
      "routes": [
        "771",
        "771A",
        "771B"
      ],
      "routeCount": 3,
      "routeSource": "gtfs",
      "routeUpdatedAt": "2026-06-14T16:43:44.807Z",
      "routeConfidence": "high"
    },
    {
      "id": 8388066910,
      "name": "慈安路",
      "type": "bus",
      "city": "宜蘭縣",
      "district": "宜蘭市",
      "lat": 24.7595984,
      "lng": 121.7628935,
      "routes": [
        "771",
        "771A",
        "771B"
      ],
      "routeCount": 3,
      "routeSource": "gtfs",
      "routeUpdatedAt": "2026-06-14T16:43:44.807Z",
      "routeConfidence": "high"
    },
    {
      "id": 8391182131,
      "name": "縣政西路",
      "type": "bus",
      "city": "宜蘭縣",
      "district": "宜蘭市",
      "lat": 24.7303429,
      "lng": 121.7601509
    },
    {
      "id": 8391182132,
      "name": "宜蘭地檢署",
      "type": "bus",
      "city": "宜蘭縣",
      "district": "宜蘭市",
      "lat": 24.7275546,
      "lng": 121.7590499,
      "routes": [
        "772",
        "772A"
      ],
      "routeCount": 2,
      "routeSource": "gtfs",
      "routeUpdatedAt": "2026-06-14T16:43:44.807Z",
      "routeConfidence": "high"
    },
    {
      "id": 8391182134,
      "name": "凱旋國中",
      "type": "bus",
      "city": "宜蘭縣",
      "district": "宜蘭市",
      "lat": 24.7267238,
      "lng": 121.7565085,
      "routes": [
        "772",
        "772A"
      ],
      "routeCount": 2,
      "routeSource": "gtfs",
      "routeUpdatedAt": "2026-06-14T16:43:44.807Z",
      "routeConfidence": "high"
    },
    {
      "id": 8391182136,
      "name": "建蘭南路",
      "type": "bus",
      "city": "宜蘭縣",
      "district": "宜蘭市",
      "lat": 24.7235773,
      "lng": 121.7595085,
      "routes": [
        "772",
        "772A"
      ],
      "routeCount": 2,
      "routeSource": "gtfs",
      "routeUpdatedAt": "2026-06-14T16:43:44.807Z",
      "routeConfidence": "high"
    },
    {
      "id": 8391182138,
      "name": "凱旋國小",
      "type": "bus",
      "city": "宜蘭縣",
      "district": "宜蘭市",
      "lat": 24.7241486,
      "lng": 121.7629015,
      "routes": [
        "772"
      ],
      "routeCount": 1,
      "routeSource": "gtfs",
      "routeUpdatedAt": "2026-06-14T16:43:44.807Z",
      "routeConfidence": "high"
    },
    {
      "id": 8391182141,
      "name": "縣政一街",
      "type": "bus",
      "city": "宜蘭縣",
      "district": "宜蘭市",
      "lat": 24.728093,
      "lng": 121.7655757,
      "routes": [
        "772",
        "772A"
      ],
      "routeCount": 2,
      "routeSource": "gtfs",
      "routeUpdatedAt": "2026-06-14T16:43:44.807Z",
      "routeConfidence": "high"
    },
    {
      "id": 8391182142,
      "name": "宜蘭停管場",
      "type": "bus",
      "city": "宜蘭縣",
      "district": "宜蘭市",
      "lat": 24.7342651,
      "lng": 121.762231
    },
    {
      "id": 8391182144,
      "name": "凱旋路",
      "type": "bus",
      "city": "宜蘭縣",
      "district": "宜蘭市",
      "lat": 24.7382396,
      "lng": 121.7582318,
      "routes": [
        "772",
        "772A"
      ],
      "routeCount": 2,
      "routeSource": "gtfs",
      "routeUpdatedAt": "2026-06-14T16:43:44.807Z",
      "routeConfidence": "high"
    },
    {
      "id": 8391182147,
      "name": "農權路",
      "type": "bus",
      "city": "宜蘭縣",
      "district": "宜蘭市",
      "lat": 24.7466937,
      "lng": 121.7506787,
      "routes": [
        "772",
        "772A"
      ],
      "routeCount": 2,
      "routeSource": "gtfs",
      "routeUpdatedAt": "2026-06-14T16:43:44.807Z",
      "routeConfidence": "high"
    },
    {
      "id": 8391182166,
      "name": "新月廣場",
      "type": "bus",
      "city": "宜蘭縣",
      "district": "宜蘭市",
      "lat": 24.7536869,
      "lng": 121.7517717,
      "routes": [
        "751",
        "753",
        "772",
        "772A"
      ],
      "routeCount": 4,
      "routeSource": "gtfs",
      "routeUpdatedAt": "2026-06-14T16:43:44.807Z",
      "routeConfidence": "high"
    },
    {
      "id": 8391182168,
      "name": "舊城東路",
      "type": "bus",
      "city": "宜蘭縣",
      "district": "宜蘭市",
      "lat": 24.7564564,
      "lng": 121.7561021,
      "routes": [
        "772",
        "772A"
      ],
      "routeCount": 2,
      "routeSource": "gtfs",
      "routeUpdatedAt": "2026-06-14T16:43:44.807Z",
      "routeConfidence": "high"
    },
    {
      "id": 8391182170,
      "name": "陽大新民院區",
      "type": "bus",
      "city": "宜蘭縣",
      "district": "宜蘭市",
      "lat": 24.7575329,
      "lng": 121.7541347,
      "routes": [
        "752",
        "772",
        "772A",
        "791"
      ],
      "routeCount": 4,
      "routeSource": "gtfs",
      "routeUpdatedAt": "2026-06-14T16:43:44.808Z",
      "routeConfidence": "high"
    },
    {
      "id": 8399210544,
      "name": "凱旋尊邸",
      "type": "bus",
      "city": "宜蘭縣",
      "district": "宜蘭市",
      "lat": 24.7243533,
      "lng": 121.761995,
      "routes": [
        "772A"
      ],
      "routeCount": 1,
      "routeSource": "gtfs",
      "routeUpdatedAt": "2026-06-14T16:06:29.496Z",
      "routeConfidence": "high"
    },
    {
      "id": 8399210545,
      "name": "縣政二街",
      "type": "bus",
      "city": "宜蘭縣",
      "district": "宜蘭市",
      "lat": 24.7237406,
      "lng": 121.7663898,
      "routes": [
        "772A"
      ],
      "routeCount": 1,
      "routeSource": "gtfs",
      "routeUpdatedAt": "2026-06-14T16:43:44.808Z",
      "routeConfidence": "high"
    },
    {
      "id": 8399210546,
      "name": "環市南路",
      "type": "bus",
      "city": "宜蘭縣",
      "district": "宜蘭市",
      "lat": 24.7187216,
      "lng": 121.7664152,
      "routes": [
        "772A"
      ],
      "routeCount": 1,
      "routeSource": "gtfs",
      "routeUpdatedAt": "2026-06-14T16:43:44.808Z",
      "routeConfidence": "high"
    },
    {
      "id": 8399210547,
      "name": "南津路口",
      "type": "bus",
      "city": "宜蘭縣",
      "district": "宜蘭市",
      "lat": 24.7194574,
      "lng": 121.7637156,
      "routes": [
        "772A"
      ],
      "routeCount": 1,
      "routeSource": "gtfs",
      "routeUpdatedAt": "2026-06-14T16:43:44.808Z",
      "routeConfidence": "high"
    },
    {
      "id": 8399210616,
      "name": "大鵬新城",
      "type": "bus",
      "city": "宜蘭縣",
      "district": "宜蘭市",
      "lat": 24.7501745,
      "lng": 121.7538451,
      "routes": [
        "752",
        "772",
        "772A"
      ],
      "routeCount": 3,
      "routeSource": "gtfs",
      "routeUpdatedAt": "2026-06-14T16:06:29.497Z",
      "routeConfidence": "high"
    },
    {
      "id": 8399221523,
      "name": "女中路二段",
      "type": "bus",
      "city": "宜蘭縣",
      "district": "宜蘭市",
      "lat": 24.7448028,
      "lng": 121.7511079,
      "routes": [
        "753",
        "771",
        "771B",
        "772",
        "772A"
      ],
      "routeCount": 5,
      "routeSource": "gtfs",
      "routeUpdatedAt": "2026-06-14T16:43:44.808Z",
      "routeConfidence": "high"
    },
    {
      "id": 8401613829,
      "name": "南橋路",
      "type": "bus",
      "city": "宜蘭縣",
      "district": "宜蘭市",
      "lat": 24.732885,
      "lng": 121.7408015
    },
    {
      "id": 8401613857,
      "name": "進士里",
      "type": "bus",
      "city": "宜蘭縣",
      "district": "宜蘭市",
      "lat": 24.7359942,
      "lng": 121.7406667,
      "routes": [
        "751",
        "1786"
      ],
      "routeCount": 2,
      "routeSource": "gtfs",
      "routeUpdatedAt": "2026-06-14T16:43:44.808Z",
      "routeConfidence": "high"
    },
    {
      "id": 8401613860,
      "name": "鎮興廟",
      "type": "bus",
      "city": "宜蘭縣",
      "district": "宜蘭市",
      "lat": 24.7386915,
      "lng": 121.7443018,
      "routes": [
        "751",
        "753",
        "1786"
      ],
      "routeCount": 3,
      "routeSource": "gtfs",
      "routeUpdatedAt": "2026-06-14T16:43:44.808Z",
      "routeConfidence": "high"
    },
    {
      "id": 8401613887,
      "name": "自強路口",
      "type": "bus",
      "city": "宜蘭縣",
      "district": "宜蘭市",
      "lat": 24.7426233,
      "lng": 121.7474064,
      "routes": [
        "751",
        "753",
        "1786"
      ],
      "routeCount": 3,
      "routeSource": "gtfs",
      "routeUpdatedAt": "2026-06-14T16:43:44.808Z",
      "routeConfidence": "high"
    },
    {
      "id": 8401613889,
      "name": "普門診所",
      "type": "bus",
      "city": "宜蘭縣",
      "district": "宜蘭市",
      "lat": 24.7489858,
      "lng": 121.7502549,
      "routes": [
        "751",
        "753",
        "1786"
      ],
      "routeCount": 3,
      "routeSource": "gtfs",
      "routeUpdatedAt": "2026-06-14T16:43:44.808Z",
      "routeConfidence": "high"
    },
    {
      "id": 8402089889,
      "name": "金山東路",
      "type": "bus",
      "city": "宜蘭縣",
      "district": "宜蘭市",
      "lat": 24.7373468,
      "lng": 121.7376392,
      "routes": [
        "753"
      ],
      "routeCount": 1,
      "routeSource": "gtfs",
      "routeUpdatedAt": "2026-06-14T16:43:44.808Z",
      "routeConfidence": "high"
    },
    {
      "id": 8421908942,
      "name": "育才國小",
      "type": "bus",
      "city": "宜蘭縣",
      "district": "宜蘭市",
      "lat": 24.7336592,
      "lng": 121.7372886,
      "routes": [
        "1786"
      ],
      "routeCount": 1,
      "routeSource": "gtfs",
      "routeUpdatedAt": "2026-06-14T16:43:44.808Z",
      "routeConfidence": "high"
    },
    {
      "id": 8428317713,
      "name": "梅洲社區(慈航宮)",
      "type": "bus",
      "city": "宜蘭縣",
      "district": "宜蘭市",
      "lat": 24.7632713,
      "lng": 121.7441891,
      "routes": [
        "黃1"
      ],
      "routeCount": 1,
      "routeSource": "gtfs",
      "routeUpdatedAt": "2026-06-14T16:06:29.497Z",
      "routeConfidence": "high"
    },
    {
      "id": 8428317714,
      "name": "文昌宮",
      "type": "bus",
      "city": "宜蘭縣",
      "district": "宜蘭市",
      "lat": 24.7579969,
      "lng": 121.750955
    },
    {
      "id": 8428317721,
      "name": "青果市場",
      "type": "bus",
      "city": "宜蘭縣",
      "district": "宜蘭市",
      "lat": 24.7377463,
      "lng": 121.7770301
    },
    {
      "id": 8428318062,
      "name": "五大楓林",
      "type": "bus",
      "city": "宜蘭縣",
      "district": "宜蘭市",
      "lat": 24.7479031,
      "lng": 121.782318,
      "routes": [
        "791",
        "1787",
        "1788"
      ],
      "routeCount": 3,
      "routeSource": "gtfs",
      "routeUpdatedAt": "2026-06-14T16:43:44.808Z",
      "routeConfidence": "high"
    },
    {
      "id": 8428318064,
      "name": "帝爺廟",
      "type": "bus",
      "city": "宜蘭縣",
      "district": "宜蘭市",
      "lat": 24.7493561,
      "lng": 121.7779849,
      "routes": [
        "791"
      ],
      "routeCount": 1,
      "routeSource": "gtfs",
      "routeUpdatedAt": "2026-06-14T16:06:29.497Z",
      "routeConfidence": "high"
    },
    {
      "id": 8428318066,
      "name": "黎明村",
      "type": "bus",
      "city": "宜蘭縣",
      "district": "宜蘭市",
      "lat": 24.7503852,
      "lng": 121.7731435,
      "routes": [
        "791",
        "1787",
        "1788"
      ],
      "routeCount": 3,
      "routeSource": "gtfs",
      "routeUpdatedAt": "2026-06-14T16:43:44.808Z",
      "routeConfidence": "high"
    },
    {
      "id": 8428318068,
      "name": "中華國中",
      "type": "bus",
      "city": "宜蘭縣",
      "district": "宜蘭市",
      "lat": 24.7515434,
      "lng": 121.7676182,
      "routes": [
        "791",
        "1787",
        "1788"
      ],
      "routeCount": 3,
      "routeSource": "gtfs",
      "routeUpdatedAt": "2026-06-14T16:43:44.808Z",
      "routeConfidence": "high"
    },
    {
      "id": 11090889503,
      "name": "亞典蛋糕",
      "type": "bus",
      "city": "宜蘭縣",
      "district": "宜蘭市",
      "lat": 24.7809562,
      "lng": 121.7316937,
      "routes": [
        "綠16"
      ],
      "routeCount": 1,
      "routeSource": "gtfs",
      "routeUpdatedAt": "2026-06-14T16:43:44.808Z",
      "routeConfidence": "high"
    },
    {
      "id": 11090904842,
      "name": "橘之鄉",
      "type": "bus",
      "city": "宜蘭縣",
      "district": "宜蘭市",
      "lat": 24.7803398,
      "lng": 121.736632,
      "routes": [
        "綠16"
      ],
      "routeCount": 1,
      "routeSource": "gtfs",
      "routeUpdatedAt": "2026-06-14T16:43:44.808Z",
      "routeConfidence": "high"
    },
    {
      "id": 11100879896,
      "name": "勞工住宅",
      "type": "bus",
      "city": "宜蘭縣",
      "district": "宜蘭市",
      "lat": 24.7596166,
      "lng": 121.7394362
    },
    {
      "id": 11100879900,
      "name": "三清路",
      "type": "bus",
      "city": "宜蘭縣",
      "district": "宜蘭市",
      "lat": 24.7560094,
      "lng": 121.7483211,
      "routes": [
        "1789"
      ],
      "routeCount": 1,
      "routeSource": "gtfs",
      "routeUpdatedAt": "2026-06-14T16:43:44.808Z",
      "routeConfidence": "high"
    },
    {
      "id": 11407243088,
      "name": "宜興路三段",
      "type": "bus",
      "city": "宜蘭縣",
      "district": "宜蘭市",
      "lat": 24.7682005,
      "lng": 121.7602526,
      "routes": [
        "綠16"
      ],
      "routeCount": 1,
      "routeSource": "gtfs",
      "routeUpdatedAt": "2026-06-14T16:06:29.497Z",
      "routeConfidence": "high"
    },
    {
      "id": 11407243095,
      "name": "菌寶貝",
      "type": "bus",
      "city": "宜蘭縣",
      "district": "宜蘭市",
      "lat": 24.7762154,
      "lng": 121.735446,
      "routes": [
        "綠16"
      ],
      "routeCount": 1,
      "routeSource": "gtfs",
      "routeUpdatedAt": "2026-06-14T16:43:44.808Z",
      "routeConfidence": "high"
    },
    {
      "id": 11407468148,
      "name": "陽明二路",
      "type": "bus",
      "city": "宜蘭縣",
      "district": "宜蘭市",
      "lat": 24.7491636,
      "lng": 121.7642374,
      "routes": [
        "771A"
      ],
      "routeCount": 1,
      "routeSource": "gtfs",
      "routeUpdatedAt": "2026-06-14T16:43:44.808Z",
      "routeConfidence": "high"
    },
    {
      "id": 11409678394,
      "name": "竹篙厝",
      "type": "bus",
      "city": "宜蘭縣",
      "district": "宜蘭市",
      "lat": 24.753798,
      "lng": 121.7493987,
      "routes": [
        "752"
      ],
      "routeCount": 1,
      "routeSource": "gtfs",
      "routeUpdatedAt": "2026-06-14T16:43:44.808Z",
      "routeConfidence": "high"
    },
    {
      "id": 13788612002,
      "name": "公車站",
      "type": "bus",
      "city": "宜蘭縣",
      "district": "宜蘭市",
      "lat": 24.7523203,
      "lng": 121.758836
    },
    {
      "id": 1021603320,
      "name": "新宜蘭轉運站",
      "type": "bus_station",
      "city": "宜蘭縣",
      "district": "宜蘭市",
      "lat": 24.7511144,
      "lng": 121.7590694,
      "routes": [
        "472",
        "722",
        "751",
        "752",
        "753",
        "771",
        "771A",
        "771B",
        "772",
        "772A",
        "791",
        "793",
        "1571",
        "1571A",
        "1572",
        "1572A",
        "1661",
        "1661A",
        "1665",
        "1665A",
        "1743",
        "1743A",
        "1744",
        "1745",
        "1750",
        "1750A",
        "1751",
        "1766",
        "1767",
        "1767A",
        "1785",
        "1786",
        "1787",
        "1788",
        "1789",
        "1790",
        "1878",
        "1878A",
        "1878B",
        "1878C",
        "1915",
        "1915A",
        "1915C",
        "1916",
        "1916A",
        "紅1",
        "紅2",
        "黃1",
        "綠16",
        "綠18"
      ],
      "routeCount": 50,
      "routeSource": "gtfs",
      "routeUpdatedAt": "2026-06-14T16:43:44.811Z",
      "routeConfidence": "high"
    },
    {
      "id": 289440212,
      "name": "羅東",
      "type": "train",
      "city": "宜蘭縣",
      "district": "羅東鎮",
      "lat": 24.6779776,
      "lng": 121.7745987
    },
    {
      "id": 2536754292,
      "name": "羅東站",
      "type": "bus",
      "city": "宜蘭縣",
      "district": "羅東鎮",
      "lat": 24.6770801,
      "lng": 121.7775059
    },
    {
      "id": 5113128528,
      "name": "公車站",
      "type": "bus",
      "city": "宜蘭縣",
      "district": "羅東鎮",
      "lat": 24.6765872,
      "lng": 121.7715034
    },
    {
      "id": 5113128535,
      "name": "羅東林場",
      "type": "bus",
      "city": "宜蘭縣",
      "district": "羅東鎮",
      "lat": 24.6863358,
      "lng": 121.7707846,
      "routes": [
        "271",
        "271A",
        "471",
        "1766",
        "紅2"
      ],
      "routeCount": 5,
      "routeSource": "gtfs",
      "routeUpdatedAt": "2026-06-14T16:43:44.813Z",
      "routeConfidence": "high"
    },
    {
      "id": 5113130709,
      "name": "羅東夜市(中山公園)",
      "type": "bus",
      "city": "宜蘭縣",
      "district": "羅東鎮",
      "lat": 24.6765859,
      "lng": 121.7679119,
      "routes": [
        "202",
        "245",
        "271",
        "271A",
        "281",
        "281A",
        "471",
        "621",
        "1745",
        "1750",
        "1764",
        "1766",
        "1767A",
        "1792",
        "1792A",
        "1792C",
        "1793",
        "1795",
        "1795A",
        "1795B",
        "1795D",
        "1795E",
        "1796",
        "1798",
        "1798A",
        "紅2"
      ],
      "routeCount": 26,
      "routeSource": "gtfs",
      "routeUpdatedAt": "2026-06-14T16:43:44.813Z",
      "routeConfidence": "high"
    },
    {
      "id": 5113153690,
      "name": "公車站",
      "type": "bus",
      "city": "宜蘭縣",
      "district": "羅東鎮",
      "lat": 24.6716711,
      "lng": 121.7946455
    },
    {
      "id": 5113153695,
      "name": "東安社區",
      "type": "bus",
      "city": "宜蘭縣",
      "district": "羅東鎮",
      "lat": 24.6749907,
      "lng": 121.7758888,
      "routes": [
        "281",
        "281A",
        "羅東1",
        "羅東3"
      ],
      "routeCount": 4,
      "routeSource": "gtfs",
      "routeUpdatedAt": "2026-06-14T16:43:44.814Z",
      "routeConfidence": "high"
    },
    {
      "id": 5796334531,
      "name": "聖母醫院",
      "type": "bus",
      "city": "宜蘭縣",
      "district": "羅東鎮",
      "lat": 24.6710422,
      "lng": 121.7709777,
      "routes": [
        "121",
        "245",
        "271",
        "271A",
        "471",
        "1766",
        "1794C",
        "冬山1",
        "冬山2",
        "紅2"
      ],
      "routeCount": 10,
      "routeSource": "gtfs",
      "routeUpdatedAt": "2026-06-14T16:43:44.814Z",
      "routeConfidence": "high"
    },
    {
      "id": 5796334536,
      "name": "羅莊社區2站",
      "type": "bus",
      "city": "宜蘭縣",
      "district": "羅東鎮",
      "lat": 24.6729434,
      "lng": 121.7775357,
      "routes": [
        "271",
        "271A",
        "471",
        "1766",
        "紅2"
      ],
      "routeCount": 5,
      "routeSource": "gtfs",
      "routeUpdatedAt": "2026-06-14T16:43:44.814Z",
      "routeConfidence": "high"
    },
    {
      "id": 5796334537,
      "name": "羅莊社區1站",
      "type": "bus",
      "city": "宜蘭縣",
      "district": "羅東鎮",
      "lat": 24.6729634,
      "lng": 121.7778233,
      "routes": [
        "271",
        "271A",
        "471",
        "1766",
        "紅2"
      ],
      "routeCount": 5,
      "routeSource": "gtfs",
      "routeUpdatedAt": "2026-06-14T16:43:44.814Z",
      "routeConfidence": "high"
    },
    {
      "id": 5796351775,
      "name": "竹林",
      "type": "bus",
      "city": "宜蘭縣",
      "district": "羅東鎮",
      "lat": 24.6849686,
      "lng": 121.7706317,
      "routes": [
        "271",
        "271A",
        "471",
        "1766",
        "紅2"
      ],
      "routeCount": 5,
      "routeSource": "gtfs",
      "routeUpdatedAt": "2026-06-14T16:43:44.814Z",
      "routeConfidence": "high"
    },
    {
      "id": 5796351777,
      "name": "復興路口",
      "type": "bus",
      "city": "宜蘭縣",
      "district": "羅東鎮",
      "lat": 24.6819368,
      "lng": 121.769658,
      "routes": [
        "271",
        "271A",
        "471",
        "1766",
        "紅2"
      ],
      "routeCount": 5,
      "routeSource": "gtfs",
      "routeUpdatedAt": "2026-06-14T16:43:44.814Z",
      "routeConfidence": "high"
    },
    {
      "id": 5796351782,
      "name": "開元市場",
      "type": "bus",
      "city": "宜蘭縣",
      "district": "羅東鎮",
      "lat": 24.6737221,
      "lng": 121.7707886,
      "routes": [
        "羅東1",
        "羅東2"
      ],
      "routeCount": 2,
      "routeSource": "gtfs",
      "routeUpdatedAt": "2026-06-14T16:43:44.814Z",
      "routeConfidence": "high"
    },
    {
      "id": 1313144607,
      "name": "羅東轉運站",
      "type": "bus_station",
      "city": "宜蘭縣",
      "district": "羅東鎮",
      "lat": 24.6772184,
      "lng": 121.7788646,
      "routes": [
        "121",
        "202",
        "243",
        "243A",
        "243B",
        "271",
        "271A",
        "281",
        "281A",
        "621",
        "722",
        "1570",
        "1570A",
        "1572",
        "1572A",
        "1661",
        "1661A",
        "1745",
        "1750",
        "1750A",
        "1764",
        "1766",
        "1791",
        "1792",
        "1792A",
        "1792C",
        "1793",
        "1794",
        "1794A",
        "1794B",
        "1794C",
        "1795",
        "1795A",
        "1795B",
        "1795D",
        "1795E",
        "1796",
        "1797",
        "1797A",
        "1798",
        "1798A",
        "1879",
        "1879A",
        "1879C",
        "1879D",
        "1915",
        "1915A",
        "1915C",
        "1917",
        "1917A",
        "1917B",
        "9028",
        "9028B",
        "9028D",
        "紅2",
        "紅線",
        "綠21",
        "綠21A",
        "綠21B",
        "綠線"
      ],
      "routeCount": 60,
      "routeSource": "gtfs",
      "routeUpdatedAt": "2026-06-14T16:43:44.816Z",
      "routeConfidence": "high"
    },
    {
      "id": 6810760553,
      "name": "羅東高中",
      "type": "bus",
      "city": "宜蘭縣",
      "district": "羅東鎮",
      "lat": 24.6806354,
      "lng": 121.7618904,
      "routes": [
        "1767A",
        "冬山2",
        "羅東1"
      ],
      "routeCount": 3,
      "routeSource": "gtfs",
      "routeUpdatedAt": "2026-06-14T16:43:44.816Z",
      "routeConfidence": "high"
    },
    {
      "id": 6810760557,
      "name": "公正國小",
      "type": "bus",
      "city": "宜蘭縣",
      "district": "羅東鎮",
      "lat": 24.6793936,
      "lng": 121.7666109,
      "routes": [
        "281",
        "281A",
        "1794",
        "1794A",
        "1794B",
        "1794C",
        "冬山2",
        "綠21",
        "綠21B",
        "羅東1"
      ],
      "routeCount": 10,
      "routeSource": "gtfs",
      "routeUpdatedAt": "2026-06-14T16:43:44.816Z",
      "routeConfidence": "high"
    },
    {
      "id": 6810773300,
      "name": "羅東運動公園",
      "type": "bus",
      "city": "宜蘭縣",
      "district": "羅東鎮",
      "lat": 24.6802028,
      "lng": 121.7534401,
      "routes": [
        "冬山2"
      ],
      "routeCount": 1,
      "routeSource": "gtfs",
      "routeUpdatedAt": "2026-06-14T16:43:44.816Z",
      "routeConfidence": "high"
    },
    {
      "id": 6810773302,
      "name": "北城公園 (觀天下)",
      "type": "bus",
      "city": "宜蘭縣",
      "district": "羅東鎮",
      "lat": 24.6791085,
      "lng": 121.755905,
      "routes": [
        "綠21",
        "綠21B"
      ],
      "routeCount": 2,
      "routeSource": "gtfs",
      "routeUpdatedAt": "2026-06-14T16:43:44.816Z",
      "routeConfidence": "high"
    },
    {
      "id": 6810846798,
      "name": "林業園區",
      "type": "bus",
      "city": "宜蘭縣",
      "district": "羅東鎮",
      "lat": 24.6802593,
      "lng": 121.7723078,
      "routes": [
        "羅東2",
        "羅東3"
      ],
      "routeCount": 2,
      "routeSource": "gtfs",
      "routeUpdatedAt": "2026-06-14T16:43:44.816Z",
      "routeConfidence": "high"
    },
    {
      "id": 6810846800,
      "name": "興東倉前",
      "type": "bus",
      "city": "宜蘭縣",
      "district": "羅東鎮",
      "lat": 24.6807572,
      "lng": 121.7696285,
      "routes": [
        "羅東2"
      ],
      "routeCount": 1,
      "routeSource": "gtfs",
      "routeUpdatedAt": "2026-06-14T16:06:29.501Z",
      "routeConfidence": "high"
    },
    {
      "id": 6810846802,
      "name": "倉前路(羅東林業園區)",
      "type": "bus",
      "city": "宜蘭縣",
      "district": "羅東鎮",
      "lat": 24.6804148,
      "lng": 121.7710588,
      "routes": [
        "1791",
        "1797",
        "1797A"
      ],
      "routeCount": 3,
      "routeSource": "gtfs",
      "routeUpdatedAt": "2026-06-14T16:43:44.816Z",
      "routeConfidence": "high"
    },
    {
      "id": 6810846806,
      "name": "倉前寶雅",
      "type": "bus",
      "city": "宜蘭縣",
      "district": "羅東鎮",
      "lat": 24.6811923,
      "lng": 121.7686609,
      "routes": [
        "羅東3"
      ],
      "routeCount": 1,
      "routeSource": "gtfs",
      "routeUpdatedAt": "2026-06-14T16:06:29.501Z",
      "routeConfidence": "high"
    },
    {
      "id": 6810846808,
      "name": "公車站",
      "type": "bus",
      "city": "宜蘭縣",
      "district": "羅東鎮",
      "lat": 24.6848443,
      "lng": 121.7674747
    },
    {
      "id": 6810846811,
      "name": "公正路口",
      "type": "bus",
      "city": "宜蘭縣",
      "district": "羅東鎮",
      "lat": 24.680555,
      "lng": 121.7645162,
      "routes": [
        "421A",
        "722",
        "781",
        "1767"
      ],
      "routeCount": 4,
      "routeSource": "gtfs",
      "routeUpdatedAt": "2026-06-14T16:43:44.816Z",
      "routeConfidence": "high"
    },
    {
      "id": 6818686875,
      "name": "仁愛活動中心",
      "type": "bus",
      "city": "宜蘭縣",
      "district": "羅東鎮",
      "lat": 24.7015447,
      "lng": 121.7565018,
      "routes": [
        "1794",
        "1794A",
        "1794B",
        "1794C",
        "羅東3"
      ],
      "routeCount": 5,
      "routeSource": "gtfs",
      "routeUpdatedAt": "2026-06-14T16:43:44.816Z",
      "routeConfidence": "high"
    },
    {
      "id": 6818687978,
      "name": "仁愛里",
      "type": "bus",
      "city": "宜蘭縣",
      "district": "羅東鎮",
      "lat": 24.6981965,
      "lng": 121.7591089,
      "routes": [
        "1794",
        "1794A",
        "1794B",
        "1794C"
      ],
      "routeCount": 4,
      "routeSource": "gtfs",
      "routeUpdatedAt": "2026-06-14T16:43:44.817Z",
      "routeConfidence": "high"
    },
    {
      "id": 6818687984,
      "name": "仁愛新村",
      "type": "bus",
      "city": "宜蘭縣",
      "district": "羅東鎮",
      "lat": 24.6950627,
      "lng": 121.7610481,
      "routes": [
        "1794",
        "1794A",
        "1794B",
        "1794C"
      ],
      "routeCount": 4,
      "routeSource": "gtfs",
      "routeUpdatedAt": "2026-06-14T16:43:44.817Z",
      "routeConfidence": "high"
    },
    {
      "id": 6818829869,
      "name": "救安宮",
      "type": "bus",
      "city": "宜蘭縣",
      "district": "羅東鎮",
      "lat": 24.6724973,
      "lng": 121.7891952,
      "routes": [
        "羅東2"
      ],
      "routeCount": 1,
      "routeSource": "gtfs",
      "routeUpdatedAt": "2026-06-14T16:06:29.501Z",
      "routeConfidence": "high"
    },
    {
      "id": 6818829881,
      "name": "中山西路",
      "type": "bus",
      "city": "宜蘭縣",
      "district": "羅東鎮",
      "lat": 24.6749371,
      "lng": 121.7638698,
      "routes": [
        "722",
        "1767",
        "1767A"
      ],
      "routeCount": 3,
      "routeSource": "gtfs",
      "routeUpdatedAt": "2026-06-14T16:43:44.817Z",
      "routeConfidence": "high"
    },
    {
      "id": 6818829883,
      "name": "民生路口",
      "type": "bus",
      "city": "宜蘭縣",
      "district": "羅東鎮",
      "lat": 24.6775084,
      "lng": 121.7637867,
      "routes": [
        "722",
        "1767",
        "1767A"
      ],
      "routeCount": 3,
      "routeSource": "gtfs",
      "routeUpdatedAt": "2026-06-14T16:43:44.817Z",
      "routeConfidence": "high"
    },
    {
      "id": 8357323675,
      "name": "電信局",
      "type": "bus",
      "city": "宜蘭縣",
      "district": "羅東鎮",
      "lat": 24.6782615,
      "lng": 121.7709602,
      "routes": [
        "202",
        "1791",
        "1792",
        "1792A",
        "1792C",
        "1793",
        "1794",
        "1794A",
        "1794B",
        "1794C",
        "1795",
        "1795A",
        "1795B",
        "1795D",
        "1795E",
        "1796",
        "1797",
        "1797A",
        "1798",
        "1798A"
      ],
      "routeCount": 20,
      "routeSource": "gtfs",
      "routeUpdatedAt": "2026-06-14T16:43:44.817Z",
      "routeConfidence": "high"
    },
    {
      "id": 8357323722,
      "name": "羅東火車站",
      "type": "bus",
      "city": "宜蘭縣",
      "district": "羅東鎮",
      "lat": 24.677913,
      "lng": 121.7731073,
      "routes": [
        "202",
        "1791",
        "1792",
        "1792A",
        "1792C",
        "1793",
        "1794",
        "1794A",
        "1794B",
        "1795",
        "1795A",
        "1795B",
        "1795D",
        "1795E",
        "1796",
        "1797",
        "1797A",
        "1798",
        "1798A",
        "冬山2",
        "橘線"
      ],
      "routeCount": 21,
      "routeSource": "gtfs",
      "routeUpdatedAt": "2026-06-14T16:43:44.818Z",
      "routeConfidence": "high"
    },
    {
      "id": 9481231331,
      "name": "仁愛醫院",
      "type": "bus",
      "city": "宜蘭縣",
      "district": "羅東鎮",
      "lat": 24.6725498,
      "lng": 121.770106
    },
    {
      "id": 9481231332,
      "name": "清水橋",
      "type": "bus",
      "city": "宜蘭縣",
      "district": "羅東鎮",
      "lat": 24.6892968,
      "lng": 121.7702267,
      "routes": [
        "271",
        "271A",
        "471",
        "621",
        "781",
        "1766",
        "1767",
        "1767A",
        "紅2"
      ],
      "routeCount": 9,
      "routeSource": "gtfs",
      "routeUpdatedAt": "2026-06-14T16:43:44.818Z",
      "routeConfidence": "high"
    },
    {
      "id": 9500049841,
      "name": "興安宮",
      "type": "bus",
      "city": "宜蘭縣",
      "district": "羅東鎮",
      "lat": 24.6789964,
      "lng": 121.7539805,
      "routes": [
        "羅東1"
      ],
      "routeCount": 1,
      "routeSource": "gtfs",
      "routeUpdatedAt": "2026-06-14T16:06:29.502Z",
      "routeConfidence": "high"
    },
    {
      "id": 9500049843,
      "name": "北成國小",
      "type": "bus",
      "city": "宜蘭縣",
      "district": "羅東鎮",
      "lat": 24.6756963,
      "lng": 121.7585818,
      "routes": [
        "羅東1"
      ],
      "routeCount": 1,
      "routeSource": "gtfs",
      "routeUpdatedAt": "2026-06-14T16:06:29.502Z",
      "routeConfidence": "high"
    },
    {
      "id": 9500049845,
      "name": "東光國中",
      "type": "bus",
      "city": "宜蘭縣",
      "district": "羅東鎮",
      "lat": 24.6717454,
      "lng": 121.7678556,
      "routes": [
        "羅東2"
      ],
      "routeCount": 1,
      "routeSource": "gtfs",
      "routeUpdatedAt": "2026-06-14T16:06:29.502Z",
      "routeConfidence": "high"
    },
    {
      "id": 9500049847,
      "name": "成功派出所",
      "type": "bus",
      "city": "宜蘭縣",
      "district": "羅東鎮",
      "lat": 24.6730299,
      "lng": 121.7662624,
      "routes": [
        "202",
        "1792",
        "1792A",
        "1792C",
        "1793",
        "1795",
        "1795A",
        "1795B",
        "1795D",
        "1795E",
        "1796",
        "1798",
        "1798A",
        "橘線"
      ],
      "routeCount": 14,
      "routeSource": "gtfs",
      "routeUpdatedAt": "2026-06-14T16:43:44.818Z",
      "routeConfidence": "high"
    },
    {
      "id": 9500049849,
      "name": "文化工場",
      "type": "bus",
      "city": "宜蘭縣",
      "district": "羅東鎮",
      "lat": 24.672861,
      "lng": 121.764738,
      "routes": [
        "羅東3"
      ],
      "routeCount": 1,
      "routeSource": "gtfs",
      "routeUpdatedAt": "2026-06-14T16:06:29.503Z",
      "routeConfidence": "high"
    },
    {
      "id": 9500049851,
      "name": "維揚路",
      "type": "bus",
      "city": "宜蘭縣",
      "district": "羅東鎮",
      "lat": 24.6722036,
      "lng": 121.7622659,
      "routes": [
        "202",
        "722",
        "1745",
        "1750",
        "1764",
        "1792",
        "1792A",
        "1792C",
        "1793",
        "1795",
        "1795A",
        "1795B",
        "1795D",
        "1795E",
        "1796",
        "1798",
        "1798A"
      ],
      "routeCount": 17,
      "routeSource": "gtfs",
      "routeUpdatedAt": "2026-06-14T16:43:44.818Z",
      "routeConfidence": "high"
    },
    {
      "id": 9500049853,
      "name": "羅東養護所",
      "type": "bus",
      "city": "宜蘭縣",
      "district": "羅東鎮",
      "lat": 24.671793,
      "lng": 121.7599779,
      "routes": [
        "722",
        "1792",
        "1792A",
        "1792C",
        "1793",
        "1795",
        "1795A",
        "1795B",
        "1795D",
        "1795E",
        "1796",
        "1798",
        "1798A"
      ],
      "routeCount": 13,
      "routeSource": "gtfs",
      "routeUpdatedAt": "2026-06-14T16:43:44.819Z",
      "routeConfidence": "high"
    },
    {
      "id": 9500049855,
      "name": "羅東高商",
      "type": "bus",
      "city": "宜蘭縣",
      "district": "羅東鎮",
      "lat": 24.6726655,
      "lng": 121.7568867,
      "routes": [
        "281",
        "281A",
        "421A",
        "422",
        "781"
      ],
      "routeCount": 5,
      "routeSource": "gtfs",
      "routeUpdatedAt": "2026-06-14T16:43:44.819Z",
      "routeConfidence": "high"
    },
    {
      "id": 9500049857,
      "name": "北成",
      "type": "bus",
      "city": "宜蘭縣",
      "district": "羅東鎮",
      "lat": 24.6723085,
      "lng": 121.7566279,
      "routes": [
        "202",
        "243A",
        "722",
        "1792",
        "1792A",
        "1792C",
        "1793",
        "1795",
        "1795A",
        "1795B",
        "1795D",
        "1795E",
        "1796",
        "1798",
        "1798A"
      ],
      "routeCount": 15,
      "routeSource": "gtfs",
      "routeUpdatedAt": "2026-06-14T16:43:44.819Z",
      "routeConfidence": "high"
    },
    {
      "id": 9500049905,
      "name": "竹林國小",
      "type": "bus",
      "city": "宜蘭縣",
      "district": "羅東鎮",
      "lat": 24.6885718,
      "lng": 121.765628,
      "routes": [
        "1794",
        "1794A",
        "1794B",
        "1794C",
        "羅東3"
      ],
      "routeCount": 5,
      "routeSource": "gtfs",
      "routeUpdatedAt": "2026-06-14T16:43:44.819Z",
      "routeConfidence": "high"
    },
    {
      "id": 9500049908,
      "name": "永和寺",
      "type": "bus",
      "city": "宜蘭縣",
      "district": "羅東鎮",
      "lat": 24.692415,
      "lng": 121.7633589,
      "routes": [
        "羅東3"
      ],
      "routeCount": 1,
      "routeSource": "gtfs",
      "routeUpdatedAt": "2026-06-14T16:43:44.819Z",
      "routeConfidence": "high"
    },
    {
      "id": 9500049910,
      "name": "清水溝",
      "type": "bus",
      "city": "宜蘭縣",
      "district": "羅東鎮",
      "lat": 24.6920007,
      "lng": 121.7636298,
      "routes": [
        "1794",
        "1794A",
        "1794B",
        "1794C"
      ],
      "routeCount": 4,
      "routeSource": "gtfs",
      "routeUpdatedAt": "2026-06-14T16:43:44.819Z",
      "routeConfidence": "high"
    },
    {
      "id": 11412006692,
      "name": "羅東轉運站(市區公車)",
      "type": "bus",
      "city": "宜蘭縣",
      "district": "羅東鎮",
      "lat": 24.6779016,
      "lng": 121.7754494
    },
    {
      "id": 12206492355,
      "name": "漢民里",
      "type": "bus",
      "city": "宜蘭縣",
      "district": "羅東鎮",
      "lat": 24.6767908,
      "lng": 121.7633942,
      "routes": [
        "722"
      ],
      "routeCount": 1,
      "routeSource": "gtfs",
      "routeUpdatedAt": "2026-06-14T16:06:29.504Z",
      "routeConfidence": "high"
    },
    {
      "id": 3201143647,
      "name": "南澳火車站",
      "type": "bus",
      "city": "宜蘭縣",
      "district": "蘇澳鎮",
      "lat": 24.4637776,
      "lng": 121.8006132,
      "routes": [
        "東澳線（紫線）A",
        "南澳線"
      ],
      "routeCount": 2,
      "routeSource": "gtfs",
      "routeUpdatedAt": "2026-06-14T16:43:44.820Z",
      "routeConfidence": "high"
    },
    {
      "id": 3949466804,
      "name": "永樂",
      "type": "train",
      "city": "宜蘭縣",
      "district": "蘇澳鎮",
      "lat": 24.5683884,
      "lng": 121.8445574
    },
    {
      "id": 3951206308,
      "name": "南澳",
      "type": "train",
      "city": "宜蘭縣",
      "district": "蘇澳鎮",
      "lat": 24.463079,
      "lng": 121.8013418
    },
    {
      "id": 3951206313,
      "name": "蘇澳新",
      "type": "train",
      "city": "宜蘭縣",
      "district": "蘇澳鎮",
      "lat": 24.6082494,
      "lng": 121.828149
    },
    {
      "id": 4032983689,
      "name": "南方澳",
      "type": "bus",
      "city": "宜蘭縣",
      "district": "蘇澳鎮",
      "lat": 24.5854753,
      "lng": 121.8644859
    },
    {
      "id": 4032983974,
      "name": "蘇澳",
      "type": "train",
      "city": "宜蘭縣",
      "district": "蘇澳鎮",
      "lat": 24.5951769,
      "lng": 121.8514536
    },
    {
      "id": 4405132792,
      "name": "江夏路",
      "type": "bus",
      "city": "宜蘭縣",
      "district": "蘇澳鎮",
      "lat": 24.5820019,
      "lng": 121.8652577,
      "routes": [
        "422",
        "471",
        "1766",
        "1767",
        "1767A",
        "1791",
        "綠28"
      ],
      "routeCount": 7,
      "routeSource": "gtfs",
      "routeUpdatedAt": "2026-06-14T16:43:44.820Z",
      "routeConfidence": "high"
    },
    {
      "id": 4405132891,
      "name": "南興里",
      "type": "bus",
      "city": "宜蘭縣",
      "district": "蘇澳鎮",
      "lat": 24.5814839,
      "lng": 121.8675705,
      "routes": [
        "422",
        "471",
        "1766",
        "1767",
        "1767A",
        "1791",
        "綠28"
      ],
      "routeCount": 7,
      "routeSource": "gtfs",
      "routeUpdatedAt": "2026-06-14T16:43:44.820Z",
      "routeConfidence": "high"
    },
    {
      "id": 4405318694,
      "name": "進安宮",
      "type": "bus",
      "city": "宜蘭縣",
      "district": "蘇澳鎮",
      "lat": 24.5839994,
      "lng": 121.8649404,
      "routes": [
        "121",
        "422",
        "471",
        "1766",
        "1767",
        "1767A",
        "1791",
        "1879",
        "1879C",
        "南方澳線（藍線）",
        "綠28"
      ],
      "routeCount": 11,
      "routeSource": "gtfs",
      "routeUpdatedAt": "2026-06-14T16:43:44.820Z",
      "routeConfidence": "high"
    },
    {
      "id": 4405337190,
      "name": "南方澳",
      "type": "bus",
      "city": "宜蘭縣",
      "district": "蘇澳鎮",
      "lat": 24.5807731,
      "lng": 121.8703213,
      "routes": [
        "422",
        "471",
        "1766",
        "1767",
        "1767A",
        "1791",
        "紅2"
      ],
      "routeCount": 7,
      "routeSource": "gtfs",
      "routeUpdatedAt": "2026-06-14T16:43:44.820Z",
      "routeConfidence": "high"
    },
    {
      "id": 4562063322,
      "name": "蘇澳轉運站",
      "type": "bus",
      "city": "宜蘭縣",
      "district": "蘇澳鎮",
      "lat": 24.5954331,
      "lng": 121.8527059,
      "routes": [
        "121",
        "243",
        "243A",
        "243B",
        "422",
        "471",
        "1766",
        "1767",
        "1767A",
        "1791",
        "1799",
        "1879",
        "1879C",
        "1918",
        "9028",
        "東澳線（紫線）",
        "東澳線（紫線）A",
        "南方澳線（藍線）",
        "紅2",
        "綠28",
        "蘇澳線（綠線）"
      ],
      "routeCount": 21,
      "routeSource": "gtfs",
      "routeUpdatedAt": "2026-06-14T16:43:44.821Z",
      "routeConfidence": "high"
    },
    {
      "id": 5542631971,
      "name": "昆明路",
      "type": "bus",
      "city": "宜蘭縣",
      "district": "蘇澳鎮",
      "lat": 24.5903537,
      "lng": 121.8509103,
      "routes": [
        "1799"
      ],
      "routeCount": 1,
      "routeSource": "gtfs",
      "routeUpdatedAt": "2026-06-14T16:43:44.821Z",
      "routeConfidence": "high"
    },
    {
      "id": 5785405205,
      "name": "南澳鄉公所",
      "type": "bus",
      "city": "宜蘭縣",
      "district": "蘇澳鎮",
      "lat": 24.4651561,
      "lng": 121.8028745
    },
    {
      "id": 5787444468,
      "name": "豆腐岬風景區",
      "type": "bus",
      "city": "宜蘭縣",
      "district": "蘇澳鎮",
      "lat": 24.5851855,
      "lng": 121.8720272,
      "routes": [
        "綠28"
      ],
      "routeCount": 1,
      "routeSource": "gtfs",
      "routeUpdatedAt": "2026-06-14T16:06:29.504Z",
      "routeConfidence": "high"
    },
    {
      "id": 5787444470,
      "name": "福安新村",
      "type": "bus",
      "city": "宜蘭縣",
      "district": "蘇澳鎮",
      "lat": 24.5792731,
      "lng": 121.8713701,
      "routes": [
        "南方澳線（藍線）",
        "綠28"
      ],
      "routeCount": 2,
      "routeSource": "gtfs",
      "routeUpdatedAt": "2026-06-14T16:43:44.821Z",
      "routeConfidence": "high"
    },
    {
      "id": 5787444471,
      "name": "南建購物中心",
      "type": "bus",
      "city": "宜蘭縣",
      "district": "蘇澳鎮",
      "lat": 24.5774925,
      "lng": 121.8689078,
      "routes": [
        "南方澳線（藍線）",
        "綠28"
      ],
      "routeCount": 2,
      "routeSource": "gtfs",
      "routeUpdatedAt": "2026-06-14T16:43:44.821Z",
      "routeConfidence": "high"
    },
    {
      "id": 5787444472,
      "name": "內埤海邊",
      "type": "bus",
      "city": "宜蘭縣",
      "district": "蘇澳鎮",
      "lat": 24.5784242,
      "lng": 121.8701363,
      "routes": [
        "綠28"
      ],
      "routeCount": 1,
      "routeSource": "gtfs",
      "routeUpdatedAt": "2026-06-14T16:06:29.504Z",
      "routeConfidence": "high"
    },
    {
      "id": 5787444473,
      "name": "南寧市場",
      "type": "bus",
      "city": "宜蘭縣",
      "district": "蘇澳鎮",
      "lat": 24.5808122,
      "lng": 121.8703052,
      "routes": [
        "南方澳線（藍線）",
        "綠28"
      ],
      "routeCount": 2,
      "routeSource": "gtfs",
      "routeUpdatedAt": "2026-06-14T16:43:44.821Z",
      "routeConfidence": "high"
    },
    {
      "id": 5787575262,
      "name": "聖湖",
      "type": "bus",
      "city": "宜蘭縣",
      "district": "蘇澳鎮",
      "lat": 24.5964875,
      "lng": 121.8382099,
      "routes": [
        "422",
        "471",
        "1766",
        "1767",
        "1767A",
        "1791",
        "1799",
        "紅2",
        "綠28"
      ],
      "routeCount": 9,
      "routeSource": "gtfs",
      "routeUpdatedAt": "2026-06-14T16:43:44.821Z",
      "routeConfidence": "high"
    },
    {
      "id": 5787575264,
      "name": "榮民醫院門診部",
      "type": "bus",
      "city": "宜蘭縣",
      "district": "蘇澳鎮",
      "lat": 24.5964412,
      "lng": 121.8393713,
      "routes": [
        "東澳線（紫線）",
        "東澳線（紫線）A",
        "蘇澳線（綠線）"
      ],
      "routeCount": 3,
      "routeSource": "gtfs",
      "routeUpdatedAt": "2026-06-14T16:43:44.821Z",
      "routeConfidence": "high"
    },
    {
      "id": 5787575266,
      "name": "蘇澳國小",
      "type": "bus",
      "city": "宜蘭縣",
      "district": "蘇澳鎮",
      "lat": 24.595929,
      "lng": 121.8411322,
      "routes": [
        "422",
        "471",
        "1766",
        "1767",
        "1767A",
        "1791",
        "1799",
        "東澳線（紫線）",
        "東澳線（紫線）A",
        "紅2",
        "綠28",
        "蘇澳線（綠線）"
      ],
      "routeCount": 12,
      "routeSource": "gtfs",
      "routeUpdatedAt": "2026-06-14T16:43:44.821Z",
      "routeConfidence": "high"
    },
    {
      "id": 5787575269,
      "name": "湧泉",
      "type": "bus",
      "city": "宜蘭縣",
      "district": "蘇澳鎮",
      "lat": 24.5955876,
      "lng": 121.8445574,
      "routes": [
        "422",
        "471",
        "1766",
        "1767",
        "1767A",
        "1791",
        "1799",
        "紅2",
        "綠28"
      ],
      "routeCount": 9,
      "routeSource": "gtfs",
      "routeUpdatedAt": "2026-06-14T16:43:44.821Z",
      "routeConfidence": "high"
    },
    {
      "id": 5787575272,
      "name": "建生醫院",
      "type": "bus",
      "city": "宜蘭縣",
      "district": "蘇澳鎮",
      "lat": 24.5956973,
      "lng": 121.8461694
    },
    {
      "id": 5787575273,
      "name": "加油站",
      "type": "bus",
      "city": "宜蘭縣",
      "district": "蘇澳鎮",
      "lat": 24.595968,
      "lng": 121.8478551
    },
    {
      "id": 5787575274,
      "name": "市場口",
      "type": "bus",
      "city": "宜蘭縣",
      "district": "蘇澳鎮",
      "lat": 24.5956683,
      "lng": 121.8502502,
      "routes": [
        "東澳線（紫線）",
        "東澳線（紫線）A",
        "南方澳線（藍線）",
        "蘇澳線（綠線）"
      ],
      "routeCount": 4,
      "routeSource": "gtfs",
      "routeUpdatedAt": "2026-06-14T16:06:29.505Z",
      "routeConfidence": "high"
    },
    {
      "id": 5787575275,
      "name": "中山路",
      "type": "bus",
      "city": "宜蘭縣",
      "district": "蘇澳鎮",
      "lat": 24.5959534,
      "lng": 121.8505374
    },
    {
      "id": 5787575279,
      "name": "蘇澳港",
      "type": "bus",
      "city": "宜蘭縣",
      "district": "蘇澳鎮",
      "lat": 24.5963168,
      "lng": 121.8559179,
      "routes": [
        "243",
        "243A",
        "422",
        "471",
        "1766",
        "1767",
        "1767A",
        "1791",
        "綠28"
      ],
      "routeCount": 9,
      "routeSource": "gtfs",
      "routeUpdatedAt": "2026-06-14T16:43:44.822Z",
      "routeConfidence": "high"
    },
    {
      "id": 5790088566,
      "name": "聖愛里",
      "type": "bus",
      "city": "宜蘭縣",
      "district": "蘇澳鎮",
      "lat": 24.5996701,
      "lng": 121.8341383,
      "routes": [
        "422",
        "471",
        "1766",
        "紅2",
        "綠28"
      ],
      "routeCount": 5,
      "routeSource": "gtfs",
      "routeUpdatedAt": "2026-06-14T16:43:44.822Z",
      "routeConfidence": "high"
    },
    {
      "id": 5791275224,
      "name": "蘇澳新站",
      "type": "bus",
      "city": "宜蘭縣",
      "district": "蘇澳鎮",
      "lat": 24.6075764,
      "lng": 121.827186,
      "routes": [
        "245",
        "422",
        "471",
        "1766",
        "1767",
        "1767A",
        "東澳線（紫線）",
        "東澳線（紫線）A",
        "紅2",
        "綠28"
      ],
      "routeCount": 10,
      "routeSource": "gtfs",
      "routeUpdatedAt": "2026-06-14T16:43:44.822Z",
      "routeConfidence": "high"
    },
    {
      "id": 5791275225,
      "name": "蘇澳新站",
      "type": "bus",
      "city": "宜蘭縣",
      "district": "蘇澳鎮",
      "lat": 24.6088518,
      "lng": 121.8267918,
      "routes": [
        "245",
        "422",
        "471",
        "1766",
        "1767",
        "1767A",
        "東澳線（紫線）",
        "東澳線（紫線）A",
        "紅2",
        "綠28"
      ],
      "routeCount": 10,
      "routeSource": "gtfs",
      "routeUpdatedAt": "2026-06-14T16:43:44.822Z",
      "routeConfidence": "high"
    },
    {
      "id": 5791275229,
      "name": "軍人忠烈祠",
      "type": "bus",
      "city": "宜蘭縣",
      "district": "蘇澳鎮",
      "lat": 24.6038843,
      "lng": 121.8334758,
      "routes": [
        "245",
        "422",
        "471",
        "1766",
        "1767",
        "1767A",
        "紅2",
        "綠28"
      ],
      "routeCount": 8,
      "routeSource": "gtfs",
      "routeUpdatedAt": "2026-06-14T16:43:44.822Z",
      "routeConfidence": "high"
    },
    {
      "id": 5791275233,
      "name": "蘇澳國中",
      "type": "bus",
      "city": "宜蘭縣",
      "district": "蘇澳鎮",
      "lat": 24.5970616,
      "lng": 121.8351755,
      "routes": [
        "245",
        "422",
        "471",
        "1766",
        "1767",
        "1767A",
        "1799",
        "9028",
        "東澳線（紫線）",
        "東澳線（紫線）A",
        "紅2",
        "綠28"
      ],
      "routeCount": 12,
      "routeSource": "gtfs",
      "routeUpdatedAt": "2026-06-14T16:43:44.823Z",
      "routeConfidence": "high"
    },
    {
      "id": 5795978567,
      "name": "武荖坑",
      "type": "bus",
      "city": "宜蘭縣",
      "district": "蘇澳鎮",
      "lat": 24.6149895,
      "lng": 121.8138555,
      "routes": [
        "245",
        "422",
        "471",
        "1766",
        "1767",
        "1767A",
        "紅2"
      ],
      "routeCount": 7,
      "routeSource": "gtfs",
      "routeUpdatedAt": "2026-06-14T16:43:44.823Z",
      "routeConfidence": "high"
    },
    {
      "id": 5795978577,
      "name": "安永心",
      "type": "bus",
      "city": "宜蘭縣",
      "district": "蘇澳鎮",
      "lat": 24.6150115,
      "lng": 121.818088,
      "routes": [
        "1766",
        "1767",
        "1767A",
        "1879",
        "1879C",
        "9028",
        "紅2"
      ],
      "routeCount": 7,
      "routeSource": "gtfs",
      "routeUpdatedAt": "2026-06-14T16:43:44.823Z",
      "routeConfidence": "high"
    },
    {
      "id": 5795978581,
      "name": "新城",
      "type": "bus",
      "city": "宜蘭縣",
      "district": "蘇澳鎮",
      "lat": 24.6153529,
      "lng": 121.820848,
      "routes": [
        "245",
        "422",
        "471",
        "1766",
        "1767",
        "1767A",
        "紅2"
      ],
      "routeCount": 7,
      "routeSource": "gtfs",
      "routeUpdatedAt": "2026-06-14T16:43:44.823Z",
      "routeConfidence": "high"
    },
    {
      "id": 6548815250,
      "name": "蘇澳鎮運動公園",
      "type": "bus",
      "city": "宜蘭縣",
      "district": "蘇澳鎮",
      "lat": 24.5992149,
      "lng": 121.8359013
    },
    {
      "id": 6808038357,
      "name": "永光活動中心",
      "type": "bus",
      "city": "宜蘭縣",
      "district": "蘇澳鎮",
      "lat": 24.5940669,
      "lng": 121.8522634,
      "routes": [
        "東澳線（紫線）",
        "東澳線（紫線）A",
        "蘇澳線（綠線）"
      ],
      "routeCount": 3,
      "routeSource": "gtfs",
      "routeUpdatedAt": "2026-06-14T16:43:44.823Z",
      "routeConfidence": "high"
    },
    {
      "id": 6810443355,
      "name": "榮民醫院蘇澳分院",
      "type": "bus",
      "city": "宜蘭縣",
      "district": "蘇澳鎮",
      "lat": 24.614892,
      "lng": 121.8490353,
      "routes": [
        "121",
        "243",
        "243A",
        "243B"
      ],
      "routeCount": 4,
      "routeSource": "gtfs",
      "routeUpdatedAt": "2026-06-14T16:43:44.823Z",
      "routeConfidence": "high"
    },
    {
      "id": 6810721132,
      "name": "馬賽郵局",
      "type": "bus",
      "city": "宜蘭縣",
      "district": "蘇澳鎮",
      "lat": 24.6254257,
      "lng": 121.8333887,
      "routes": [
        "421A",
        "472",
        "1791",
        "1797",
        "1797A",
        "南方澳線（藍線）",
        "蘇澳線（綠線）"
      ],
      "routeCount": 7,
      "routeSource": "gtfs",
      "routeUpdatedAt": "2026-06-14T16:43:44.823Z",
      "routeConfidence": "high"
    },
    {
      "id": 6810721134,
      "name": "馬賽街",
      "type": "bus",
      "city": "宜蘭縣",
      "district": "蘇澳鎮",
      "lat": 24.6303245,
      "lng": 121.8334349
    },
    {
      "id": 6810721135,
      "name": "馬賽國小",
      "type": "bus",
      "city": "宜蘭縣",
      "district": "蘇澳鎮",
      "lat": 24.6218329,
      "lng": 121.8344562,
      "routes": [
        "243",
        "243A",
        "243B",
        "421A",
        "472",
        "1791",
        "1797",
        "1797A",
        "南方澳線（藍線）",
        "蘇澳線（綠線）"
      ],
      "routeCount": 10,
      "routeSource": "gtfs",
      "routeUpdatedAt": "2026-06-14T16:43:44.823Z",
      "routeConfidence": "high"
    },
    {
      "id": 6810721138,
      "name": "文化國中",
      "type": "bus",
      "city": "宜蘭縣",
      "district": "蘇澳鎮",
      "lat": 24.6198298,
      "lng": 121.8343998,
      "routes": [
        "421A",
        "472",
        "1791",
        "1797",
        "1797A",
        "蘇澳線（綠線）"
      ],
      "routeCount": 6,
      "routeSource": "gtfs",
      "routeUpdatedAt": "2026-06-14T16:43:44.824Z",
      "routeConfidence": "high"
    },
    {
      "id": 6810721146,
      "name": "隘界站",
      "type": "bus",
      "city": "宜蘭縣",
      "district": "蘇澳鎮",
      "lat": 24.6188337,
      "lng": 121.84202,
      "routes": [
        "蘇澳線（綠線）"
      ],
      "routeCount": 1,
      "routeSource": "gtfs",
      "routeUpdatedAt": "2026-06-14T16:06:29.507Z",
      "routeConfidence": "high"
    },
    {
      "id": 6810721148,
      "name": "港口路",
      "type": "bus",
      "city": "宜蘭縣",
      "district": "蘇澳鎮",
      "lat": 24.6188691,
      "lng": 121.8426517,
      "routes": [
        "243",
        "243A",
        "243B"
      ],
      "routeCount": 3,
      "routeSource": "gtfs",
      "routeUpdatedAt": "2026-06-14T16:43:44.824Z",
      "routeConfidence": "high"
    },
    {
      "id": 6810744566,
      "name": "頂寮",
      "type": "bus",
      "city": "宜蘭縣",
      "district": "蘇澳鎮",
      "lat": 24.6414198,
      "lng": 121.8347821
    },
    {
      "id": 6810744568,
      "name": "育英路",
      "type": "bus",
      "city": "宜蘭縣",
      "district": "蘇澳鎮",
      "lat": 24.6379676,
      "lng": 121.8338057,
      "routes": [
        "南方澳線（藍線）"
      ],
      "routeCount": 1,
      "routeSource": "gtfs",
      "routeUpdatedAt": "2026-06-14T16:06:29.507Z",
      "routeConfidence": "high"
    },
    {
      "id": 6810744570,
      "name": "龍德工業區",
      "type": "bus",
      "city": "宜蘭縣",
      "district": "蘇澳鎮",
      "lat": 24.6342117,
      "lng": 121.8318075
    },
    {
      "id": 6816746873,
      "name": "頂寮國姓廟",
      "type": "bus",
      "city": "宜蘭縣",
      "district": "蘇澳鎮",
      "lat": 24.6450132,
      "lng": 121.8326899,
      "routes": [
        "南方澳線（藍線）"
      ],
      "routeCount": 1,
      "routeSource": "gtfs",
      "routeUpdatedAt": "2026-06-14T16:06:29.507Z",
      "routeConfidence": "high"
    },
    {
      "id": 6816746879,
      "name": "育英",
      "type": "bus",
      "city": "宜蘭縣",
      "district": "蘇澳鎮",
      "lat": 24.6392231,
      "lng": 121.8320301,
      "routes": [
        "421A",
        "472",
        "1791",
        "1797",
        "1797A"
      ],
      "routeCount": 5,
      "routeSource": "gtfs",
      "routeUpdatedAt": "2026-06-14T16:43:44.824Z",
      "routeConfidence": "high"
    },
    {
      "id": 6816750785,
      "name": "福德路",
      "type": "bus",
      "city": "宜蘭縣",
      "district": "蘇澳鎮",
      "lat": 24.6415904,
      "lng": 121.8309009,
      "routes": [
        "421A",
        "472",
        "1791",
        "1797",
        "1797A"
      ],
      "routeCount": 5,
      "routeSource": "gtfs",
      "routeUpdatedAt": "2026-06-14T16:43:44.824Z",
      "routeConfidence": "high"
    },
    {
      "id": 6816750788,
      "name": "龍德里",
      "type": "bus",
      "city": "宜蘭縣",
      "district": "蘇澳鎮",
      "lat": 24.6443721,
      "lng": 121.8296644,
      "routes": [
        "421A",
        "472",
        "1791",
        "1797",
        "1797A"
      ],
      "routeCount": 5,
      "routeSource": "gtfs",
      "routeUpdatedAt": "2026-06-14T16:43:44.824Z",
      "routeConfidence": "high"
    },
    {
      "id": 6816750799,
      "name": "龍德喜互惠",
      "type": "bus",
      "city": "宜蘭縣",
      "district": "蘇澳鎮",
      "lat": 24.6471963,
      "lng": 121.828562,
      "routes": [
        "蘇澳線（綠線）"
      ],
      "routeCount": 1,
      "routeSource": "gtfs",
      "routeUpdatedAt": "2026-06-14T16:06:29.507Z",
      "routeConfidence": "high"
    },
    {
      "id": 6816750801,
      "name": "區界",
      "type": "bus",
      "city": "宜蘭縣",
      "district": "蘇澳鎮",
      "lat": 24.6475096,
      "lng": 121.8283957,
      "routes": [
        "421A",
        "472",
        "1791",
        "1797",
        "1797A"
      ],
      "routeCount": 5,
      "routeSource": "gtfs",
      "routeUpdatedAt": "2026-06-14T16:43:44.824Z",
      "routeConfidence": "high"
    },
    {
      "id": 7126498769,
      "name": "蘇澳站",
      "type": "bus",
      "city": "宜蘭縣",
      "district": "蘇澳鎮",
      "lat": 24.5985702,
      "lng": 121.8341571
    },
    {
      "id": 7590880747,
      "name": "岳明新村",
      "type": "bus",
      "city": "宜蘭縣",
      "district": "蘇澳鎮",
      "lat": 24.6101447,
      "lng": 121.8579936,
      "routes": [
        "421A",
        "472",
        "1797",
        "1797A",
        "南方澳線（藍線）"
      ],
      "routeCount": 5,
      "routeSource": "gtfs",
      "routeUpdatedAt": "2026-06-14T16:43:44.824Z",
      "routeConfidence": "high"
    },
    {
      "id": 7590933381,
      "name": "岳明國小",
      "type": "bus",
      "city": "宜蘭縣",
      "district": "蘇澳鎮",
      "lat": 24.6127632,
      "lng": 121.8526556,
      "routes": [
        "421A",
        "472",
        "1797",
        "1797A"
      ],
      "routeCount": 4,
      "routeSource": "gtfs",
      "routeUpdatedAt": "2026-06-14T16:43:44.824Z",
      "routeConfidence": "high"
    },
    {
      "id": 7590933383,
      "name": "港邊里",
      "type": "bus",
      "city": "宜蘭縣",
      "district": "蘇澳鎮",
      "lat": 24.6115677,
      "lng": 121.85513,
      "routes": [
        "421A",
        "472",
        "1797",
        "1797A"
      ],
      "routeCount": 4,
      "routeSource": "gtfs",
      "routeUpdatedAt": "2026-06-14T16:43:44.824Z",
      "routeConfidence": "high"
    },
    {
      "id": 8357323611,
      "name": "隘界路(永愛新村)",
      "type": "bus",
      "city": "宜蘭縣",
      "district": "蘇澳鎮",
      "lat": 24.619308,
      "lng": 121.8383521,
      "routes": [
        "421A",
        "472",
        "1797",
        "1797A"
      ],
      "routeCount": 4,
      "routeSource": "gtfs",
      "routeUpdatedAt": "2026-06-14T16:43:44.824Z",
      "routeConfidence": "high"
    },
    {
      "id": 8357323678,
      "name": "榮總蘇澳分院",
      "type": "bus",
      "city": "宜蘭縣",
      "district": "蘇澳鎮",
      "lat": 24.6136715,
      "lng": 121.8518168,
      "routes": [
        "421A",
        "472",
        "1797",
        "1797A"
      ],
      "routeCount": 4,
      "routeSource": "gtfs",
      "routeUpdatedAt": "2026-06-14T16:43:44.824Z",
      "routeConfidence": "high"
    },
    {
      "id": 8357323680,
      "name": "港口",
      "type": "bus",
      "city": "宜蘭縣",
      "district": "蘇澳鎮",
      "lat": 24.619486,
      "lng": 121.8475044,
      "routes": [
        "421A",
        "472",
        "1797",
        "1797A",
        "南方澳線（藍線）"
      ],
      "routeCount": 5,
      "routeSource": "gtfs",
      "routeUpdatedAt": "2026-06-14T16:43:44.825Z",
      "routeConfidence": "high"
    },
    {
      "id": 8357323703,
      "name": "馬賽街",
      "type": "bus",
      "city": "宜蘭縣",
      "district": "蘇澳鎮",
      "lat": 24.6229997,
      "lng": 121.8343583,
      "routes": [
        "243",
        "243A",
        "243B",
        "421A",
        "472",
        "1791",
        "1797",
        "1797A"
      ],
      "routeCount": 8,
      "routeSource": "gtfs",
      "routeUpdatedAt": "2026-06-14T16:43:44.825Z",
      "routeConfidence": "high"
    },
    {
      "id": 9481214658,
      "name": "第一銀行",
      "type": "bus",
      "city": "宜蘭縣",
      "district": "蘇澳鎮",
      "lat": 24.5960168,
      "lng": 121.8534207,
      "routes": [
        "南方澳線（藍線）"
      ],
      "routeCount": 1,
      "routeSource": "gtfs",
      "routeUpdatedAt": "2026-06-14T16:06:29.507Z",
      "routeConfidence": "high"
    },
    {
      "id": 9481214663,
      "name": "聖愛路",
      "type": "bus",
      "city": "宜蘭縣",
      "district": "蘇澳鎮",
      "lat": 24.6047134,
      "lng": 121.8373436,
      "routes": [
        "1791"
      ],
      "routeCount": 1,
      "routeSource": "gtfs",
      "routeUpdatedAt": "2026-06-14T16:43:44.825Z",
      "routeConfidence": "high"
    },
    {
      "id": 9481214665,
      "name": "隘丁嶺橋",
      "type": "bus",
      "city": "宜蘭縣",
      "district": "蘇澳鎮",
      "lat": 24.6126242,
      "lng": 121.8378022,
      "routes": [
        "1791"
      ],
      "routeCount": 1,
      "routeSource": "gtfs",
      "routeUpdatedAt": "2026-06-14T16:43:44.825Z",
      "routeConfidence": "high"
    },
    {
      "id": 9481214667,
      "name": "隘丁",
      "type": "bus",
      "city": "宜蘭縣",
      "district": "蘇澳鎮",
      "lat": 24.6152468,
      "lng": 121.8352796,
      "routes": [
        "1791",
        "蘇澳線（綠線）"
      ],
      "routeCount": 2,
      "routeSource": "gtfs",
      "routeUpdatedAt": "2026-06-14T16:43:44.825Z",
      "routeConfidence": "high"
    },
    {
      "id": 9481214669,
      "name": "仁愛路",
      "type": "bus",
      "city": "宜蘭縣",
      "district": "蘇澳鎮",
      "lat": 24.6169781,
      "lng": 121.8342577,
      "routes": [
        "1791"
      ],
      "routeCount": 1,
      "routeSource": "gtfs",
      "routeUpdatedAt": "2026-06-14T16:43:44.825Z",
      "routeConfidence": "high"
    },
    {
      "id": 9481214700,
      "name": "瑞明眼科",
      "type": "bus",
      "city": "宜蘭縣",
      "district": "蘇澳鎮",
      "lat": 24.5957388,
      "lng": 121.847493,
      "routes": [
        "東澳線（紫線）",
        "東澳線（紫線）A",
        "南方澳線（藍線）",
        "蘇澳線（綠線）"
      ],
      "routeCount": 4,
      "routeSource": "gtfs",
      "routeUpdatedAt": "2026-06-14T16:06:29.508Z",
      "routeConfidence": "high"
    },
    {
      "id": 9481231324,
      "name": "加油站",
      "type": "bus",
      "city": "宜蘭縣",
      "district": "蘇澳鎮",
      "lat": 24.59569,
      "lng": 121.8460903
    },
    {
      "id": 9481736819,
      "name": "海山西路",
      "type": "bus",
      "city": "宜蘭縣",
      "district": "蘇澳鎮",
      "lat": 24.6147237,
      "lng": 121.8292165,
      "routes": [
        "243",
        "243A",
        "243B"
      ],
      "routeCount": 3,
      "routeSource": "gtfs",
      "routeUpdatedAt": "2026-06-14T16:43:44.825Z",
      "routeConfidence": "high"
    },
    {
      "id": 9481736821,
      "name": "祥和路",
      "type": "bus",
      "city": "宜蘭縣",
      "district": "蘇澳鎮",
      "lat": 24.6173329,
      "lng": 121.831094,
      "routes": [
        "243",
        "243A",
        "243B"
      ],
      "routeCount": 3,
      "routeSource": "gtfs",
      "routeUpdatedAt": "2026-06-14T16:43:44.825Z",
      "routeConfidence": "high"
    },
    {
      "id": 9481736823,
      "name": "和平站",
      "type": "bus",
      "city": "宜蘭縣",
      "district": "蘇澳鎮",
      "lat": 24.6196079,
      "lng": 121.8381482
    },
    {
      "id": 9481736824,
      "name": "和平信義路口",
      "type": "bus",
      "city": "宜蘭縣",
      "district": "蘇澳鎮",
      "lat": 24.619575,
      "lng": 121.8382032,
      "routes": [
        "243",
        "243A",
        "243B"
      ],
      "routeCount": 3,
      "routeSource": "gtfs",
      "routeUpdatedAt": "2026-06-14T16:43:44.825Z",
      "routeConfidence": "high"
    },
    {
      "id": 9481736827,
      "name": "馬賽國小",
      "type": "bus",
      "city": "宜蘭縣",
      "district": "蘇澳鎮",
      "lat": 24.620938,
      "lng": 121.835352
    },
    {
      "id": 9481736829,
      "name": "馬賽路",
      "type": "bus",
      "city": "宜蘭縣",
      "district": "蘇澳鎮",
      "lat": 24.6194787,
      "lng": 121.8288061,
      "routes": [
        "243",
        "243A",
        "243B",
        "1879",
        "1879C",
        "1918"
      ],
      "routeCount": 6,
      "routeSource": "gtfs",
      "routeUpdatedAt": "2026-06-14T16:43:44.825Z",
      "routeConfidence": "high"
    },
    {
      "id": 13233887904,
      "name": "公車站",
      "type": "bus",
      "city": "宜蘭縣",
      "district": "蘇澳鎮",
      "lat": 24.5959709,
      "lng": 121.8487915
    },
    {
      "id": 400785731,
      "name": "國光客運南方澳轉運站",
      "type": "bus_station",
      "city": "宜蘭縣",
      "district": "蘇澳鎮",
      "lat": 24.5855145,
      "lng": 121.8645681,
      "routes": [
        "紅2"
      ],
      "routeCount": 1,
      "routeSource": "gtfs",
      "routeUpdatedAt": "2026-06-14T16:43:44.826Z",
      "routeConfidence": "high"
    },
    {
      "id": 289129958,
      "name": "龜山",
      "type": "train",
      "city": "宜蘭縣",
      "district": "頭城鎮",
      "lat": 24.9050658,
      "lng": 121.8687456
    },
    {
      "id": 289130410,
      "name": "大里",
      "type": "train",
      "city": "宜蘭縣",
      "district": "頭城鎮",
      "lat": 24.9667612,
      "lng": 121.9225152
    },
    {
      "id": 2955658619,
      "name": "大溪",
      "type": "train",
      "city": "宜蘭縣",
      "district": "頭城鎮",
      "lat": 24.9383628,
      "lng": 121.8898064
    },
    {
      "id": 3360896100,
      "name": "石城漁港",
      "type": "bus",
      "city": "宜蘭縣",
      "district": "頭城鎮",
      "lat": 24.9816227,
      "lng": 121.9517564,
      "routes": [
        "頭城1"
      ],
      "routeCount": 1,
      "routeSource": "gtfs",
      "routeUpdatedAt": "2026-06-14T16:06:29.508Z",
      "routeConfidence": "high"
    },
    {
      "id": 3360896101,
      "name": "石城港",
      "type": "bus",
      "city": "宜蘭縣",
      "district": "頭城鎮",
      "lat": 24.9801554,
      "lng": 121.9486909,
      "routes": [
        "131",
        "頭城1"
      ],
      "routeCount": 2,
      "routeSource": "gtfs",
      "routeUpdatedAt": "2026-06-14T16:43:44.826Z",
      "routeConfidence": "high"
    },
    {
      "id": 3360896102,
      "name": "石城",
      "type": "bus",
      "city": "宜蘭縣",
      "district": "頭城鎮",
      "lat": 24.9787174,
      "lng": 121.9455567,
      "routes": [
        "131",
        "綠19",
        "頭城1"
      ],
      "routeCount": 3,
      "routeSource": "gtfs",
      "routeUpdatedAt": "2026-06-14T16:43:44.826Z",
      "routeConfidence": "high"
    },
    {
      "id": 3360896125,
      "name": "大里天公廟",
      "type": "bus",
      "city": "宜蘭縣",
      "district": "頭城鎮",
      "lat": 24.9697246,
      "lng": 121.9254111,
      "routes": [
        "頭城1"
      ],
      "routeCount": 1,
      "routeSource": "gtfs",
      "routeUpdatedAt": "2026-06-14T16:06:29.508Z",
      "routeConfidence": "high"
    },
    {
      "id": 4066090282,
      "name": "頭城",
      "type": "train",
      "city": "宜蘭縣",
      "district": "頭城鎮",
      "lat": 24.8590462,
      "lng": 121.822294
    },
    {
      "id": 5537094270,
      "name": "大里港",
      "type": "bus",
      "city": "宜蘭縣",
      "district": "頭城鎮",
      "lat": 24.9639359,
      "lng": 121.920362,
      "routes": [
        "131"
      ],
      "routeCount": 1,
      "routeSource": "gtfs",
      "routeUpdatedAt": "2026-06-14T16:43:44.826Z",
      "routeConfidence": "high"
    },
    {
      "id": 5537094276,
      "name": "天公廟",
      "type": "bus",
      "city": "宜蘭縣",
      "district": "頭城鎮",
      "lat": 24.9690857,
      "lng": 121.9247355,
      "routes": [
        "131",
        "綠19"
      ],
      "routeCount": 2,
      "routeSource": "gtfs",
      "routeUpdatedAt": "2026-06-14T16:43:44.826Z",
      "routeConfidence": "high"
    },
    {
      "id": 5537094279,
      "name": "大樹",
      "type": "bus",
      "city": "宜蘭縣",
      "district": "頭城鎮",
      "lat": 24.9730142,
      "lng": 121.931952,
      "routes": [
        "131",
        "綠19"
      ],
      "routeCount": 2,
      "routeSource": "gtfs",
      "routeUpdatedAt": "2026-06-14T16:43:44.826Z",
      "routeConfidence": "high"
    },
    {
      "id": 5537094282,
      "name": "桶盤村",
      "type": "bus",
      "city": "宜蘭縣",
      "district": "頭城鎮",
      "lat": 24.9749314,
      "lng": 121.9361017,
      "routes": [
        "131"
      ],
      "routeCount": 1,
      "routeSource": "gtfs",
      "routeUpdatedAt": "2026-06-14T16:43:44.826Z",
      "routeConfidence": "high"
    },
    {
      "id": 5537094286,
      "name": "隧道口",
      "type": "bus",
      "city": "宜蘭縣",
      "district": "頭城鎮",
      "lat": 24.9839623,
      "lng": 121.9567394
    },
    {
      "id": 5542719602,
      "name": "蕃薯寮",
      "type": "bus",
      "city": "宜蘭縣",
      "district": "頭城鎮",
      "lat": 24.9491982,
      "lng": 121.9071722,
      "routes": [
        "131"
      ],
      "routeCount": 1,
      "routeSource": "gtfs",
      "routeUpdatedAt": "2026-06-14T16:43:44.826Z",
      "routeConfidence": "high"
    },
    {
      "id": 5542719605,
      "name": "鼻子澳",
      "type": "bus",
      "city": "宜蘭縣",
      "district": "頭城鎮",
      "lat": 24.951686,
      "lng": 121.9112679,
      "routes": [
        "131"
      ],
      "routeCount": 1,
      "routeSource": "gtfs",
      "routeUpdatedAt": "2026-06-14T16:43:44.826Z",
      "routeConfidence": "high"
    },
    {
      "id": 5542719608,
      "name": "沙灣",
      "type": "bus",
      "city": "宜蘭縣",
      "district": "頭城鎮",
      "lat": 24.9577242,
      "lng": 121.9176999,
      "routes": [
        "131"
      ],
      "routeCount": 1,
      "routeSource": "gtfs",
      "routeUpdatedAt": "2026-06-14T16:43:44.826Z",
      "routeConfidence": "high"
    },
    {
      "id": 5542811029,
      "name": "新港 (大溪漁港)",
      "type": "bus",
      "city": "宜蘭縣",
      "district": "頭城鎮",
      "lat": 24.9419096,
      "lng": 121.898384,
      "routes": [
        "131"
      ],
      "routeCount": 1,
      "routeSource": "gtfs",
      "routeUpdatedAt": "2026-06-14T16:43:44.826Z",
      "routeConfidence": "high"
    },
    {
      "id": 5542811030,
      "name": "新港 (大溪漁港)",
      "type": "bus",
      "city": "宜蘭縣",
      "district": "頭城鎮",
      "lat": 24.9414657,
      "lng": 121.8994823,
      "routes": [
        "131"
      ],
      "routeCount": 1,
      "routeSource": "gtfs",
      "routeUpdatedAt": "2026-06-14T16:06:29.508Z",
      "routeConfidence": "high"
    },
    {
      "id": 5542823318,
      "name": "窖寮",
      "type": "bus",
      "city": "宜蘭縣",
      "district": "頭城鎮",
      "lat": 24.9339382,
      "lng": 121.8847677,
      "routes": [
        "131"
      ],
      "routeCount": 1,
      "routeSource": "gtfs",
      "routeUpdatedAt": "2026-06-14T16:43:44.826Z",
      "routeConfidence": "high"
    },
    {
      "id": 5542823320,
      "name": "忠孝新村",
      "type": "bus",
      "city": "宜蘭縣",
      "district": "頭城鎮",
      "lat": 24.9358901,
      "lng": 121.8864783,
      "routes": [
        "131",
        "綠19"
      ],
      "routeCount": 2,
      "routeSource": "gtfs",
      "routeUpdatedAt": "2026-06-14T16:43:44.826Z",
      "routeConfidence": "high"
    },
    {
      "id": 5542824524,
      "name": "大溪",
      "type": "bus",
      "city": "宜蘭縣",
      "district": "頭城鎮",
      "lat": 24.9393212,
      "lng": 121.8912539,
      "routes": [
        "131",
        "綠19",
        "頭城1"
      ],
      "routeCount": 3,
      "routeSource": "gtfs",
      "routeUpdatedAt": "2026-06-14T16:43:44.826Z",
      "routeConfidence": "high"
    },
    {
      "id": 5542824525,
      "name": "大溪社區",
      "type": "bus",
      "city": "宜蘭縣",
      "district": "頭城鎮",
      "lat": 24.9403038,
      "lng": 121.893458,
      "routes": [
        "131",
        "綠19"
      ],
      "routeCount": 2,
      "routeSource": "gtfs",
      "routeUpdatedAt": "2026-06-14T16:43:44.826Z",
      "routeConfidence": "high"
    },
    {
      "id": 5542847021,
      "name": "北關",
      "type": "bus",
      "city": "宜蘭縣",
      "district": "頭城鎮",
      "lat": 24.9145605,
      "lng": 121.8794087
    },
    {
      "id": 5542847025,
      "name": "橋板湖",
      "type": "bus",
      "city": "宜蘭縣",
      "district": "頭城鎮",
      "lat": 24.9229174,
      "lng": 121.8834682,
      "routes": [
        "131",
        "綠19",
        "頭城1"
      ],
      "routeCount": 3,
      "routeSource": "gtfs",
      "routeUpdatedAt": "2026-06-14T16:43:44.826Z",
      "routeConfidence": "high"
    },
    {
      "id": 5542872703,
      "name": "大園",
      "type": "bus",
      "city": "宜蘭縣",
      "district": "頭城鎮",
      "lat": 24.9011513,
      "lng": 121.8633261,
      "routes": [
        "131",
        "綠19",
        "頭城1"
      ],
      "routeCount": 3,
      "routeSource": "gtfs",
      "routeUpdatedAt": "2026-06-14T16:43:44.826Z",
      "routeConfidence": "high"
    },
    {
      "id": 5542872705,
      "name": "更新",
      "type": "bus",
      "city": "宜蘭縣",
      "district": "頭城鎮",
      "lat": 24.9040367,
      "lng": 121.8677243,
      "routes": [
        "131",
        "綠19"
      ],
      "routeCount": 2,
      "routeSource": "gtfs",
      "routeUpdatedAt": "2026-06-14T16:43:44.826Z",
      "routeConfidence": "high"
    },
    {
      "id": 5542979808,
      "name": "頭城國小",
      "type": "bus",
      "city": "宜蘭縣",
      "district": "頭城鎮",
      "lat": 24.8634022,
      "lng": 121.8276528,
      "routes": [
        "131",
        "1766",
        "1767",
        "1767A",
        "紅1",
        "頭城1",
        "頭城2"
      ],
      "routeCount": 7,
      "routeSource": "gtfs",
      "routeUpdatedAt": "2026-06-14T16:43:44.826Z",
      "routeConfidence": "high"
    },
    {
      "id": 5542979810,
      "name": "武營橋",
      "type": "bus",
      "city": "宜蘭縣",
      "district": "頭城鎮",
      "lat": 24.8659939,
      "lng": 121.8296054,
      "routes": [
        "1766",
        "1767",
        "1767A",
        "紅1"
      ],
      "routeCount": 4,
      "routeSource": "gtfs",
      "routeUpdatedAt": "2026-06-14T16:43:44.826Z",
      "routeConfidence": "high"
    },
    {
      "id": 5542979813,
      "name": "蘭陽博物館",
      "type": "bus",
      "city": "宜蘭縣",
      "district": "頭城鎮",
      "lat": 24.8696077,
      "lng": 121.8327463,
      "routes": [
        "131",
        "1766",
        "1767",
        "1767A",
        "1877",
        "1877B",
        "紅1",
        "頭城2"
      ],
      "routeCount": 8,
      "routeSource": "gtfs",
      "routeUpdatedAt": "2026-06-14T16:43:44.826Z",
      "routeConfidence": "high"
    },
    {
      "id": 5542979815,
      "name": "烏石港站",
      "type": "bus",
      "city": "宜蘭縣",
      "district": "頭城鎮",
      "lat": 24.871142,
      "lng": 121.8350248,
      "routes": [
        "頭城2"
      ],
      "routeCount": 1,
      "routeSource": "gtfs",
      "routeUpdatedAt": "2026-06-14T16:06:29.509Z",
      "routeConfidence": "high"
    },
    {
      "id": 5542982129,
      "name": "外澳",
      "type": "bus",
      "city": "宜蘭縣",
      "district": "頭城鎮",
      "lat": 24.8832267,
      "lng": 121.8456233,
      "routes": [
        "131",
        "綠19"
      ],
      "routeCount": 2,
      "routeSource": "gtfs",
      "routeUpdatedAt": "2026-06-14T16:43:44.826Z",
      "routeConfidence": "high"
    },
    {
      "id": 5542982137,
      "name": "小澳",
      "type": "bus",
      "city": "宜蘭縣",
      "district": "頭城鎮",
      "lat": 24.8894402,
      "lng": 121.8493719,
      "routes": [
        "131"
      ],
      "routeCount": 1,
      "routeSource": "gtfs",
      "routeUpdatedAt": "2026-06-14T16:43:44.826Z",
      "routeConfidence": "high"
    },
    {
      "id": 5606481139,
      "name": "大福水門",
      "type": "bus",
      "city": "宜蘭縣",
      "district": "頭城鎮",
      "lat": 24.8079796,
      "lng": 121.8174366,
      "routes": [
        "1790",
        "綠18"
      ],
      "routeCount": 2,
      "routeSource": "gtfs",
      "routeUpdatedAt": "2026-06-14T16:43:44.826Z",
      "routeConfidence": "high"
    },
    {
      "id": 5606481141,
      "name": "竹安小城",
      "type": "bus",
      "city": "宜蘭縣",
      "district": "頭城鎮",
      "lat": 24.8122312,
      "lng": 121.8187666,
      "routes": [
        "191",
        "1790"
      ],
      "routeCount": 2,
      "routeSource": "gtfs",
      "routeUpdatedAt": "2026-06-14T16:43:44.826Z",
      "routeConfidence": "high"
    },
    {
      "id": 5606481145,
      "name": "竹安",
      "type": "bus",
      "city": "宜蘭縣",
      "district": "頭城鎮",
      "lat": 24.8178306,
      "lng": 121.8197778,
      "routes": [
        "191",
        "1790",
        "綠18"
      ],
      "routeCount": 3,
      "routeSource": "gtfs",
      "routeUpdatedAt": "2026-06-14T16:43:44.826Z",
      "routeConfidence": "high"
    },