{"city":"屏東縣","district":"萬巒鄉","category":"family","updatedAt":"2026-06-16T15:54:24.202Z","rev":24,"count":10,"items":[{"id":9667343712,"name":"萬巒豬腳街","lat":22.5739792,"lng":120.5687704,"address":null,"hasBabyChanging":false,"hasAccessible":false,"source":"OpenStreetMap","updatedAt":"2026-06-16T15:54:24.202Z","facilityType":"tourist_attraction","facilityLabel":"🧭 旅遊景點","phone":null,"website":null,"wheelchair":false,"paid":null,"needsAddr":true},{"id":10602992205,"name":"大武星空","lat":22.5867408,"lng":120.6178407,"address":null,"hasBabyChanging":false,"hasAccessible":false,"source":"OpenStreetMap","updatedAt":"2026-06-16T15:54:24.202Z","facilityType":"spot","facilityLabel":"📍 親子景點","phone":"0963 816 365","website":null,"wheelchair":false,"paid":null,"needsAddr":true},{"id":199010890,"name":"萬金聖母聖殿","lat":22.595077250000003,"lng":120.61126834999999,"address":"屏東縣萬巒鄉萬興路24號","hasBabyChanging":false,"hasAccessible":false,"source":"OpenStreetMap","updatedAt":"2026-06-16T15:54:24.202Z","facilityType":"tourist_attraction","facilityLabel":"🧭 旅遊景點","phone":"+886 8 783 2005","website":"https://www.catholic.org.tw/bankin","wheelchair":false,"paid":null,"needsAddr":false},{"id":301026068,"name":"萬巒吊橋","lat":22.5878636,"lng":120.5729475,"address":null,"hasBabyChanging":false,"hasAccessible":false,"source":"OpenStreetMap","updatedAt":"2026-06-16T15:54:24.202Z","facilityType":"tourist_attraction","facilityLabel":"🧭 旅遊景點","phone":null,"website":null,"wheelchair":false,"paid":null,"needsAddr":true},{"id":445339547,"name":"聖母公園","lat":22.59488255,"lng":120.6112349,"address":null,"hasBabyChanging":false,"hasAccessible":false,"source":"OpenStreetMap","updatedAt":"2026-06-16T15:54:24.202Z","facilityType":"park","facilityLabel":"🌳 中型公園","phone":null,"website":null,"wheelchair":false,"paid":null,"needsAddr":true},{"id":471497599,"name":"客庄綠核心公園","lat":22.572662049999998,"lng":120.59344155,"address":null,"hasBabyChanging":false,"hasAccessible":false,"source":"OpenStreetMap","updatedAt":"2026-06-16T15:54:24.202Z","facilityType":"park","facilityLabel":"🌳 中型公園","phone":null,"website":null,"wheelchair":false,"paid":null,"needsAddr":true},{"id":472051017,"name":"河濱親子公園","lat":22.5691517,"lng":120.61178625,"address":null,"hasBabyChanging":false,"hasAccessible":false,"source":"OpenStreetMap","updatedAt":"2026-06-16T15:54:24.202Z","facilityType":"park","facilityLabel":"🌳 小型公園","phone":null,"website":null,"wheelchair":false,"paid":null,"needsAddr":true},{"id":475309310,"name":"佳佐小型公園","lat":22.56802275,"lng":120.60117665,"address":null,"hasBabyChanging":false,"hasAccessible":false,"source":"OpenStreetMap","updatedAt":"2026-06-16T15:54:24.202Z","facilityType":"park","facilityLabel":"🌳 小型公園","phone":null,"website":null,"wheelchair":false,"paid":null,"needsAddr":true},{"id":475422882,"name":"西方道堂紀念公園","lat":22.5806961,"lng":120.6287222,"address":null,"hasBabyChanging":false,"hasAccessible":false,"source":"OpenStreetMap","updatedAt":"2026-06-16T15:54:24.202Z","facilityType":"park","facilityLabel":"🌳 小型公園","phone":null,"website":null,"wheelchair":false,"paid":null,"needsAddr":true},{"id":1030072360,"name":"屏東可可園區","lat":22.5736551,"lng":120.59838615000001,"address":null,"hasBabyChanging":false,"hasAccessible":false,"source":"OpenStreetMap","updatedAt":"2026-06-16T15:54:24.202Z","facilityType":"park","facilityLabel":"🌳 小型公園","phone":null,"website":null,"wheelchair":false,"paid":null,"needsAddr":true}]}