{
  "city": "台中市",
  "category": "family",
  "updatedAt": "2026-06-12T18:32:32.798Z",
  "items": [
    {
      "id": 2183337389,
      "name": "蝙蝠洞",
      "facilityType": "tourist_attraction",
      "facilityLabel": "🧭 旅遊景點",
      "lat": 24.1082978,
      "lng": 120.7799962,
      "source": "OpenStreetMap",
      "updatedAt": "2026-06-12T18:32:32.780Z"
    },
    {
      "id": 2376719744,
      "name": "三汀山望高寮",
      "facilityType": "tourist_attraction",
      "facilityLabel": "🧭 旅遊景點",
      "lat": 24.1392262,
      "lng": 120.7525465,
      "source": "OpenStreetMap",
      "updatedAt": "2026-06-12T18:32:32.782Z"
    },
    {
      "id": 2518365625,
      "name": "采蜂林蜜蜂生態教育農場",
      "facilityType": "farm",
      "facilityLabel": "🌾 農場",
      "lat": 24.12775,
      "lng": 120.7485167,
      "source": "OpenStreetMap",
      "updatedAt": "2026-06-12T18:32:32.784Z"
    },
    {
      "id": 2817102485,
      "name": "仙女瀑布",
      "facilityType": "tourist_attraction",
      "facilityLabel": "🧭 旅遊景點",
      "lat": 24.1219911,
      "lng": 120.8201633,
      "source": "OpenStreetMap",
      "updatedAt": "2026-06-12T18:32:32.785Z"
    },
    {
      "id": 5714705075,
      "name": "觀雲嶺",
      "facilityType": "tourist_attraction",
      "facilityLabel": "🧭 旅遊景點",
      "lat": 24.14296,
      "lng": 120.75513,
      "source": "OpenStreetMap",
      "updatedAt": "2026-06-12T18:32:32.786Z"
    },
    {
      "id": 9406638915,
      "name": "赤崁頂",
      "facilityType": "tourist_attraction",
      "facilityLabel": "🧭 旅遊景點",
      "lat": 24.0859601,
      "lng": 120.8182,
      "source": "OpenStreetMap",
      "updatedAt": "2026-06-12T18:32:32.788Z"
    },
    {
      "id": 10129440782,
      "name": "太平區太堤東路五心連環打卡點",
      "facilityType": "tourist_attraction",
      "facilityLabel": "🧭 旅遊景點",
      "lat": 24.1223391,
      "lng": 120.7308977,
      "source": "OpenStreetMap",
      "updatedAt": "2026-06-12T18:32:32.790Z"
    },
    {
      "id": 10129440786,
      "name": "TAIPING打卡點",
      "facilityType": "tourist_attraction",
      "facilityLabel": "🧭 旅遊景點",
      "lat": 24.1211363,
      "lng": 120.7301743,
      "source": "OpenStreetMap",
      "updatedAt": "2026-06-12T18:32:32.791Z"
    },
    {
      "id": 11380200728,
      "name": "巨石石洞",
      "facilityType": "tourist_attraction",
      "facilityLabel": "🧭 旅遊景點",
      "lat": 24.1147697,
      "lng": 120.8195057,
      "source": "OpenStreetMap",
      "updatedAt": "2026-06-12T18:32:32.792Z"
    },
    {
      "id": 11380200729,
      "name": "黑水管",
      "facilityType": "tourist_attraction",
      "facilityLabel": "🧭 旅遊景點",
      "lat": 24.1149973,
      "lng": 120.8196224,
      "source": "OpenStreetMap",
      "updatedAt": "2026-06-12T18:32:32.792Z"
    },
    {
      "id": 11380200730,
      "name": "神奇洞穴(容納三人)",
      "facilityType": "tourist_attraction",
      "facilityLabel": "🧭 旅遊景點",
      "lat": 24.1159247,
      "lng": 120.8196798,
      "source": "OpenStreetMap",
      "updatedAt": "2026-06-12T18:32:32.793Z"
    },
    {
      "id": 11380200732,
      "name": "瀑布",
      "facilityType": "tourist_attraction",
      "facilityLabel": "🧭 旅遊景點",
      "lat": 24.1183073,
      "lng": 120.8208273,
      "source": "OpenStreetMap",
      "updatedAt": "2026-06-12T18:32:32.794Z"
    },
    {
      "id": 11632605247,
      "name": "休憩平台",
      "facilityType": "tourist_attraction",
      "facilityLabel": "🧭 旅遊景點",
      "lat": 24.1068194,
      "lng": 120.7792832,
      "source": "OpenStreetMap",
      "updatedAt": "2026-06-12T18:32:32.794Z"
    },
    {
      "id": 13440788623,
      "name": "千坪嶺靜思林",
      "facilityType": "visitor_center",
      "facilityLabel": "🛎 旅客中心",
      "lat": 24.1388812,
      "lng": 120.7459272,
      "source": "OpenStreetMap",
      "updatedAt": "2026-06-12T18:32:32.794Z"
    },
    {
      "id": 13475353407,
      "name": "慈光步道",
      "facilityType": "visitor_center",
      "facilityLabel": "🛎 旅客中心",
      "lat": 24.1447123,
      "lng": 120.7416617,
      "source": "OpenStreetMap",
      "updatedAt": "2026-06-12T18:32:32.795Z"
    },
    {
      "id": 320461851,
      "name": "炮仔林吊橋",
      "facilityType": "tourist_attraction",
      "facilityLabel": "🧭 旅遊景點",
      "lat": 24.0951511,
      "lng": 120.7712477,
      "source": "OpenStreetMap",
      "updatedAt": "2026-06-12T18:32:32.795Z"
    },
    {
      "id": 584731013,
      "name": "古農莊文物館",
      "facilityType": "culture",
      "facilityLabel": "🎨 藝文場館",
      "lat": 24.1172339,
      "lng": 120.7423289,
      "source": "OpenStreetMap",
      "updatedAt": "2026-06-12T18:32:32.796Z",
      "address": "406台中市太平區光興路1266巷160號"
    },
    {
      "id": 1024659072,
      "name": "赤崁頭乾溝上大橫屏山北稜",
      "facilityType": "tourist_attraction",
      "facilityLabel": "🧭 旅遊景點",
      "lat": 24.0821086,
      "lng": 120.826122,
      "source": "OpenStreetMap",
      "updatedAt": "2026-06-12T18:32:32.796Z"
    },
    {
      "id": 1144569591,
      "name": "太平市深度旅遊服務中心",
      "facilityType": "visitor_center",
      "facilityLabel": "🛎 旅客中心",
      "lat": 24.1090253,
      "lng": 120.7807745,
      "source": "OpenStreetMap",
      "updatedAt": "2026-06-12T18:32:32.797Z"
    },
    {
      "id": 1227211754,
      "name": "金字凍山北稜下仙女瀑布 多斷稜極危險(戎祥探勘)",
      "facilityType": "tourist_attraction",
      "facilityLabel": "🧭 旅遊景點",
      "lat": 24.1155756,
      "lng": 120.8198913,
      "source": "OpenStreetMap",
      "updatedAt": "2026-06-12T18:32:32.797Z"
    },
    {
      "id": 7007698,
      "name": "九九峰自然保留區",
      "facilityType": "spot",
      "facilityLabel": "📍 親子景點",
      "lat": 24.0225431,
      "lng": 120.785659,
      "source": "OpenStreetMap",
      "updatedAt": "2026-06-12T18:32:32.798Z"
    }
  ]
}
