{
  "city": "台中市",
  "category": "family",
  "updatedAt": "2026-06-12T18:36:46.254Z",
  "items": [
    {
      "id": 2280384401,
      "name": "水橋",
      "facilityType": "tourist_attraction",
      "facilityLabel": "🧭 旅遊景點",
      "lat": 24.1196402,
      "lng": 120.5882258,
      "source": "OpenStreetMap",
      "updatedAt": "2026-06-12T18:36:46.239Z"
    },
    {
      "id": 2280384402,
      "name": "烏日知高圳步道口",
      "facilityType": "visitor_center",
      "facilityLabel": "🛎 旅客中心",
      "lat": 24.1180399,
      "lng": 120.5895791,
      "source": "OpenStreetMap",
      "updatedAt": "2026-06-12T18:36:46.242Z"
    },
    {
      "id": 4930525021,
      "name": "聚奎居",
      "facilityType": "tourist_attraction",
      "facilityLabel": "🧭 旅遊景點",
      "lat": 24.1190605,
      "lng": 120.6065659,
      "source": "OpenStreetMap",
      "updatedAt": "2026-06-12T18:36:46.243Z"
    },
    {
      "id": 6201448322,
      "name": "旅客服務台",
      "facilityType": "visitor_center",
      "facilityLabel": "🛎 旅客中心",
      "lat": 24.111562,
      "lng": 120.6158875,
      "source": "OpenStreetMap",
      "updatedAt": "2026-06-12T18:36:46.245Z"
    },
    {
      "id": 6201685009,
      "name": "南投客運",
      "facilityType": "visitor_center",
      "facilityLabel": "🛎 旅客中心",
      "lat": 24.1116471,
      "lng": 120.6162136,
      "source": "OpenStreetMap",
      "updatedAt": "2026-06-12T18:36:46.246Z"
    },
    {
      "id": 6201685010,
      "name": "台中客運",
      "facilityType": "visitor_center",
      "facilityLabel": "🛎 旅客中心",
      "lat": 24.1116667,
      "lng": 120.6159481,
      "source": "OpenStreetMap",
      "updatedAt": "2026-06-12T18:36:46.248Z"
    },
    {
      "id": 318951217,
      "name": "大專集訓歷史館",
      "facilityType": "science",
      "facilityLabel": "🔬 博物館",
      "lat": 24.1196894,
      "lng": 120.6016787,
      "source": "OpenStreetMap",
      "updatedAt": "2026-06-12T18:36:46.249Z"
    },
    {
      "id": 1066046354,
      "name": "烏日吊橋",
      "facilityType": "tourist_attraction",
      "facilityLabel": "🧭 旅遊景點",
      "lat": 24.1056747,
      "lng": 120.6312902,
      "source": "OpenStreetMap",
      "updatedAt": "2026-06-12T18:36:46.250Z"
    },
    {
      "id": 1154889826,
      "name": "麻園頭溪吊橋",
      "facilityType": "tourist_attraction",
      "facilityLabel": "🧭 旅遊景點",
      "lat": 24.1034506,
      "lng": 120.6316303,
      "source": "OpenStreetMap",
      "updatedAt": "2026-06-12T18:36:46.252Z"
    },
    {
      "id": 1163130784,
      "name": "烏日吊橋",
      "facilityType": "tourist_attraction",
      "facilityLabel": "🧭 旅遊景點",
      "lat": 24.1056767,
      "lng": 120.631288,
      "source": "OpenStreetMap",
      "updatedAt": "2026-06-12T18:36:46.254Z"
    },
    {
      "id": 15731657,
      "name": "烏日吊橋",
      "facilityType": "tourist_attraction",
      "facilityLabel": "🧭 旅遊景點",
      "lat": 24.1056767,
      "lng": 120.631288,
      "source": "OpenStreetMap",
      "updatedAt": "2026-06-12T18:36:46.254Z"
    }
  ]
}
