{"city":"台中市","district":"梧棲區","category":"toilets","updatedAt":"2026-06-10T15:41:05.166Z","rev":1,"count":106,"items":[{"id":2314407153,"name":"梧棲分駐所","lat":24.25485,"lng":120.5339105,"address":null,"hasBabyChanging":false,"hasAccessible":false,"source":"OpenStreetMap","updatedAt":"2026-06-10T15:41:05.166Z","facilityType":"police","facilityLabel":"🚔 派出所","changingTable":false,"wheelchair":false,"needsAddr":false},{"id":2536764393,"name":"安寧派出所","lat":24.2495944,"lng":120.5383827,"address":"臺中市梧棲區中棲路二段18號","hasBabyChanging":false,"hasAccessible":false,"source":"OpenStreetMap","updatedAt":"2026-06-10T15:41:05.166Z","facilityType":"police","facilityLabel":"🚔 派出所","changingTable":false,"wheelchair":false,"needsAddr":false},{"id":3676430905,"name":"玄美慈惠堂","lat":24.2422117,"lng":120.5306891,"address":null,"hasBabyChanging":false,"hasAccessible":false,"source":"OpenStreetMap","updatedAt":"2026-06-10T15:41:05.166Z","facilityType":"temple","facilityLabel":"🛕 廟宇","changingTable":false,"wheelchair":false,"needsAddr":false},{"id":3889933296,"name":"公共廁所","lat":24.2522025,"lng":120.5292076,"address":null,"hasBabyChanging":false,"hasAccessible":false,"source":"OpenStreetMap","updatedAt":"2026-06-10T15:41:05.166Z","facilityType":"toilet","facilityLabel":null,"changingTable":false,"wheelchair":false,"needsAddr":true},{"id":259922124,"name":"童綜合醫院梧棲院區","lat":24.2469933,"lng":120.5426053,"address":"43541臺中市梧棲區大庄里臺灣大道八段699號","hasBabyChanging":false,"hasAccessible":true,"source":"OpenStreetMap","updatedAt":"2026-06-10T15:41:05.166Z","facilityType":"hospital","facilityLabel":"🏥 醫院","changingTable":false,"wheelchair":true,"needsAddr":false},{"id":4368084904,"name":"梧棲浩天宮","lat":24.245832,"lng":120.53974,"address":"臺中市梧棲區中央路一段784號","hasBabyChanging":false,"hasAccessible":false,"source":"OpenStreetMap","updatedAt":"2026-06-10T15:41:05.166Z","facilityType":"temple","facilityLabel":"🛕 廟宇","changingTable":false,"wheelchair":false,"needsAddr":false},{"id":4631691207,"name":"7-Eleven 港埠門市","lat":24.24672,"lng":120.5345096,"address":null,"hasBabyChanging":false,"hasAccessible":false,"source":"OpenStreetMap","updatedAt":"2026-06-10T15:41:05.166Z","facilityType":"convenience","facilityLabel":"🏪 超商","changingTable":false,"wheelchair":false,"needsAddr":false},{"id":4647505200,"name":"順興宮","lat":24.2490164,"lng":120.5396134,"address":null,"hasBabyChanging":false,"hasAccessible":false,"source":"OpenStreetMap","updatedAt":"2026-06-10T15:41:05.166Z","facilityType":"temple","facilityLabel":"🛕 廟宇","changingTable":false,"wheelchair":false,"needsAddr":false},{"id":4654758589,"name":"阿隆師漁港海鮮館","lat":24.2572733,"lng":120.5401551,"address":null,"hasBabyChanging":false,"hasAccessible":false,"source":"OpenStreetMap","updatedAt":"2026-06-10T15:41:05.166Z","facilityType":"harbour","facilityLabel":"⚓ 漁港","changingTable":false,"wheelchair":false,"needsAddr":false},{"id":4681232091,"name":"思夢樂梧棲店","lat":24.2569689,"lng":120.5593297,"address":null,"hasBabyChanging":false,"hasAccessible":false,"source":"OpenStreetMap","updatedAt":"2026-06-10T15:41:05.166Z","facilityType":"shimamura","facilityLabel":"👕 思夢樂","changingTable":false,"wheelchair":false,"needsAddr":false},{"id":4891402286,"name":"頂寮社區活動中心","lat":24.2646454,"lng":120.5360224,"address":"臺中市梧棲區頂寮里八德東路100號","hasBabyChanging":false,"hasAccessible":false,"source":"OpenStreetMap","updatedAt":"2026-06-10T15:41:05.166Z","facilityType":"community","facilityLabel":"🏘️ 活動中心","changingTable":false,"wheelchair":false,"needsAddr":false},{"id":5123448072,"name":"梧棲區中正里、文化里、安仁里及中和里四里聯合活動中心","lat":24.254798,"lng":120.5341282,"address":"臺中市梧棲區","hasBabyChanging":false,"hasAccessible":false,"source":"OpenStreetMap","updatedAt":"2026-06-10T15:41:05.166Z","facilityType":"community","facilityLabel":"🏘️ 活動中心","changingTable":false,"wheelchair":false,"needsAddr":false},{"id":5123448073,"name":"梧棲戶政事務所","lat":24.2549521,"lng":120.5339351,"address":null,"hasBabyChanging":false,"hasAccessible":false,"source":"OpenStreetMap","updatedAt":"2026-06-10T15:41:05.166Z","facilityType":"government","facilityLabel":"🏛 公務機關","changingTable":false,"wheelchair":false,"needsAddr":false},{"id":5123448090,"name":"南簡社區活動中心","lat":24.2609397,"lng":120.5432697,"address":null,"hasBabyChanging":false,"hasAccessible":false,"source":"OpenStreetMap","updatedAt":"2026-06-10T15:41:05.166Z","facilityType":"community","facilityLabel":"🏘️ 活動中心","changingTable":false,"wheelchair":false,"needsAddr":false},{"id":5123448099,"name":"東天宮","lat":24.2512095,"lng":120.5409412,"address":null,"hasBabyChanging":false,"hasAccessible":false,"source":"OpenStreetMap","updatedAt":"2026-06-10T15:41:05.166Z","facilityType":"temple","facilityLabel":"🛕 廟宇","changingTable":false,"wheelchair":false,"needsAddr":false},{"id":5123507657,"name":"銀櫃KTV","lat":24.2584381,"lng":120.538262,"address":null,"hasBabyChanging":false,"hasAccessible":false,"source":"OpenStreetMap","updatedAt":"2026-06-10T15:41:05.166Z","facilityType":"ktv","facilityLabel":"🎤 KTV","changingTable":false,"wheelchair":false,"needsAddr":false},{"id":5123888183,"name":"天貴佛堂","lat":24.2566586,"lng":120.5525508,"address":null,"hasBabyChanging":false,"hasAccessible":false,"source":"OpenStreetMap","updatedAt":"2026-06-10T15:41:05.166Z","facilityType":"temple","facilityLabel":"🛕 廟宇","changingTable":false,"wheelchair":false,"needsAddr":false},{"id":5123905785,"name":"隨興宮","lat":24.2603927,"lng":120.5297701,"address":null,"hasBabyChanging":false,"hasAccessible":false,"source":"OpenStreetMap","updatedAt":"2026-06-10T15:41:05.166Z","facilityType":"temple","facilityLabel":"🛕 廟宇","changingTable":false,"wheelchair":false,"needsAddr":false},{"id":5123905786,"name":"富美宮","lat":24.2609011,"lng":120.5299242,"address":null,"hasBabyChanging":false,"hasAccessible":false,"source":"OpenStreetMap","updatedAt":"2026-06-10T15:41:05.166Z","facilityType":"temple","facilityLabel":"🛕 廟宇","changingTable":false,"wheelchair":false,"needsAddr":false},{"id":5134329244,"name":"公共廁所","lat":24.258006,"lng":120.5434576,"address":null,"hasBabyChanging":false,"hasAccessible":true,"source":"OpenStreetMap","updatedAt":"2026-06-10T15:41:05.166Z","facilityType":"toilet","facilityLabel":null,"changingTable":false,"wheelchair":true,"fee":"no","needsAddr":true},{"id":5134329254,"name":"土地公廟","lat":24.2574784,"lng":120.5413083,"address":null,"hasBabyChanging":false,"hasAccessible":false,"source":"OpenStreetMap","updatedAt":"2026-06-10T15:41:05.166Z","facilityType":"temple","facilityLabel":"🛕 廟宇","changingTable":false,"wheelchair":false,"needsAddr":false},{"id":5135250073,"name":"梧棲聖寶宮","lat":24.259352,"lng":120.5421275,"address":null,"hasBabyChanging":false,"hasAccessible":false,"source":"OpenStreetMap","updatedAt":"2026-06-10T15:41:05.166Z","facilityType":"temple","facilityLabel":"🛕 廟宇","changingTable":false,"wheelchair":false,"needsAddr":false},{"id":5135363934,"name":"忠港醫院","lat":24.2524715,"lng":120.5360374,"address":null,"hasBabyChanging":false,"hasAccessible":false,"source":"OpenStreetMap","updatedAt":"2026-06-10T15:41:05.166Z","facilityType":"clinic","facilityLabel":"🩺 診所","changingTable":false,"wheelchair":false,"needsAddr":false},{"id":5135363970,"name":"內政部移民署","lat":24.262575,"lng":120.5326473,"address":null,"hasBabyChanging":false,"hasAccessible":false,"source":"OpenStreetMap","updatedAt":"2026-06-10T15:41:05.166Z","facilityType":"government","facilityLabel":"🏛 公務機關","changingTable":false,"wheelchair":false,"needsAddr":false},{"id":5136630158,"name":"中國石油 中正站","lat":24.2527842,"lng":120.5377461,"address":null,"hasBabyChanging":false,"hasAccessible":false,"source":"OpenStreetMap","updatedAt":"2026-06-10T15:41:05.166Z","facilityType":"fuel","facilityLabel":"⛽ 加油站","changingTable":false,"wheelchair":false,"needsAddr":false},{"id":5136630159,"name":"福德祠","lat":24.2523544,"lng":120.5396409,"address":null,"hasBabyChanging":false,"hasAccessible":false,"source":"OpenStreetMap","updatedAt":"2026-06-10T15:41:05.166Z","facilityType":"temple","facilityLabel":"🛕 廟宇","changingTable":false,"wheelchair":false,"needsAddr":false},{"id":5136630193,"name":"福德祠","lat":24.2540106,"lng":120.5417881,"address":null,"hasBabyChanging":false,"hasAccessible":false,"source":"OpenStreetMap","updatedAt":"2026-06-10T15:41:05.166Z","facilityType":"temple","facilityLabel":"🛕 廟宇","changingTable":false,"wheelchair":false,"needsAddr":false},{"id":5155188724,"name":"台灣中油 加豐站","lat":24.2317699,"lng":120.5463851,"address":null,"hasBabyChanging":false,"hasAccessible":false,"source":"OpenStreetMap","updatedAt":"2026-06-10T15:41:05.166Z","facilityType":"fuel","facilityLabel":"⛽ 加油站","changingTable":false,"wheelchair":false,"needsAddr":false},{"id":5155207023,"name":"台灣中油","lat":24.2283235,"lng":120.5457136,"address":null,"hasBabyChanging":false,"hasAccessible":false,"source":"OpenStreetMap","updatedAt":"2026-06-10T15:41:05.166Z","facilityType":"fuel","facilityLabel":"⛽ 加油站","changingTable":false,"wheelchair":false,"needsAddr":false},{"id":5285379935,"name":"御聖KTV","lat":24.2596612,"lng":120.5393062,"address":null,"hasBabyChanging":false,"hasAccessible":false,"source":"OpenStreetMap","updatedAt":"2026-06-10T15:41:05.166Z","facilityType":"ktv","facilityLabel":"🎤 KTV","changingTable":false,"wheelchair":false,"needsAddr":false},{"id":5291630383,"name":"交通部港灣技術研究中心","lat":24.2702285,"lng":120.5293198,"address":"43542臺中市梧棲區頂寮里10鄰中橫十路2號","hasBabyChanging":false,"hasAccessible":false,"source":"OpenStreetMap","updatedAt":"2026-06-10T15:41:05.166Z","facilityType":"government","facilityLabel":"🏛 公務機關","changingTable":false,"wheelchair":false,"needsAddr":false},{"id":5369440740,"name":"台中港區魯班宮","lat":24.2525581,"lng":120.5344747,"address":null,"hasBabyChanging":false,"hasAccessible":false,"source":"OpenStreetMap","updatedAt":"2026-06-10T15:41:05.166Z","facilityType":"temple","facilityLabel":"🛕 廟宇","changingTable":false,"wheelchair":false,"needsAddr":false},{"id":5922373048,"name":"梧棲漁寮文化園區","lat":24.2590888,"lng":120.5306793,"address":null,"hasBabyChanging":false,"hasAccessible":false,"source":"OpenStreetMap","updatedAt":"2026-06-10T15:41:05.166Z","facilityType":"museum","facilityLabel":"🖼️ 博物館","changingTable":false,"wheelchair":false,"needsAddr":false},{"id":5931429956,"name":"梧棲夜市","lat":24.2478949,"lng":120.5301128,"address":null,"hasBabyChanging":false,"hasAccessible":false,"source":"OpenStreetMap","updatedAt":"2026-06-10T15:41:05.166Z","facilityType":"nightmarket","facilityLabel":"🍢 夜市","changingTable":false,"wheelchair":false,"needsAddr":false},{"id":5931429962,"name":"安定宮 福德正神","lat":24.2486692,"lng":120.5249203,"address":null,"hasBabyChanging":false,"hasAccessible":false,"source":"OpenStreetMap","updatedAt":"2026-06-10T15:41:05.166Z","facilityType":"temple","facilityLabel":"🛕 廟宇","changingTable":false,"wheelchair":false,"needsAddr":false},{"id":5931429963,"name":"龍安宮","lat":24.2421679,"lng":120.5242863,"address":null,"hasBabyChanging":false,"hasAccessible":false,"source":"OpenStreetMap","updatedAt":"2026-06-10T15:41:05.166Z","facilityType":"temple","facilityLabel":"🛕 廟宇","changingTable":false,"wheelchair":false,"needsAddr":false},{"id":5934097858,"name":"法務部調查局航業調查處","lat":24.2607115,"lng":120.5286961,"address":null,"hasBabyChanging":false,"hasAccessible":false,"source":"OpenStreetMap","updatedAt":"2026-06-10T15:41:05.166Z","facilityType":"government","facilityLabel":"🏛 公務機關","changingTable":false,"wheelchair":false,"needsAddr":false},{"id":6124770736,"name":"媽祖行海","lat":24.2609177,"lng":120.5223517,"address":null,"hasBabyChanging":false,"hasAccessible":true,"source":"OpenStreetMap","updatedAt":"2026-06-10T15:41:05.166Z","facilityType":"attraction","facilityLabel":"🏞️ 景點","changingTable":false,"wheelchair":true,"openingHours":"24/7","needsAddr":false},{"id":6124770737,"name":"三樓觀景台","lat":24.2601572,"lng":120.5213841,"address":null,"hasBabyChanging":false,"hasAccessible":false,"source":"OpenStreetMap","updatedAt":"2026-06-10T15:41:05.166Z","facilityType":"attraction","facilityLabel":"🏞️ 景點","changingTable":false,"wheelchair":false,"needsAddr":false},{"id":6124820902,"name":"臺中之星摩天輪","lat":24.2596715,"lng":120.5173786,"address":null,"hasBabyChanging":false,"hasAccessible":false,"source":"OpenStreetMap","updatedAt":"2026-06-10T15:41:05.166Z","facilityType":"attraction","facilityLabel":"🏞️ 景點","changingTable":false,"wheelchair":false,"fee":"yes","needsAddr":false},{"id":6125150299,"name":"SNOW TOWN","lat":24.2595413,"lng":120.5168946,"address":null,"hasBabyChanging":false,"hasAccessible":false,"source":"OpenStreetMap","updatedAt":"2026-06-10T15:41:05.166Z","facilityType":"theme_park","facilityLabel":"🎡 遊樂園","changingTable":false,"wheelchair":false,"needsAddr":false},{"id":6125150300,"name":"ASOBI SQUARE","lat":24.2597712,"lng":120.5169681,"address":null,"hasBabyChanging":false,"hasAccessible":false,"source":"OpenStreetMap","updatedAt":"2026-06-10T15:41:05.166Z","facilityType":"theme_park","facilityLabel":"🎡 遊樂園","changingTable":false,"wheelchair":false,"needsAddr":false},{"id":6510326970,"name":"公共廁所","lat":24.2432448,"lng":120.5470789,"address":null,"hasBabyChanging":false,"hasAccessible":false,"source":"OpenStreetMap","updatedAt":"2026-06-10T15:41:05.166Z","facilityType":"toilet","facilityLabel":null,"changingTable":false,"wheelchair":false,"needsAddr":true},{"id":6510327089,"name":"義德診所","lat":24.2424955,"lng":120.54764,"address":null,"hasBabyChanging":false,"hasAccessible":false,"source":"OpenStreetMap","updatedAt":"2026-06-10T15:41:05.166Z","facilityType":"clinic","facilityLabel":"🩺 診所","changingTable":false,"wheelchair":false,"needsAddr":false},{"id":6520514506,"name":"公共廁所","lat":24.2510593,"lng":120.5431334,"address":null,"hasBabyChanging":false,"hasAccessible":false,"source":"OpenStreetMap","updatedAt":"2026-06-10T15:41:05.166Z","facilityType":"toilet","facilityLabel":null,"changingTable":false,"wheelchair":false,"needsAddr":true},{"id":10021897880,"name":"公共廁所","lat":24.2566408,"lng":120.5292074,"address":null,"hasBabyChanging":false,"hasAccessible":false,"source":"OpenStreetMap","updatedAt":"2026-06-10T15:41:05.166Z","facilityType":"toilet","facilityLabel":null,"changingTable":false,"wheelchair":false,"needsAddr":true},{"id":10105932518,"name":"公共廁所","lat":24.2588176,"lng":120.5181113,"address":null,"hasBabyChanging":false,"hasAccessible":false,"source":"OpenStreetMap","updatedAt":"2026-06-10T15:41:05.166Z","facilityType":"toilet","facilityLabel":null,"changingTable":false,"wheelchair":false,"fee":"no","needsAddr":true},{"id":10105948317,"name":"星巴克","lat":24.259333,"lng":120.5174185,"address":null,"hasBabyChanging":false,"hasAccessible":false,"source":"OpenStreetMap","updatedAt":"2026-06-10T15:41:05.166Z","facilityType":"starbucks","facilityLabel":"☕ 星巴克","changingTable":false,"wheelchair":false,"needsAddr":true},{"id":10106096017,"name":"公共廁所","lat":24.2582652,"lng":120.519335,"address":null,"hasBabyChanging":false,"hasAccessible":false,"source":"OpenStreetMap","updatedAt":"2026-06-10T15:41:05.166Z","facilityType":"toilet","facilityLabel":null,"changingTable":false,"wheelchair":false,"needsAddr":true},{"id":10106096318,"name":"公共廁所","lat":24.2579086,"lng":120.5203466,"address":null,"hasBabyChanging":false,"hasAccessible":false,"source":"OpenStreetMap","updatedAt":"2026-06-10T15:41:05.166Z","facilityType":"toilet","facilityLabel":null,"changingTable":false,"wheelchair":false,"needsAddr":true},{"id":11383768970,"name":"藏壽司","lat":24.2591764,"lng":120.5183073,"address":null,"hasBabyChanging":false,"hasAccessible":false,"source":"OpenStreetMap","updatedAt":"2026-06-10T15:41:05.166Z","facilityType":"sushi","facilityLabel":"🍣 迴轉壽司","changingTable":false,"wheelchair":false,"needsAddr":false},{"id":11422176352,"name":"台灣中油-建福站","lat":24.2423146,"lng":120.5335484,"address":"435054臺中市梧棲區港埠路一段800號","hasBabyChanging":false,"hasAccessible":false,"source":"OpenStreetMap","updatedAt":"2026-06-10T15:41:05.166Z","facilityType":"fuel","facilityLabel":"⛽ 加油站","changingTable":false,"wheelchair":false,"needsAddr":false},{"id":11870976901,"name":"經濟部產業園區管理局臺中分局","lat":24.2368766,"lng":120.5154277,"address":"435059臺中市梧棲區大觀路6號","hasBabyChanging":false,"hasAccessible":false,"source":"OpenStreetMap","updatedAt":"2026-06-10T15:41:05.166Z","facilityType":"government","facilityLabel":"🏛 公務機關","changingTable":false,"wheelchair":false,"needsAddr":false},{"id":12123916692,"name":"寶成中醫","lat":24.2506879,"lng":120.5293657,"address":null,"hasBabyChanging":false,"hasAccessible":false,"source":"OpenStreetMap","updatedAt":"2026-06-10T15:41:05.166Z","facilityType":"clinic","facilityLabel":"🩺 診所","changingTable":false,"wheelchair":false,"needsAddr":false},{"id":12473100183,"name":"長興宮","lat":24.2580945,"lng":120.5291856,"address":null,"hasBabyChanging":false,"hasAccessible":false,"source":"OpenStreetMap","updatedAt":"2026-06-10T15:41:05.166Z","facilityType":"temple","facilityLabel":"🛕 廟宇","changingTable":false,"wheelchair":false,"needsAddr":false},{"id":12473100184,"name":"保安宮","lat":24.2583166,"lng":120.527434,"address":null,"hasBabyChanging":false,"hasAccessible":false,"source":"OpenStreetMap","updatedAt":"2026-06-10T15:41:05.166Z","facilityType":"temple","facilityLabel":"🛕 廟宇","changingTable":false,"wheelchair":false,"needsAddr":false},{"id":12473100185,"name":"廟宇","lat":24.2563373,"lng":120.5286406,"address":null,"hasBabyChanging":false,"hasAccessible":false,"source":"OpenStreetMap","updatedAt":"2026-06-10T15:41:05.166Z","facilityType":"temple","facilityLabel":"🛕 廟宇","changingTable":false,"wheelchair":false,"needsAddr":true},{"id":12473100186,"name":"順安宮","lat":24.2536015,"lng":120.5281592,"address":null,"hasBabyChanging":false,"hasAccessible":false,"source":"OpenStreetMap","updatedAt":"2026-06-10T15:41:05.166Z","facilityType":"temple","facilityLabel":"🛕 廟宇","changingTable":false,"wheelchair":false,"needsAddr":false},{"id":12822720901,"name":"廣安宮","lat":24.2465851,"lng":120.5411593,"address":null,"hasBabyChanging":false,"hasAccessible":false,"source":"OpenStreetMap","updatedAt":"2026-06-10T15:41:05.166Z","facilityType":"temple","facilityLabel":"🛕 廟宇","changingTable":false,"wheelchair":false,"needsAddr":false},{"id":12828271020,"name":"廟宇","lat":24.2247937,"lng":120.5267756,"address":null,"hasBabyChanging":false,"hasAccessible":false,"source":"OpenStreetMap","updatedAt":"2026-06-10T15:41:05.166Z","facilityType":"temple","facilityLabel":"🛕 廟宇","changingTable":false,"wheelchair":false,"needsAddr":true},{"id":13167326194,"name":"廟宇","lat":24.2459518,"lng":120.5401479,"address":null,"hasBabyChanging":false,"hasAccessible":false,"source":"OpenStreetMap","updatedAt":"2026-06-10T15:41:05.166Z","facilityType":"temple","facilityLabel":"🛕 廟宇","changingTable":false,"wheelchair":false,"needsAddr":true},{"id":13301334730,"name":"麥當勞 台中梧棲餐廳","lat":24.2518349,"lng":120.5299484,"address":"臺中市梧棲區臺灣大道九段217號","hasBabyChanging":false,"hasAccessible":false,"source":"OpenStreetMap","updatedAt":"2026-06-10T15:41:05.166Z","facilityType":"mcdonalds","facilityLabel":"🍔 麥當勞","changingTable":false,"wheelchair":false,"needsAddr":false},{"id":222471396,"name":"梧棲區公所","lat":24.254876,"lng":120.5317393,"address":"臺中市梧棲區中和街66號","hasBabyChanging":false,"hasAccessible":false,"source":"OpenStreetMap","updatedAt":"2026-06-10T15:41:05.166Z","facilityType":"government","facilityLabel":"🏛 公務機關","changingTable":false,"wheelchair":false,"needsAddr":false},{"id":306628630,"name":"臺中港務警察總隊","lat":24.2627906,"lng":120.5273054,"address":null,"hasBabyChanging":false,"hasAccessible":false,"source":"OpenStreetMap","updatedAt":"2026-06-10T15:41:05.166Z","facilityType":"police","facilityLabel":"🚔 派出所","changingTable":false,"wheelchair":false,"needsAddr":false},{"id":306628958,"name":"臺中港務分公司","lat":24.2562021,"lng":120.5233674,"address":"43501臺中市梧棲區臺灣大道十段2號","hasBabyChanging":false,"hasAccessible":false,"source":"OpenStreetMap","updatedAt":"2026-06-10T15:41:05.166Z","facilityType":"government","facilityLabel":"🏛 公務機關","changingTable":false,"wheelchair":false,"needsAddr":false},{"id":314250879,"name":"梧棲中港觀光夜市","lat":24.243545,"lng":120.5449152,"address":null,"hasBabyChanging":false,"hasAccessible":false,"source":"OpenStreetMap","updatedAt":"2026-06-10T15:41:05.166Z","facilityType":"nightmarket","facilityLabel":"🍢 夜市","changingTable":false,"wheelchair":false,"needsAddr":false},{"id":334796726,"name":"公共廁所","lat":24.2590673,"lng":120.5218809,"address":null,"hasBabyChanging":false,"hasAccessible":false,"source":"OpenStreetMap","updatedAt":"2026-06-10T15:41:05.166Z","facilityType":"toilet","facilityLabel":null,"changingTable":false,"wheelchair":false,"needsAddr":true},{"id":334796728,"name":"濱海中隊","lat":24.2580326,"lng":120.5237245,"address":"臺中市梧棲區中二路一段8號","hasBabyChanging":false,"hasAccessible":false,"source":"OpenStreetMap","updatedAt":"2026-06-10T15:41:05.166Z","facilityType":"police","facilityLabel":"🚔 派出所","changingTable":false,"wheelchair":false,"openingHours":"24/7","needsAddr":false},{"id":334796731,"name":"財政部關務署臺中關","lat":24.2563664,"lng":120.5239191,"address":"43541臺中市梧棲區臺灣大道十段2號","hasBabyChanging":false,"hasAccessible":false,"source":"OpenStreetMap","updatedAt":"2026-06-10T15:41:05.166Z","facilityType":"government","facilityLabel":"🏛 公務機關","changingTable":false,"wheelchair":false,"openingHours":"Mo-Fr 08:30-12:30,13:00-17:00","needsAddr":false},{"id":334796741,"name":"中突堤中隊","lat":24.2559836,"lng":120.5213278,"address":null,"hasBabyChanging":false,"hasAccessible":false,"source":"OpenStreetMap","updatedAt":"2026-06-10T15:41:05.166Z","facilityType":"police","facilityLabel":"🚔 派出所","changingTable":false,"wheelchair":false,"needsAddr":false},{"id":363481046,"name":"草湳里活動中心","lat":24.2407761,"lng":120.5300905,"address":"臺中市梧棲區自強二街61號","hasBabyChanging":false,"hasAccessible":false,"source":"OpenStreetMap","updatedAt":"2026-06-10T15:41:05.166Z","facilityType":"community","facilityLabel":"🏘️ 活動中心","changingTable":false,"wheelchair":false,"needsAddr":false},{"id":491095145,"name":"三井 OUTLET 台中港","lat":24.2582158,"lng":120.5190053,"address":"43541臺中市梧棲區台灣大道十段168號","hasBabyChanging":true,"hasAccessible":false,"source":"OpenStreetMap","updatedAt":"2026-06-10T15:41:05.166Z","facilityType":"department","facilityLabel":"🏬 百貨","changingTable":true,"wheelchair":false,"needsAddr":false},{"id":526927348,"name":"建發加油站","lat":24.2600097,"lng":120.5400922,"address":"435台中市梧棲區港埠路二段433號","hasBabyChanging":false,"hasAccessible":false,"source":"OpenStreetMap","updatedAt":"2026-06-10T15:41:05.166Z","facilityType":"fuel","facilityLabel":"⛽ 加油站","changingTable":false,"wheelchair":false,"openingHours":"00:00-24:00","needsAddr":false},{"id":526927644,"name":"中油梧棲站","lat":24.2607978,"lng":120.5320565,"address":"435台中市梧棲區八德路2號","hasBabyChanging":false,"hasAccessible":false,"source":"OpenStreetMap","updatedAt":"2026-06-10T15:41:05.166Z","facilityType":"fuel","facilityLabel":"⛽ 加油站","changingTable":false,"wheelchair":false,"openingHours":"00:00-24:00","needsAddr":false},{"id":526931533,"name":"梧棲衛生所","lat":24.2548112,"lng":120.5320493,"address":null,"hasBabyChanging":false,"hasAccessible":false,"source":"OpenStreetMap","updatedAt":"2026-06-10T15:41:05.166Z","facilityType":"clinic","facilityLabel":"🩺 診所","changingTable":false,"wheelchair":false,"needsAddr":false},{"id":526931534,"name":"梧棲圖書館","lat":24.2545911,"lng":120.5319193,"address":null,"hasBabyChanging":false,"hasAccessible":false,"source":"OpenStreetMap","updatedAt":"2026-06-10T15:41:05.166Z","facilityType":"library","facilityLabel":"📚 圖書館","changingTable":false,"wheelchair":false,"needsAddr":false},{"id":526931537,"name":"中港慈惠堂","lat":24.2597132,"lng":120.5387909,"address":null,"hasBabyChanging":false,"hasAccessible":false,"source":"OpenStreetMap","updatedAt":"2026-06-10T15:41:05.166Z","facilityType":"temple","facilityLabel":"🛕 廟宇","changingTable":false,"wheelchair":false,"needsAddr":false},{"id":526931538,"name":"朱南宮","lat":24.2609418,"lng":120.5433791,"address":null,"hasBabyChanging":false,"hasAccessible":false,"source":"OpenStreetMap","updatedAt":"2026-06-10T15:41:05.166Z","facilityType":"temple","facilityLabel":"🛕 廟宇","changingTable":false,"wheelchair":false,"needsAddr":false},{"id":526935566,"name":"真武宮","lat":24.2567831,"lng":120.5290332,"address":null,"hasBabyChanging":false,"hasAccessible":false,"source":"OpenStreetMap","updatedAt":"2026-06-10T15:41:05.166Z","facilityType":"temple","facilityLabel":"🛕 廟宇","changingTable":false,"wheelchair":false,"needsAddr":false},{"id":526982220,"name":"梧棲慈惠堂","lat":24.2535734,"lng":120.5395591,"address":null,"hasBabyChanging":false,"hasAccessible":false,"source":"OpenStreetMap","updatedAt":"2026-06-10T15:41:05.166Z","facilityType":"temple","facilityLabel":"🛕 廟宇","changingTable":false,"wheelchair":false,"needsAddr":false},{"id":526982233,"name":"梧棲文化出張所","lat":24.2565444,"lng":120.5298894,"address":null,"hasBabyChanging":false,"hasAccessible":false,"source":"OpenStreetMap","updatedAt":"2026-06-10T15:41:05.166Z","facilityType":"attraction","facilityLabel":"🏞️ 景點","changingTable":false,"wheelchair":false,"needsAddr":false},{"id":526988005,"name":"斗美三王府","lat":24.2622479,"lng":120.5313143,"address":null,"hasBabyChanging":false,"hasAccessible":false,"source":"OpenStreetMap","updatedAt":"2026-06-10T15:41:05.166Z","facilityType":"temple","facilityLabel":"🛕 廟宇","changingTable":false,"wheelchair":false,"needsAddr":false},{"id":526992506,"name":"梧棲區里聯合辦公室","lat":24.2546588,"lng":120.5316213,"address":null,"hasBabyChanging":false,"hasAccessible":false,"source":"OpenStreetMap","updatedAt":"2026-06-10T15:41:05.166Z","facilityType":"government","facilityLabel":"🏛 公務機關","changingTable":false,"wheelchair":false,"needsAddr":false},{"id":527002858,"name":"鑽石城KTV","lat":24.2598851,"lng":120.5346632,"address":null,"hasBabyChanging":false,"hasAccessible":false,"source":"OpenStreetMap","updatedAt":"2026-06-10T15:41:05.166Z","facilityType":"ktv","facilityLabel":"🎤 KTV","changingTable":false,"wheelchair":false,"needsAddr":false},{"id":527028918,"name":"市立圖書館 梧棲親子館","lat":24.2517441,"lng":120.5331354,"address":null,"hasBabyChanging":false,"hasAccessible":false,"source":"OpenStreetMap","updatedAt":"2026-06-10T15:41:05.166Z","facilityType":"library","facilityLabel":"📚 圖書館","changingTable":false,"wheelchair":false,"needsAddr":false},{"id":546958484,"name":"廟宇","lat":24.2593034,"lng":120.5395771,"address":null,"hasBabyChanging":false,"hasAccessible":false,"source":"OpenStreetMap","updatedAt":"2026-06-10T15:41:05.166Z","facilityType":"temple","facilityLabel":"🛕 廟宇","changingTable":false,"wheelchair":false,"needsAddr":true},{"id":546996240,"name":"長老教會台中港教會","lat":24.2565851,"lng":120.5395239,"address":null,"hasBabyChanging":false,"hasAccessible":false,"source":"OpenStreetMap","updatedAt":"2026-06-10T15:41:05.166Z","facilityType":"temple","facilityLabel":"🛕 廟宇","changingTable":false,"wheelchair":false,"needsAddr":false},{"id":556633709,"name":"廟宇","lat":24.2526228,"lng":120.5345918,"address":null,"hasBabyChanging":false,"hasAccessible":false,"source":"OpenStreetMap","updatedAt":"2026-06-10T15:41:05.166Z","facilityType":"temple","facilityLabel":"🛕 廟宇","changingTable":false,"wheelchair":false,"needsAddr":true},{"id":639755761,"name":"基督教梧棲敬拜教會","lat":24.2631053,"lng":120.534784,"address":null,"hasBabyChanging":false,"hasAccessible":false,"source":"OpenStreetMap","updatedAt":"2026-06-10T15:41:05.166Z","facilityType":"temple","facilityLabel":"🛕 廟宇","changingTable":false,"wheelchair":false,"needsAddr":false},{"id":640882844,"name":"安興宮","lat":24.2623893,"lng":120.5313881,"address":null,"hasBabyChanging":false,"hasAccessible":false,"source":"OpenStreetMap","updatedAt":"2026-06-10T15:41:05.166Z","facilityType":"temple","facilityLabel":"🛕 廟宇","changingTable":false,"wheelchair":false,"needsAddr":false},{"id":645171592,"name":"客運站","lat":24.2590421,"lng":120.5160972,"address":null,"hasBabyChanging":false,"hasAccessible":false,"source":"OpenStreetMap","updatedAt":"2026-06-10T15:41:05.166Z","facilityType":"bus","facilityLabel":"🚌 客運站","changingTable":false,"wheelchair":false,"needsAddr":true},{"id":657132357,"name":"臺中港港區通行證發證中心","lat":24.263531,"lng":120.5263111,"address":null,"hasBabyChanging":false,"hasAccessible":false,"source":"OpenStreetMap","updatedAt":"2026-06-10T15:41:05.166Z","facilityType":"government","facilityLabel":"🏛 公務機關","changingTable":false,"wheelchair":false,"needsAddr":false},{"id":693450514,"name":"公共廁所","lat":24.2474287,"lng":120.5511272,"address":null,"hasBabyChanging":false,"hasAccessible":true,"source":"OpenStreetMap","updatedAt":"2026-06-10T15:41:05.166Z","facilityType":"toilet","facilityLabel":null,"changingTable":false,"wheelchair":true,"needsAddr":true},{"id":693450572,"name":"廟宇","lat":24.2424408,"lng":120.546354,"address":null,"hasBabyChanging":false,"hasAccessible":false,"source":"OpenStreetMap","updatedAt":"2026-06-10T15:41:05.166Z","facilityType":"temple","facilityLabel":"🛕 廟宇","changingTable":false,"wheelchair":false,"needsAddr":true},{"id":693450587,"name":"廟宇","lat":24.2445682,"lng":120.5485205,"address":null,"hasBabyChanging":false,"hasAccessible":false,"source":"OpenStreetMap","updatedAt":"2026-06-10T15:41:05.166Z","facilityType":"temple","facilityLabel":"🛕 廟宇","changingTable":false,"wheelchair":false,"needsAddr":true},{"id":693450604,"name":"廟宇","lat":24.2434862,"lng":120.5510695,"address":null,"hasBabyChanging":false,"hasAccessible":false,"source":"OpenStreetMap","updatedAt":"2026-06-10T15:41:05.166Z","facilityType":"temple","facilityLabel":"🛕 廟宇","changingTable":false,"wheelchair":false,"needsAddr":true},{"id":771840044,"name":"大庄社區活動中心","lat":24.2462752,"lng":120.5425815,"address":"臺中市梧棲區大庄里文華街168巷1號","hasBabyChanging":false,"hasAccessible":false,"source":"OpenStreetMap","updatedAt":"2026-06-10T15:41:05.166Z","facilityType":"community","facilityLabel":"🏘️ 活動中心","changingTable":false,"wheelchair":false,"needsAddr":false},{"id":857935070,"name":"加油站","lat":24.2282866,"lng":120.5140443,"address":null,"hasBabyChanging":false,"hasAccessible":false,"source":"OpenStreetMap","updatedAt":"2026-06-10T15:41:05.166Z","facilityType":"fuel","facilityLabel":"⛽ 加油站","changingTable":false,"wheelchair":false,"needsAddr":true},{"id":1088065819,"name":"朝元宮","lat":24.2563796,"lng":120.5298375,"address":null,"hasBabyChanging":false,"hasAccessible":false,"source":"OpenStreetMap","updatedAt":"2026-06-10T15:41:05.166Z","facilityType":"temple","facilityLabel":"🛕 廟宇","changingTable":false,"wheelchair":false,"needsAddr":false},{"id":1145033637,"name":"進化宮","lat":24.229205,"lng":120.5471035,"address":null,"hasBabyChanging":false,"hasAccessible":false,"source":"OpenStreetMap","updatedAt":"2026-06-10T15:41:05.166Z","facilityType":"temple","facilityLabel":"🛕 廟宇","changingTable":false,"wheelchair":false,"needsAddr":false},{"id":1385569994,"name":"大庄浩天宮","lat":24.2459535,"lng":120.5401448,"address":null,"hasBabyChanging":false,"hasAccessible":false,"source":"OpenStreetMap","updatedAt":"2026-06-10T15:41:05.166Z","facilityType":"temple","facilityLabel":"🛕 廟宇","changingTable":false,"wheelchair":false,"needsAddr":false},{"id":1385569995,"name":"永元宮","lat":24.2250766,"lng":120.526797,"address":null,"hasBabyChanging":false,"hasAccessible":false,"source":"OpenStreetMap","updatedAt":"2026-06-10T15:41:05.166Z","facilityType":"temple","facilityLabel":"🛕 廟宇","changingTable":false,"wheelchair":false,"needsAddr":false},{"id":1479485442,"name":"西碼頭分隊","lat":24.2676121,"lng":120.5009647,"address":"臺中市梧棲區南堤路三段8號","hasBabyChanging":false,"hasAccessible":false,"source":"OpenStreetMap","updatedAt":"2026-06-10T15:41:05.166Z","facilityType":"government","facilityLabel":"🏛 公務機關","changingTable":false,"wheelchair":false,"needsAddr":false},{"id":1505903591,"name":"梧棲綜合活動中心","lat":24.2600051,"lng":120.5278287,"address":"臺中市梧棲區中正里臨港路三段246號","hasBabyChanging":false,"hasAccessible":false,"source":"OpenStreetMap","updatedAt":"2026-06-10T15:41:05.166Z","facilityType":"community","facilityLabel":"🏘️ 活動中心","changingTable":false,"wheelchair":false,"needsAddr":false},{"id":1514602987,"name":"麥當勞得來速車道","lat":24.2519398,"lng":120.5299876,"address":null,"hasBabyChanging":false,"hasAccessible":false,"source":"OpenStreetMap","updatedAt":"2026-06-10T15:41:05.166Z","facilityType":"mcdonalds","facilityLabel":"🍔 麥當勞","changingTable":false,"wheelchair":false,"needsAddr":true},{"id":5347236,"name":"臺中市 307 梧棲觀光漁港 - 新民高中(往新民高中)","lat":24.2157881,"lng":120.6062587,"address":null,"hasBabyChanging":false,"hasAccessible":false,"source":"OpenStreetMap","updatedAt":"2026-06-10T15:41:05.166Z","facilityType":"harbour","facilityLabel":"⚓ 漁港","changingTable":false,"wheelchair":false,"needsAddr":false}]}