{"city":"屏東縣","district":"內埔鄉","category":"toilets","updatedAt":"2026-06-12T07:40:23.325Z","rev":1,"count":62,"items":[{"id":2398331411,"name":"台灣中油","lat":22.629412,"lng":120.5472269,"address":null,"hasBabyChanging":false,"hasAccessible":false,"source":"OpenStreetMap","updatedAt":"2026-06-12T07:40:23.325Z","facilityType":"fuel","facilityLabel":"⛽ 加油站","changingTable":false,"wheelchair":false,"needsAddr":false},{"id":2398359606,"name":"慈聖宮","lat":22.6288864,"lng":120.5917509,"address":null,"hasBabyChanging":false,"hasAccessible":false,"source":"OpenStreetMap","updatedAt":"2026-06-12T07:40:23.325Z","facilityType":"temple","facilityLabel":"🛕 廟宇","changingTable":false,"wheelchair":false,"needsAddr":false},{"id":2398359612,"name":"神農站","lat":22.6251763,"lng":120.5871852,"address":null,"hasBabyChanging":false,"hasAccessible":false,"source":"OpenStreetMap","updatedAt":"2026-06-12T07:40:23.325Z","facilityType":"fuel","facilityLabel":"⛽ 加油站","changingTable":false,"wheelchair":false,"needsAddr":false},{"id":2536765484,"name":"水門派出所","lat":22.7080861,"lng":120.6443752,"address":"屏東縣內埔鄉水門村中山路269號","hasBabyChanging":false,"hasAccessible":false,"source":"OpenStreetMap","updatedAt":"2026-06-12T07:40:23.325Z","facilityType":"police","facilityLabel":"🚔 派出所","changingTable":false,"wheelchair":false,"needsAddr":false},{"id":2536766338,"name":"龍泉派出所","lat":22.669117,"lng":120.600196,"address":"91244屏東縣內埔鄉龍泉村原勝路76號","hasBabyChanging":false,"hasAccessible":false,"source":"OpenStreetMap","updatedAt":"2026-06-12T07:40:23.325Z","facilityType":"police","facilityLabel":"🚔 派出所","changingTable":false,"wheelchair":false,"needsAddr":false},{"id":2537469877,"name":"公共廁所","lat":22.6412636,"lng":120.5961997,"address":null,"hasBabyChanging":false,"hasAccessible":false,"source":"OpenStreetMap","updatedAt":"2026-06-12T07:40:23.325Z","facilityType":"toilet","facilityLabel":null,"changingTable":false,"wheelchair":false,"needsAddr":true},{"id":3785963015,"name":"上樹村土地公","lat":22.6321573,"lng":120.5702066,"address":null,"hasBabyChanging":false,"hasAccessible":false,"source":"OpenStreetMap","updatedAt":"2026-06-12T07:40:23.325Z","facilityType":"temple","facilityLabel":"🛕 廟宇","changingTable":false,"wheelchair":false,"needsAddr":false},{"id":3785963016,"name":"東勢村土地公廟","lat":22.6321636,"lng":120.5705226,"address":null,"hasBabyChanging":false,"hasAccessible":false,"source":"OpenStreetMap","updatedAt":"2026-06-12T07:40:23.325Z","facilityType":"temple","facilityLabel":"🛕 廟宇","changingTable":false,"wheelchair":false,"needsAddr":false},{"id":3785975561,"name":"土地公廟","lat":22.6270778,"lng":120.5712686,"address":null,"hasBabyChanging":false,"hasAccessible":false,"source":"OpenStreetMap","updatedAt":"2026-06-12T07:40:23.325Z","facilityType":"temple","facilityLabel":"🛕 廟宇","changingTable":false,"wheelchair":false,"needsAddr":false},{"id":3785977591,"name":"屏東縣政府警察局內埔分局警備隊","lat":22.6354839,"lng":120.5706352,"address":null,"hasBabyChanging":false,"hasAccessible":false,"source":"OpenStreetMap","updatedAt":"2026-06-12T07:40:23.325Z","facilityType":"police","facilityLabel":"🚔 派出所","changingTable":false,"wheelchair":false,"needsAddr":false},{"id":4911243924,"name":"台灣中油(直營)-內埔站","lat":22.6230765,"lng":120.557213,"address":null,"hasBabyChanging":false,"hasAccessible":false,"source":"OpenStreetMap","updatedAt":"2026-06-12T07:40:23.325Z","facilityType":"fuel","facilityLabel":"⛽ 加油站","changingTable":false,"wheelchair":false,"openingHours":"Mo-Su 07:00-22:00","needsAddr":false},{"id":5098248139,"name":"台灣中油","lat":22.5946993,"lng":120.5574203,"address":null,"hasBabyChanging":false,"hasAccessible":false,"source":"OpenStreetMap","updatedAt":"2026-06-12T07:40:23.325Z","facilityType":"fuel","facilityLabel":"⛽ 加油站","changingTable":false,"wheelchair":false,"needsAddr":false},{"id":5098494768,"name":"速邁樂","lat":22.6351233,"lng":120.5410936,"address":null,"hasBabyChanging":false,"hasAccessible":false,"source":"OpenStreetMap","updatedAt":"2026-06-12T07:40:23.325Z","facilityType":"fuel","facilityLabel":"⛽ 加油站","changingTable":false,"wheelchair":false,"needsAddr":false},{"id":5098494769,"name":"台灣中油","lat":22.634773,"lng":120.5405438,"address":null,"hasBabyChanging":false,"hasAccessible":false,"source":"OpenStreetMap","updatedAt":"2026-06-12T07:40:23.325Z","facilityType":"fuel","facilityLabel":"⛽ 加油站","changingTable":false,"wheelchair":false,"needsAddr":false},{"id":5160635424,"name":"玄武宮","lat":22.6885857,"lng":120.6030463,"address":null,"hasBabyChanging":false,"hasAccessible":false,"source":"OpenStreetMap","updatedAt":"2026-06-12T07:40:23.325Z","facilityType":"temple","facilityLabel":"🛕 廟宇","changingTable":false,"wheelchair":false,"needsAddr":false},{"id":5613503825,"name":"中油C P C","lat":22.6694035,"lng":120.5926795,"address":null,"hasBabyChanging":false,"hasAccessible":false,"source":"OpenStreetMap","updatedAt":"2026-06-12T07:40:23.325Z","facilityType":"fuel","facilityLabel":"⛽ 加油站","changingTable":false,"wheelchair":false,"needsAddr":false},{"id":5628990592,"name":"7-Eleven 昭勝門市","lat":22.6731584,"lng":120.6006094,"address":"91245屏東縣內埔鄉龍潭村昭勝路216號","hasBabyChanging":false,"hasAccessible":false,"source":"OpenStreetMap","updatedAt":"2026-06-12T07:40:23.325Z","facilityType":"convenience","facilityLabel":"🏪 超商","changingTable":false,"wheelchair":false,"openingHours":"24/7","needsAddr":false},{"id":6297009087,"name":"公共廁所","lat":22.6584594,"lng":120.5600255,"address":null,"hasBabyChanging":false,"hasAccessible":false,"source":"OpenStreetMap","updatedAt":"2026-06-12T07:40:23.325Z","facilityType":"toilet","facilityLabel":null,"changingTable":false,"wheelchair":false,"needsAddr":true},{"id":6297009090,"name":"公共廁所","lat":22.6602165,"lng":120.5583781,"address":null,"hasBabyChanging":false,"hasAccessible":false,"source":"OpenStreetMap","updatedAt":"2026-06-12T07:40:23.325Z","facilityType":"toilet","facilityLabel":null,"changingTable":false,"wheelchair":false,"needsAddr":true},{"id":6297009118,"name":"公共廁所","lat":22.6589064,"lng":120.5581661,"address":null,"hasBabyChanging":false,"hasAccessible":false,"source":"OpenStreetMap","updatedAt":"2026-06-12T07:40:23.325Z","facilityType":"toilet","facilityLabel":null,"changingTable":false,"wheelchair":false,"needsAddr":true},{"id":7213781572,"name":"屏東客運水門站","lat":22.7071718,"lng":120.6426388,"address":null,"hasBabyChanging":false,"hasAccessible":false,"source":"OpenStreetMap","updatedAt":"2026-06-12T07:40:23.325Z","facilityType":"bus","facilityLabel":"🚌 客運站","changingTable":false,"wheelchair":false,"needsAddr":false},{"id":7452570736,"name":"7-Eleven 涼山門市","lat":22.6963028,"lng":120.6304098,"address":"屏東縣內埔鄉新展路22號","hasBabyChanging":false,"hasAccessible":false,"source":"OpenStreetMap","updatedAt":"2026-06-12T07:40:23.325Z","facilityType":"convenience","facilityLabel":"🏪 超商","changingTable":false,"wheelchair":false,"openingHours":"24/7","needsAddr":false},{"id":9144995424,"name":"內埔老街肉圓","lat":22.6155834,"lng":120.5691413,"address":null,"hasBabyChanging":false,"hasAccessible":false,"source":"OpenStreetMap","updatedAt":"2026-06-12T07:40:23.325Z","facilityType":"oldstreet","facilityLabel":"🏮 老街","changingTable":false,"wheelchair":false,"needsAddr":false},{"id":12393277690,"name":"御天宮","lat":22.6731152,"lng":120.5744029,"address":null,"hasBabyChanging":false,"hasAccessible":false,"source":"OpenStreetMap","updatedAt":"2026-06-12T07:40:23.325Z","facilityType":"temple","facilityLabel":"🛕 廟宇","changingTable":false,"wheelchair":false,"needsAddr":false},{"id":12505138791,"name":"佳義基督長老教會教育館","lat":22.6541806,"lng":120.6306834,"address":"屏東縣瑪家鄉泰平巷76號","hasBabyChanging":false,"hasAccessible":false,"source":"OpenStreetMap","updatedAt":"2026-06-12T07:40:23.325Z","facilityType":"temple","facilityLabel":"🛕 廟宇","changingTable":false,"wheelchair":false,"needsAddr":false},{"id":12540923514,"name":"內埔鄉文康中心","lat":22.6109942,"lng":120.5694704,"address":null,"hasBabyChanging":false,"hasAccessible":false,"source":"OpenStreetMap","updatedAt":"2026-06-12T07:40:23.325Z","facilityType":"community","facilityLabel":"🏘️ 活動中心","changingTable":false,"wheelchair":false,"needsAddr":false},{"id":12545942386,"name":"7-Eleven 內埔門市","lat":22.6159605,"lng":120.5700289,"address":"屏東縣內埔鄉光明路224號","hasBabyChanging":false,"hasAccessible":false,"source":"OpenStreetMap","updatedAt":"2026-06-12T07:40:23.325Z","facilityType":"convenience","facilityLabel":"🏪 超商","changingTable":false,"wheelchair":false,"openingHours":"24/7","needsAddr":false},{"id":12545965058,"name":"寶雅","lat":22.6066066,"lng":120.5637351,"address":null,"hasBabyChanging":false,"hasAccessible":false,"source":"OpenStreetMap","updatedAt":"2026-06-12T07:40:23.325Z","facilityType":"poya","facilityLabel":"💄 寶雅","changingTable":false,"wheelchair":false,"needsAddr":false},{"id":13127488990,"name":"黎明村活動中心","lat":22.6895059,"lng":120.6024422,"address":null,"hasBabyChanging":false,"hasAccessible":false,"source":"OpenStreetMap","updatedAt":"2026-06-12T07:40:23.325Z","facilityType":"community","facilityLabel":"🏘️ 活動中心","changingTable":false,"wheelchair":false,"needsAddr":false},{"id":13127683036,"name":"大專院校","lat":22.6407806,"lng":120.5956502,"address":null,"hasBabyChanging":false,"hasAccessible":false,"source":"OpenStreetMap","updatedAt":"2026-06-12T07:40:23.325Z","facilityType":"university","facilityLabel":"🎓 大專院校","changingTable":false,"wheelchair":false,"needsAddr":true},{"id":154712935,"name":"屏東龍泉觀光啤酒廠","lat":22.6254076,"lng":120.5689235,"address":null,"hasBabyChanging":false,"hasAccessible":false,"source":"OpenStreetMap","updatedAt":"2026-06-12T07:40:23.325Z","facilityType":"winery","facilityLabel":"🍶 酒廠","changingTable":false,"wheelchair":false,"needsAddr":false},{"id":199010150,"name":"昌黎祠","lat":22.6153023,"lng":120.5665634,"address":null,"hasBabyChanging":false,"hasAccessible":false,"source":"OpenStreetMap","updatedAt":"2026-06-12T07:40:23.325Z","facilityType":"temple","facilityLabel":"🛕 廟宇","changingTable":false,"wheelchair":false,"needsAddr":false},{"id":220876722,"name":"廟宇","lat":22.6102607,"lng":120.5620864,"address":null,"hasBabyChanging":false,"hasAccessible":false,"source":"OpenStreetMap","updatedAt":"2026-06-12T07:40:23.325Z","facilityType":"temple","facilityLabel":"🛕 廟宇","changingTable":false,"wheelchair":false,"needsAddr":true},{"id":224941422,"name":"國立屏東科技大學","lat":22.6429475,"lng":120.6088056,"address":"91201屏東縣內埔鄉學府路1號","hasBabyChanging":false,"hasAccessible":false,"source":"OpenStreetMap","updatedAt":"2026-06-12T07:40:23.325Z","facilityType":"university","facilityLabel":"🎓 大專院校","changingTable":false,"wheelchair":false,"needsAddr":false},{"id":279766334,"name":"六堆客家文化園區","lat":22.6600398,"lng":120.5601632,"address":"912屏東縣內埔鄉信義路588號","hasBabyChanging":false,"hasAccessible":false,"source":"OpenStreetMap","updatedAt":"2026-06-12T07:40:23.325Z","facilityType":"park","facilityLabel":"🌳 公園","changingTable":false,"wheelchair":false,"needsAddr":false},{"id":360897433,"name":"六堆天后宮","lat":22.6152955,"lng":120.5664402,"address":null,"hasBabyChanging":false,"hasAccessible":false,"source":"OpenStreetMap","updatedAt":"2026-06-12T07:40:23.325Z","facilityType":"temple","facilityLabel":"🛕 廟宇","changingTable":false,"wheelchair":false,"needsAddr":false},{"id":375212379,"name":"后堆福泉堂","lat":22.6325518,"lng":120.5766921,"address":null,"hasBabyChanging":false,"hasAccessible":false,"source":"OpenStreetMap","updatedAt":"2026-06-12T07:40:23.325Z","facilityType":"temple","facilityLabel":"🛕 廟宇","changingTable":false,"wheelchair":false,"needsAddr":false},{"id":427242298,"name":"屏東榮民總醫院龍泉分院","lat":22.67496,"lng":120.5986657,"address":"91245屏東縣內埔鄉龍潭村昭勝路安平1巷1號","hasBabyChanging":false,"hasAccessible":false,"source":"OpenStreetMap","updatedAt":"2026-06-12T07:40:23.325Z","facilityType":"hospital","facilityLabel":"🏥 醫院","changingTable":false,"wheelchair":false,"needsAddr":false},{"id":518990334,"name":"屏東科技大學獸醫教學醫院","lat":22.6423906,"lng":120.6020451,"address":"91201屏東縣內埔鄉學府路1號","hasBabyChanging":false,"hasAccessible":false,"source":"OpenStreetMap","updatedAt":"2026-06-12T07:40:23.325Z","facilityType":"vet","facilityLabel":"🐾 獸醫院","changingTable":false,"wheelchair":false,"openingHours":"Mo-Fr 09:00-17:00","needsAddr":false},{"id":603962714,"name":"玉崗圖書館","lat":22.6454516,"lng":120.6109386,"address":null,"hasBabyChanging":false,"hasAccessible":false,"source":"OpenStreetMap","updatedAt":"2026-06-12T07:40:23.325Z","facilityType":"library","facilityLabel":"📚 圖書館","changingTable":false,"wheelchair":false,"needsAddr":false},{"id":775026872,"name":"屏東縣內埔鄉公所","lat":22.6121028,"lng":120.5667956,"address":"912屏東縣內埔鄉廣濟路26號","hasBabyChanging":false,"hasAccessible":false,"source":"OpenStreetMap","updatedAt":"2026-06-12T07:40:23.325Z","facilityType":"government","facilityLabel":"🏛 公務機關","changingTable":false,"wheelchair":false,"needsAddr":false},{"id":821344225,"name":"屏安醫院","lat":22.6706183,"lng":120.5678894,"address":null,"hasBabyChanging":false,"hasAccessible":false,"source":"OpenStreetMap","updatedAt":"2026-06-12T07:40:23.325Z","facilityType":"hospital","facilityLabel":"🏥 醫院","changingTable":false,"wheelchair":false,"needsAddr":false},{"id":833425467,"name":"佑青醫院","lat":22.6658045,"lng":120.5678291,"address":"屏東縣內埔鄉建興路218巷19號","hasBabyChanging":false,"hasAccessible":false,"source":"OpenStreetMap","updatedAt":"2026-06-12T07:40:23.325Z","facilityType":"hospital","facilityLabel":"🏥 醫院","changingTable":false,"wheelchair":false,"needsAddr":false},{"id":948468418,"name":"美和科技大學","lat":22.6033138,"lng":120.5600147,"address":"屏東縣內埔鄉美和村6鄰屏光路23號","hasBabyChanging":false,"hasAccessible":false,"source":"OpenStreetMap","updatedAt":"2026-06-12T07:40:23.325Z","facilityType":"university","facilityLabel":"🎓 大專院校","changingTable":false,"wheelchair":false,"needsAddr":false},{"id":989394504,"name":"福德祠","lat":22.6188238,"lng":120.5656571,"address":null,"hasBabyChanging":false,"hasAccessible":false,"source":"OpenStreetMap","updatedAt":"2026-06-12T07:40:23.325Z","facilityType":"temple","facilityLabel":"🛕 廟宇","changingTable":false,"wheelchair":false,"needsAddr":false},{"id":1042350301,"name":"水門轉運站","lat":22.7096557,"lng":120.6360741,"address":null,"hasBabyChanging":false,"hasAccessible":false,"source":"OpenStreetMap","updatedAt":"2026-06-12T07:40:23.325Z","facilityType":"bus","facilityLabel":"🚌 客運站","changingTable":false,"wheelchair":false,"needsAddr":false},{"id":1100557049,"name":"東片社區活動中心","lat":22.6461315,"lng":120.5847717,"address":"屏東縣內埔鄉光復路31號","hasBabyChanging":false,"hasAccessible":false,"source":"OpenStreetMap","updatedAt":"2026-06-12T07:40:23.325Z","facilityType":"community","facilityLabel":"🏘️ 活動中心","changingTable":false,"wheelchair":false,"needsAddr":false},{"id":1355173674,"name":"星巴克 屏東內埔門市","lat":22.6091317,"lng":120.5638234,"address":"屏東縣內埔鄉永光路36號","hasBabyChanging":false,"hasAccessible":false,"source":"OpenStreetMap","updatedAt":"2026-06-12T07:40:23.325Z","facilityType":"starbucks","facilityLabel":"☕ 星巴克","changingTable":false,"wheelchair":false,"openingHours":"Mo-Su 07:00-21:30","needsAddr":false},{"id":1383208937,"name":"公共廁所","lat":22.6868136,"lng":120.6381357,"address":null,"hasBabyChanging":false,"hasAccessible":false,"source":"OpenStreetMap","updatedAt":"2026-06-12T07:40:23.325Z","facilityType":"toilet","facilityLabel":null,"changingTable":false,"wheelchair":false,"needsAddr":true},{"id":1411093155,"name":"水門村活動中心","lat":22.7079842,"lng":120.6442396,"address":null,"hasBabyChanging":false,"hasAccessible":false,"source":"OpenStreetMap","updatedAt":"2026-06-12T07:40:23.325Z","facilityType":"community","facilityLabel":"🏘️ 活動中心","changingTable":false,"wheelchair":false,"needsAddr":false},{"id":1423202877,"name":"美和社區活動中心","lat":22.5955179,"lng":120.5571485,"address":null,"hasBabyChanging":false,"hasAccessible":false,"source":"OpenStreetMap","updatedAt":"2026-06-12T07:40:23.325Z","facilityType":"community","facilityLabel":"🏘️ 活動中心","changingTable":false,"wheelchair":false,"needsAddr":false},{"id":1423202888,"name":"上樹社區活動中心","lat":22.6303432,"lng":120.5612041,"address":null,"hasBabyChanging":false,"hasAccessible":false,"source":"OpenStreetMap","updatedAt":"2026-06-12T07:40:23.325Z","facilityType":"community","facilityLabel":"🏘️ 活動中心","changingTable":false,"wheelchair":false,"needsAddr":false},{"id":1427914060,"name":"隘寮社區活動中心","lat":22.6967228,"lng":120.6296305,"address":null,"hasBabyChanging":false,"hasAccessible":false,"source":"OpenStreetMap","updatedAt":"2026-06-12T07:40:23.325Z","facilityType":"community","facilityLabel":"🏘️ 活動中心","changingTable":false,"wheelchair":false,"needsAddr":false},{"id":1427914084,"name":"中林社區活動中心","lat":22.657931,"lng":120.6055617,"address":null,"hasBabyChanging":false,"hasAccessible":false,"source":"OpenStreetMap","updatedAt":"2026-06-12T07:40:23.325Z","facilityType":"community","facilityLabel":"🏘️ 活動中心","changingTable":false,"wheelchair":false,"needsAddr":false},{"id":1427935656,"name":"國立屏東科技大學","lat":22.6407849,"lng":120.5968773,"address":null,"hasBabyChanging":false,"hasAccessible":false,"source":"OpenStreetMap","updatedAt":"2026-06-12T07:40:23.325Z","facilityType":"university","facilityLabel":"🎓 大專院校","changingTable":false,"wheelchair":false,"needsAddr":false},{"id":1427935657,"name":"國立屏東科技大學","lat":22.6446122,"lng":120.6056182,"address":null,"hasBabyChanging":false,"hasAccessible":false,"source":"OpenStreetMap","updatedAt":"2026-06-12T07:40:23.325Z","facilityType":"university","facilityLabel":"🎓 大專院校","changingTable":false,"wheelchair":false,"needsAddr":false},{"id":1429255323,"name":"建興社區活動中心","lat":22.6591904,"lng":120.5689785,"address":null,"hasBabyChanging":false,"hasAccessible":false,"source":"OpenStreetMap","updatedAt":"2026-06-12T07:40:23.325Z","facilityType":"community","facilityLabel":"🏘️ 活動中心","changingTable":false,"wheelchair":false,"needsAddr":false},{"id":1429255335,"name":"南北巷社區活動中心","lat":22.6344298,"lng":120.5693303,"address":null,"hasBabyChanging":false,"hasAccessible":false,"source":"OpenStreetMap","updatedAt":"2026-06-12T07:40:23.325Z","facilityType":"community","facilityLabel":"🏘️ 活動中心","changingTable":false,"wheelchair":false,"needsAddr":false},{"id":1429687333,"name":"義亭村活動中心","lat":22.6186202,"lng":120.5843335,"address":null,"hasBabyChanging":false,"hasAccessible":false,"source":"OpenStreetMap","updatedAt":"2026-06-12T07:40:23.325Z","facilityType":"community","facilityLabel":"🏘️ 活動中心","changingTable":false,"wheelchair":false,"needsAddr":false},{"id":1429687335,"name":"興南社區活動中心","lat":22.6186984,"lng":120.5816033,"address":null,"hasBabyChanging":false,"hasAccessible":false,"source":"OpenStreetMap","updatedAt":"2026-06-12T07:40:23.325Z","facilityType":"community","facilityLabel":"🏘️ 活動中心","changingTable":false,"wheelchair":false,"needsAddr":false},{"id":1434626862,"name":"和興村活動中心","lat":22.6019613,"lng":120.5685596,"address":null,"hasBabyChanging":false,"hasAccessible":false,"source":"OpenStreetMap","updatedAt":"2026-06-12T07:40:23.325Z","facilityType":"community","facilityLabel":"🏘️ 活動中心","changingTable":false,"wheelchair":false,"needsAddr":false},{"id":18422742,"name":"屏東酒廠","lat":22.6435379,"lng":120.5508704,"address":null,"hasBabyChanging":false,"hasAccessible":false,"source":"OpenStreetMap","updatedAt":"2026-06-12T07:40:23.325Z","facilityType":"winery","facilityLabel":"🍶 酒廠","changingTable":false,"wheelchair":false,"needsAddr":false}]}