{"city":"屏東縣","district":"東港鎮","category":"toilets","updatedAt":"2026-06-12T07:40:23.325Z","rev":1,"count":111,"items":[{"id":946564201,"name":"東港衛生所","lat":22.4671192,"lng":120.4462641,"address":null,"hasBabyChanging":false,"hasAccessible":false,"source":"OpenStreetMap","updatedAt":"2026-06-12T07:40:23.325Z","facilityType":"clinic","facilityLabel":"🩺 診所","changingTable":false,"wheelchair":false,"needsAddr":false},{"id":3133420752,"name":"大鵬灣國際賽車場","lat":22.4552865,"lng":120.4809834,"address":null,"hasBabyChanging":false,"hasAccessible":false,"source":"OpenStreetMap","updatedAt":"2026-06-12T07:40:23.325Z","facilityType":"attraction","facilityLabel":"🏞️ 景點","changingTable":false,"wheelchair":false,"needsAddr":false},{"id":3133420753,"name":"大鵬灣國家風景區","lat":22.4542646,"lng":120.476363,"address":null,"hasBabyChanging":false,"hasAccessible":false,"source":"OpenStreetMap","updatedAt":"2026-06-12T07:40:23.325Z","facilityType":"attraction","facilityLabel":"🏞️ 景點","changingTable":false,"wheelchair":false,"needsAddr":false},{"id":3201499323,"name":"保安宮","lat":22.4562564,"lng":120.4921248,"address":null,"hasBabyChanging":false,"hasAccessible":false,"source":"OpenStreetMap","updatedAt":"2026-06-12T07:40:23.325Z","facilityType":"temple","facilityLabel":"🛕 廟宇","changingTable":false,"wheelchair":false,"needsAddr":false},{"id":3410002573,"name":"正修堂","lat":22.463525,"lng":120.4477894,"address":null,"hasBabyChanging":false,"hasAccessible":false,"source":"OpenStreetMap","updatedAt":"2026-06-12T07:40:23.325Z","facilityType":"temple","facilityLabel":"🛕 廟宇","changingTable":false,"wheelchair":false,"needsAddr":false},{"id":3410002574,"name":"福安宮","lat":22.4652171,"lng":120.4469991,"address":null,"hasBabyChanging":false,"hasAccessible":false,"source":"OpenStreetMap","updatedAt":"2026-06-12T07:40:23.325Z","facilityType":"temple","facilityLabel":"🛕 廟宇","changingTable":false,"wheelchair":false,"needsAddr":false},{"id":3410002919,"name":"東港東福殿城隍廟","lat":22.4634714,"lng":120.4450033,"address":"92845屏東縣東港鎮延平路319號","hasBabyChanging":false,"hasAccessible":false,"source":"OpenStreetMap","updatedAt":"2026-06-12T07:40:23.325Z","facilityType":"temple","facilityLabel":"🛕 廟宇","changingTable":false,"wheelchair":false,"needsAddr":false},{"id":3410004300,"name":"慈峯宮","lat":22.4610705,"lng":120.4500591,"address":null,"hasBabyChanging":false,"hasAccessible":false,"source":"OpenStreetMap","updatedAt":"2026-06-12T07:40:23.325Z","facilityType":"temple","facilityLabel":"🛕 廟宇","changingTable":false,"wheelchair":false,"needsAddr":false},{"id":3410005969,"name":"忠烈宮","lat":22.4626718,"lng":120.4427699,"address":null,"hasBabyChanging":false,"hasAccessible":false,"source":"OpenStreetMap","updatedAt":"2026-06-12T07:40:23.325Z","facilityType":"temple","facilityLabel":"🛕 廟宇","changingTable":false,"wheelchair":false,"needsAddr":false},{"id":4002332229,"name":"勝南堂","lat":22.436366,"lng":120.4713207,"address":null,"hasBabyChanging":false,"hasAccessible":false,"source":"OpenStreetMap","updatedAt":"2026-06-12T07:40:23.325Z","facilityType":"temple","facilityLabel":"🛕 廟宇","changingTable":false,"wheelchair":false,"needsAddr":false},{"id":4252467092,"name":"共和新村","lat":22.4628087,"lng":120.4529086,"address":null,"hasBabyChanging":false,"hasAccessible":false,"source":"OpenStreetMap","updatedAt":"2026-06-12T07:40:23.325Z","facilityType":"attraction","facilityLabel":"🏞️ 景點","changingTable":false,"wheelchair":false,"needsAddr":false},{"id":4263872406,"name":"廟宇","lat":22.4646412,"lng":120.4898717,"address":null,"hasBabyChanging":false,"hasAccessible":false,"source":"OpenStreetMap","updatedAt":"2026-06-12T07:40:23.325Z","facilityType":"temple","facilityLabel":"🛕 廟宇","changingTable":false,"wheelchair":false,"needsAddr":true},{"id":4263872408,"name":"廟宇","lat":22.4710286,"lng":120.4849874,"address":null,"hasBabyChanging":false,"hasAccessible":false,"source":"OpenStreetMap","updatedAt":"2026-06-12T07:40:23.325Z","facilityType":"temple","facilityLabel":"🛕 廟宇","changingTable":false,"wheelchair":false,"needsAddr":true},{"id":4741525325,"name":"麥當勞","lat":22.4654597,"lng":120.4536278,"address":null,"hasBabyChanging":false,"hasAccessible":false,"source":"OpenStreetMap","updatedAt":"2026-06-12T07:40:23.325Z","facilityType":"mcdonalds","facilityLabel":"🍔 麥當勞","changingTable":false,"wheelchair":false,"needsAddr":true},{"id":4741525333,"name":"燈塔","lat":22.4636148,"lng":120.4386261,"address":null,"hasBabyChanging":false,"hasAccessible":false,"source":"OpenStreetMap","updatedAt":"2026-06-12T07:40:23.325Z","facilityType":"attraction","facilityLabel":"🏞️ 景點","changingTable":false,"wheelchair":false,"needsAddr":false},{"id":4741542925,"name":"東港天主堂","lat":22.4659127,"lng":120.4530853,"address":"928屏東縣東港鎮光復路二段117號","hasBabyChanging":false,"hasAccessible":false,"source":"OpenStreetMap","updatedAt":"2026-06-12T07:40:23.325Z","facilityType":"temple","facilityLabel":"🛕 廟宇","changingTable":false,"wheelchair":false,"needsAddr":false},{"id":4893876259,"name":"台灣中油","lat":22.4716026,"lng":120.4549679,"address":null,"hasBabyChanging":false,"hasAccessible":false,"source":"OpenStreetMap","updatedAt":"2026-06-12T07:40:23.325Z","facilityType":"fuel","facilityLabel":"⛽ 加油站","changingTable":false,"wheelchair":false,"needsAddr":false},{"id":4894270813,"name":"山隆加油站","lat":22.4600694,"lng":120.4709633,"address":null,"hasBabyChanging":false,"hasAccessible":false,"source":"OpenStreetMap","updatedAt":"2026-06-12T07:40:23.325Z","facilityType":"fuel","facilityLabel":"⛽ 加油站","changingTable":false,"wheelchair":false,"needsAddr":false},{"id":4894805012,"name":"台灣中油","lat":22.4495355,"lng":120.5027018,"address":null,"hasBabyChanging":false,"hasAccessible":false,"source":"OpenStreetMap","updatedAt":"2026-06-12T07:40:23.325Z","facilityType":"fuel","facilityLabel":"⛽ 加油站","changingTable":false,"wheelchair":false,"needsAddr":false},{"id":5504431648,"name":"李澤醫院","lat":22.4665522,"lng":120.4510797,"address":null,"hasBabyChanging":false,"hasAccessible":false,"source":"OpenStreetMap","updatedAt":"2026-06-12T07:40:23.325Z","facilityType":"hospital","facilityLabel":"🏥 醫院","changingTable":false,"wheelchair":false,"needsAddr":false},{"id":5504431649,"name":"鎮靈宮","lat":22.4678194,"lng":120.4527881,"address":null,"hasBabyChanging":false,"hasAccessible":false,"source":"OpenStreetMap","updatedAt":"2026-06-12T07:40:23.325Z","facilityType":"temple","facilityLabel":"🛕 廟宇","changingTable":false,"wheelchair":false,"needsAddr":false},{"id":5504431664,"name":"萬靈堂","lat":22.4608455,"lng":120.4693396,"address":null,"hasBabyChanging":false,"hasAccessible":false,"source":"OpenStreetMap","updatedAt":"2026-06-12T07:40:23.325Z","facilityType":"temple","facilityLabel":"🛕 廟宇","changingTable":false,"wheelchair":false,"needsAddr":false},{"id":5594860206,"name":"忠烈宮","lat":22.4637354,"lng":120.4438716,"address":null,"hasBabyChanging":false,"hasAccessible":false,"source":"OpenStreetMap","updatedAt":"2026-06-12T07:40:23.325Z","facilityType":"temple","facilityLabel":"🛕 廟宇","changingTable":false,"wheelchair":false,"needsAddr":false},{"id":5619039002,"name":"七龍宮","lat":22.4878347,"lng":120.4680382,"address":null,"hasBabyChanging":false,"hasAccessible":false,"source":"OpenStreetMap","updatedAt":"2026-06-12T07:40:23.325Z","facilityType":"temple","facilityLabel":"🛕 廟宇","changingTable":false,"wheelchair":false,"needsAddr":false},{"id":5664205325,"name":"景點","lat":22.4767991,"lng":120.4597962,"address":null,"hasBabyChanging":false,"hasAccessible":false,"source":"OpenStreetMap","updatedAt":"2026-06-12T07:40:23.325Z","facilityType":"attraction","facilityLabel":"🏞️ 景點","changingTable":false,"wheelchair":false,"needsAddr":true},{"id":6033485236,"name":"公共廁所","lat":22.4496649,"lng":120.4541568,"address":null,"hasBabyChanging":false,"hasAccessible":false,"source":"OpenStreetMap","updatedAt":"2026-06-12T07:40:23.325Z","facilityType":"toilet","facilityLabel":null,"changingTable":false,"wheelchair":false,"needsAddr":true},{"id":6033487185,"name":"停車場，廁所","lat":22.4555056,"lng":120.4799823,"address":null,"hasBabyChanging":false,"hasAccessible":false,"source":"OpenStreetMap","updatedAt":"2026-06-12T07:40:23.325Z","facilityType":"toilet","facilityLabel":null,"changingTable":false,"wheelchair":false,"needsAddr":false},{"id":6039703839,"name":"交通部觀光局大鵬灣國家風景區管理處","lat":22.4569977,"lng":120.4788314,"address":null,"hasBabyChanging":false,"hasAccessible":false,"source":"OpenStreetMap","updatedAt":"2026-06-12T07:40:23.325Z","facilityType":"government","facilityLabel":"🏛 公務機關","changingTable":false,"wheelchair":false,"needsAddr":false},{"id":6040967982,"name":"屏東縣政府財稅局東港分局","lat":22.4668859,"lng":120.4463357,"address":"屏東縣東港鎮新生二路16號","hasBabyChanging":false,"hasAccessible":false,"source":"OpenStreetMap","updatedAt":"2026-06-12T07:40:23.325Z","facilityType":"government","facilityLabel":"🏛 公務機關","changingTable":false,"wheelchair":false,"openingHours":"Mo-Fr 08:00-17:30","needsAddr":false},{"id":6040967983,"name":"財政部南區國稅局東港稽徵所","lat":22.4669644,"lng":120.4461829,"address":"屏東縣東港鎮新生二路16號","hasBabyChanging":false,"hasAccessible":false,"source":"OpenStreetMap","updatedAt":"2026-06-12T07:40:23.325Z","facilityType":"government","facilityLabel":"🏛 公務機關","changingTable":false,"wheelchair":false,"openingHours":"Mo-Fr 08:00-17:30","needsAddr":false},{"id":6046721436,"name":"大鵬灣安檢所","lat":22.4496675,"lng":120.4548901,"address":null,"hasBabyChanging":false,"hasAccessible":false,"source":"OpenStreetMap","updatedAt":"2026-06-12T07:40:23.325Z","facilityType":"government","facilityLabel":"🏛 公務機關","changingTable":false,"wheelchair":false,"needsAddr":false},{"id":6049373480,"name":"東津開基共善堂","lat":22.4683424,"lng":120.4498073,"address":null,"hasBabyChanging":false,"hasAccessible":false,"source":"OpenStreetMap","updatedAt":"2026-06-12T07:40:23.325Z","facilityType":"temple","facilityLabel":"🛕 廟宇","changingTable":false,"wheelchair":false,"needsAddr":false},{"id":6050534952,"name":"東港牧鄰行道會","lat":22.4693954,"lng":120.4595166,"address":null,"hasBabyChanging":false,"hasAccessible":false,"source":"OpenStreetMap","updatedAt":"2026-06-12T07:40:23.325Z","facilityType":"temple","facilityLabel":"🛕 廟宇","changingTable":false,"wheelchair":false,"needsAddr":false},{"id":6051480578,"name":"東津隱善寺","lat":22.4655879,"lng":120.4573718,"address":null,"hasBabyChanging":false,"hasAccessible":false,"source":"OpenStreetMap","updatedAt":"2026-06-12T07:40:23.325Z","facilityType":"temple","facilityLabel":"🛕 廟宇","changingTable":false,"wheelchair":false,"needsAddr":false},{"id":6052990809,"name":"蚵殼島","lat":22.4428628,"lng":120.4711439,"address":null,"hasBabyChanging":false,"hasAccessible":false,"source":"OpenStreetMap","updatedAt":"2026-06-12T07:40:23.325Z","facilityType":"attraction","facilityLabel":"🏞️ 景點","changingTable":false,"wheelchair":false,"needsAddr":false},{"id":6068385856,"name":"屏東縣東港鎮戶政事務所","lat":22.4676163,"lng":120.4426262,"address":"屏東縣東港鎮新生三路175號","hasBabyChanging":false,"hasAccessible":false,"source":"OpenStreetMap","updatedAt":"2026-06-12T07:40:23.325Z","facilityType":"government","facilityLabel":"🏛 公務機關","changingTable":false,"wheelchair":false,"openingHours":"Mo-Fr 08:00-17:30","needsAddr":false},{"id":6907595294,"name":"公共廁所","lat":22.4685311,"lng":120.4450045,"address":null,"hasBabyChanging":false,"hasAccessible":false,"source":"OpenStreetMap","updatedAt":"2026-06-12T07:40:23.325Z","facilityType":"toilet","facilityLabel":null,"changingTable":false,"wheelchair":false,"needsAddr":true},{"id":8255156659,"name":"落日灣","lat":22.4443383,"lng":120.4856256,"address":null,"hasBabyChanging":false,"hasAccessible":false,"source":"OpenStreetMap","updatedAt":"2026-06-12T07:40:23.325Z","facilityType":"attraction","facilityLabel":"🏞️ 景點","changingTable":false,"wheelchair":false,"needsAddr":false},{"id":8611201117,"name":"嘉蓮里社區活動中心","lat":22.4535024,"lng":120.4482894,"address":null,"hasBabyChanging":false,"hasAccessible":false,"source":"OpenStreetMap","updatedAt":"2026-06-12T07:40:23.325Z","facilityType":"community","facilityLabel":"🏘️ 活動中心","changingTable":false,"wheelchair":false,"needsAddr":false},{"id":9358087773,"name":"廟宇","lat":22.4419022,"lng":120.462374,"address":null,"hasBabyChanging":false,"hasAccessible":false,"source":"OpenStreetMap","updatedAt":"2026-06-12T07:40:23.325Z","facilityType":"temple","facilityLabel":"🛕 廟宇","changingTable":false,"wheelchair":false,"needsAddr":true},{"id":9859370558,"name":"保安寺","lat":22.4790898,"lng":120.4650437,"address":null,"hasBabyChanging":false,"hasAccessible":false,"source":"OpenStreetMap","updatedAt":"2026-06-12T07:40:23.325Z","facilityType":"temple","facilityLabel":"🛕 廟宇","changingTable":false,"wheelchair":false,"needsAddr":false},{"id":9890839404,"name":"東港漁港停車場入口","lat":22.4677906,"lng":120.4432585,"address":null,"hasBabyChanging":false,"hasAccessible":false,"source":"OpenStreetMap","updatedAt":"2026-06-12T07:40:23.325Z","facilityType":"harbour","facilityLabel":"⚓ 漁港","changingTable":false,"wheelchair":false,"needsAddr":false},{"id":10596275445,"name":"公共廁所","lat":22.4383719,"lng":120.4740175,"address":null,"hasBabyChanging":false,"hasAccessible":false,"source":"OpenStreetMap","updatedAt":"2026-06-12T07:40:23.325Z","facilityType":"toilet","facilityLabel":null,"changingTable":false,"wheelchair":false,"needsAddr":true},{"id":11414265220,"name":"爭鮮","lat":22.4746348,"lng":120.4593707,"address":"屏東縣東港鎮中正路一段222號","hasBabyChanging":false,"hasAccessible":false,"source":"OpenStreetMap","updatedAt":"2026-06-12T07:40:23.325Z","facilityType":"sushi","facilityLabel":"🍣 迴轉壽司","changingTable":false,"wheelchair":false,"openingHours":"Mo-Su 11:00-21:00","needsAddr":false},{"id":13134829001,"name":"小北百貨","lat":22.470642,"lng":120.4585,"address":"屏東縣東港鎮明德二街57號","hasBabyChanging":true,"hasAccessible":false,"source":"OpenStreetMap","updatedAt":"2026-06-12T07:40:23.325Z","facilityType":"department","facilityLabel":"🏬 百貨","changingTable":true,"wheelchair":false,"openingHours":"24/7","needsAddr":false},{"id":13518302110,"name":"博物館","lat":22.4636445,"lng":120.4600721,"address":null,"hasBabyChanging":false,"hasAccessible":false,"source":"OpenStreetMap","updatedAt":"2026-06-12T07:40:23.325Z","facilityType":"museum","facilityLabel":"🖼️ 博物館","changingTable":false,"wheelchair":false,"needsAddr":true},{"id":13518302701,"name":"景點","lat":22.4489683,"lng":120.4811618,"address":null,"hasBabyChanging":false,"hasAccessible":false,"source":"OpenStreetMap","updatedAt":"2026-06-12T07:40:23.325Z","facilityType":"attraction","facilityLabel":"🏞️ 景點","changingTable":false,"wheelchair":false,"needsAddr":true},{"id":39762317,"name":"東港 - 白沙尾漁港 (小琉球) (民營)","lat":22.4110328,"lng":120.413658,"address":null,"hasBabyChanging":false,"hasAccessible":false,"source":"OpenStreetMap","updatedAt":"2026-06-12T07:40:23.325Z","facilityType":"harbour","facilityLabel":"⚓ 漁港","changingTable":false,"wheelchair":false,"openingHours":"Mo-Su 07:30-17:30","needsAddr":false},{"id":272308584,"name":"舊嘉蓮宮","lat":22.4568382,"lng":120.4500659,"address":null,"hasBabyChanging":false,"hasAccessible":false,"source":"OpenStreetMap","updatedAt":"2026-06-12T07:40:23.325Z","facilityType":"temple","facilityLabel":"🛕 廟宇","changingTable":false,"wheelchair":false,"needsAddr":false},{"id":307986153,"name":"東港漁港","lat":22.4654801,"lng":120.4414856,"address":null,"hasBabyChanging":false,"hasAccessible":false,"source":"OpenStreetMap","updatedAt":"2026-06-12T07:40:23.325Z","facilityType":"harbour","facilityLabel":"⚓ 漁港","changingTable":false,"wheelchair":false,"needsAddr":false},{"id":332142548,"name":"東港東隆宮","lat":22.4630408,"lng":120.4487872,"address":"屏東縣東港鎮東隆街21-1號","hasBabyChanging":false,"hasAccessible":false,"source":"OpenStreetMap","updatedAt":"2026-06-12T07:40:23.325Z","facilityType":"temple","facilityLabel":"🛕 廟宇","changingTable":false,"wheelchair":false,"needsAddr":false},{"id":333944044,"name":"輔英科技大學附設醫院","lat":22.4646485,"lng":120.4531235,"address":"屏東縣東港鎮共和里7鄰中山路5號","hasBabyChanging":false,"hasAccessible":false,"source":"OpenStreetMap","updatedAt":"2026-06-12T07:40:23.325Z","facilityType":"hospital","facilityLabel":"🏥 醫院","changingTable":false,"wheelchair":false,"needsAddr":false},{"id":353643451,"name":"寶雅","lat":22.475318,"lng":120.4606202,"address":null,"hasBabyChanging":false,"hasAccessible":false,"source":"OpenStreetMap","updatedAt":"2026-06-12T07:40:23.325Z","facilityType":"poya","facilityLabel":"💄 寶雅","changingTable":false,"wheelchair":false,"needsAddr":false},{"id":353643452,"name":"安泰醫院","lat":22.4739366,"lng":120.4595083,"address":"屏東縣東港鎮中正路一段210號","hasBabyChanging":false,"hasAccessible":true,"source":"OpenStreetMap","updatedAt":"2026-06-12T07:40:23.325Z","facilityType":"hospital","facilityLabel":"🏥 醫院","changingTable":false,"wheelchair":true,"needsAddr":false},{"id":563510590,"name":"建安宮","lat":22.4641727,"lng":120.4921245,"address":null,"hasBabyChanging":false,"hasAccessible":false,"source":"OpenStreetMap","updatedAt":"2026-06-12T07:40:23.325Z","facilityType":"temple","facilityLabel":"🛕 廟宇","changingTable":false,"wheelchair":false,"needsAddr":false},{"id":563510591,"name":"台灣基督長老教會大鵬灣教會","lat":22.4602105,"lng":120.4938901,"address":null,"hasBabyChanging":false,"hasAccessible":false,"source":"OpenStreetMap","updatedAt":"2026-06-12T07:40:23.325Z","facilityType":"temple","facilityLabel":"🛕 廟宇","changingTable":false,"wheelchair":false,"needsAddr":false},{"id":563510592,"name":"下廍超峰寺","lat":22.4610402,"lng":120.494535,"address":null,"hasBabyChanging":false,"hasAccessible":false,"source":"OpenStreetMap","updatedAt":"2026-06-12T07:40:23.325Z","facilityType":"temple","facilityLabel":"🛕 廟宇","changingTable":false,"wheelchair":false,"needsAddr":false},{"id":563510593,"name":"李家三千歲","lat":22.4630123,"lng":120.4937142,"address":null,"hasBabyChanging":false,"hasAccessible":false,"source":"OpenStreetMap","updatedAt":"2026-06-12T07:40:23.325Z","facilityType":"temple","facilityLabel":"🛕 廟宇","changingTable":false,"wheelchair":false,"needsAddr":false},{"id":563510594,"name":"清水祖師宮","lat":22.463901,"lng":120.4938422,"address":null,"hasBabyChanging":false,"hasAccessible":false,"source":"OpenStreetMap","updatedAt":"2026-06-12T07:40:23.325Z","facilityType":"temple","facilityLabel":"🛕 廟宇","changingTable":false,"wheelchair":false,"needsAddr":false},{"id":563535103,"name":"下廍 建樂宮 蘇府千歲","lat":22.4609944,"lng":120.4933906,"address":null,"hasBabyChanging":false,"hasAccessible":false,"source":"OpenStreetMap","updatedAt":"2026-06-12T07:40:23.325Z","facilityType":"temple","facilityLabel":"🛕 廟宇","changingTable":false,"wheelchair":false,"needsAddr":false},{"id":563535104,"name":"船仔頭福安宮","lat":22.455925,"lng":120.4894458,"address":null,"hasBabyChanging":false,"hasAccessible":false,"source":"OpenStreetMap","updatedAt":"2026-06-12T07:40:23.325Z","facilityType":"temple","facilityLabel":"🛕 廟宇","changingTable":false,"wheelchair":false,"needsAddr":false},{"id":563535105,"name":"大潭保安玉天宮","lat":22.4539145,"lng":120.4903472,"address":null,"hasBabyChanging":false,"hasAccessible":false,"source":"OpenStreetMap","updatedAt":"2026-06-12T07:40:23.325Z","facilityType":"temple","facilityLabel":"🛕 廟宇","changingTable":false,"wheelchair":false,"needsAddr":false},{"id":563535106,"name":"正德堂","lat":22.4538224,"lng":120.4902836,"address":null,"hasBabyChanging":false,"hasAccessible":false,"source":"OpenStreetMap","updatedAt":"2026-06-12T07:40:23.325Z","facilityType":"temple","facilityLabel":"🛕 廟宇","changingTable":false,"wheelchair":false,"needsAddr":false},{"id":563535109,"name":"福德祠","lat":22.4824963,"lng":120.487388,"address":null,"hasBabyChanging":false,"hasAccessible":false,"source":"OpenStreetMap","updatedAt":"2026-06-12T07:40:23.325Z","facilityType":"temple","facilityLabel":"🛕 廟宇","changingTable":false,"wheelchair":false,"needsAddr":false},{"id":563535110,"name":"三西和三隆宮觀音佛祖","lat":22.4884627,"lng":120.4863929,"address":null,"hasBabyChanging":false,"hasAccessible":false,"source":"OpenStreetMap","updatedAt":"2026-06-12T07:40:23.325Z","facilityType":"temple","facilityLabel":"🛕 廟宇","changingTable":false,"wheelchair":false,"needsAddr":false},{"id":563984711,"name":"茄苳榕公","lat":22.4587689,"lng":120.4986776,"address":null,"hasBabyChanging":false,"hasAccessible":false,"source":"OpenStreetMap","updatedAt":"2026-06-12T07:40:23.325Z","facilityType":"temple","facilityLabel":"🛕 廟宇","changingTable":false,"wheelchair":false,"needsAddr":false},{"id":569802316,"name":"三西和福德宮","lat":22.4878744,"lng":120.4836034,"address":null,"hasBabyChanging":false,"hasAccessible":false,"source":"OpenStreetMap","updatedAt":"2026-06-12T07:40:23.325Z","facilityType":"temple","facilityLabel":"🛕 廟宇","changingTable":false,"wheelchair":false,"needsAddr":false},{"id":569802317,"name":"衡聖宮","lat":22.486752,"lng":120.4863641,"address":null,"hasBabyChanging":false,"hasAccessible":false,"source":"OpenStreetMap","updatedAt":"2026-06-12T07:40:23.325Z","facilityType":"temple","facilityLabel":"🛕 廟宇","changingTable":false,"wheelchair":false,"needsAddr":false},{"id":585473951,"name":"孔子祠","lat":22.4644999,"lng":120.4419291,"address":null,"hasBabyChanging":false,"hasAccessible":false,"source":"OpenStreetMap","updatedAt":"2026-06-12T07:40:23.325Z","facilityType":"temple","facilityLabel":"🛕 廟宇","changingTable":false,"wheelchair":false,"needsAddr":false},{"id":585473957,"name":"活動中心","lat":22.4638656,"lng":120.4428148,"address":null,"hasBabyChanging":false,"hasAccessible":false,"source":"OpenStreetMap","updatedAt":"2026-06-12T07:40:23.325Z","facilityType":"community","facilityLabel":"🏘️ 活動中心","changingTable":false,"wheelchair":false,"needsAddr":true},{"id":585473965,"name":"明德佛堂","lat":22.4640849,"lng":120.4482704,"address":null,"hasBabyChanging":false,"hasAccessible":false,"source":"OpenStreetMap","updatedAt":"2026-06-12T07:40:23.325Z","facilityType":"temple","facilityLabel":"🛕 廟宇","changingTable":false,"wheelchair":false,"needsAddr":false},{"id":586178288,"name":"屏東縣東港鎮環美社區活動中心","lat":22.4880699,"lng":120.4692493,"address":"屏東縣東港鎮興農里5鄰環美路68號","hasBabyChanging":false,"hasAccessible":false,"source":"OpenStreetMap","updatedAt":"2026-06-12T07:40:23.325Z","facilityType":"community","facilityLabel":"🏘️ 活動中心","changingTable":false,"wheelchair":false,"needsAddr":false},{"id":641270679,"name":"屏東縣東港地政事務所","lat":22.4686963,"lng":120.4506796,"address":"屏東縣東港鎮中正路181號","hasBabyChanging":false,"hasAccessible":false,"source":"OpenStreetMap","updatedAt":"2026-06-12T07:40:23.325Z","facilityType":"government","facilityLabel":"🏛 公務機關","changingTable":false,"wheelchair":false,"needsAddr":false},{"id":641274576,"name":"東港鎮立圖書館","lat":22.4675912,"lng":120.4546708,"address":"928屏東縣東港鎮新勝街20-928號","hasBabyChanging":false,"hasAccessible":false,"source":"OpenStreetMap","updatedAt":"2026-06-12T07:40:23.325Z","facilityType":"library","facilityLabel":"📚 圖書館","changingTable":false,"wheelchair":false,"needsAddr":false},{"id":641274579,"name":"東港鎮民代表會","lat":22.4676992,"lng":120.4549119,"address":"屏東縣東港鎮新勝街37-10號","hasBabyChanging":false,"hasAccessible":false,"source":"OpenStreetMap","updatedAt":"2026-06-12T07:40:23.325Z","facilityType":"government","facilityLabel":"🏛 公務機關","changingTable":false,"wheelchair":false,"needsAddr":false},{"id":641394253,"name":"東港區漁會","lat":22.4675878,"lng":120.4427819,"address":"屏東縣東港鎮新生三路173號","hasBabyChanging":false,"hasAccessible":false,"source":"OpenStreetMap","updatedAt":"2026-06-12T07:40:23.325Z","facilityType":"government","facilityLabel":"🏛 公務機關","changingTable":false,"wheelchair":false,"openingHours":"Mo-Fr 08:00-17:00","needsAddr":false},{"id":641395882,"name":"東港漁港立體停車場","lat":22.4676232,"lng":120.4434575,"address":null,"hasBabyChanging":false,"hasAccessible":false,"source":"OpenStreetMap","updatedAt":"2026-06-12T07:40:23.325Z","facilityType":"harbour","facilityLabel":"⚓ 漁港","changingTable":false,"wheelchair":false,"needsAddr":false},{"id":641397019,"name":"東港 - 大福漁港 (小琉球) (公營)","lat":22.4018526,"lng":120.4093768,"address":null,"hasBabyChanging":false,"hasAccessible":false,"source":"OpenStreetMap","updatedAt":"2026-06-12T07:40:23.325Z","facilityType":"harbour","facilityLabel":"⚓ 漁港","changingTable":false,"wheelchair":false,"needsAddr":false},{"id":641739334,"name":"屏東縣政府警察局東港分局","lat":22.4631905,"lng":120.461755,"address":null,"hasBabyChanging":false,"hasAccessible":false,"source":"OpenStreetMap","updatedAt":"2026-06-12T07:40:23.325Z","facilityType":"government","facilityLabel":"🏛 公務機關","changingTable":false,"wheelchair":false,"needsAddr":false},{"id":641919801,"name":"中油千越東港加油站","lat":22.4720058,"lng":120.4641488,"address":"屏東縣東港鎮沿海路128號","hasBabyChanging":false,"hasAccessible":false,"source":"OpenStreetMap","updatedAt":"2026-06-12T07:40:23.325Z","facilityType":"fuel","facilityLabel":"⛽ 加油站","changingTable":false,"wheelchair":false,"openingHours":"24/7","needsAddr":false},{"id":642040347,"name":"慈濟靜思堂","lat":22.4714402,"lng":120.4632927,"address":"屏東縣東港鎮沿海路171號","hasBabyChanging":false,"hasAccessible":false,"source":"OpenStreetMap","updatedAt":"2026-06-12T07:40:23.325Z","facilityType":"temple","facilityLabel":"🛕 廟宇","changingTable":false,"wheelchair":false,"needsAddr":false},{"id":642234493,"name":"大鵬灣派出所","lat":22.4424856,"lng":120.4922209,"address":null,"hasBabyChanging":false,"hasAccessible":false,"source":"OpenStreetMap","updatedAt":"2026-06-12T07:40:23.325Z","facilityType":"police","facilityLabel":"🚔 派出所","changingTable":false,"wheelchair":false,"needsAddr":false},{"id":642535946,"name":"東港馬光中醫","lat":22.46978,"lng":120.45616,"address":null,"hasBabyChanging":false,"hasAccessible":false,"source":"OpenStreetMap","updatedAt":"2026-06-12T07:40:23.325Z","facilityType":"clinic","facilityLabel":"🩺 診所","changingTable":false,"wheelchair":false,"needsAddr":false},{"id":642635855,"name":"屏東客運東港站","lat":22.4648224,"lng":120.4538878,"address":"928屏東縣東港鎮中山路3號","hasBabyChanging":false,"hasAccessible":false,"source":"OpenStreetMap","updatedAt":"2026-06-12T07:40:23.325Z","facilityType":"bus","facilityLabel":"🚌 客運站","changingTable":false,"wheelchair":false,"needsAddr":false},{"id":643136275,"name":"東港漁港安檢所","lat":22.4654833,"lng":120.438468,"address":null,"hasBabyChanging":false,"hasAccessible":false,"source":"OpenStreetMap","updatedAt":"2026-06-12T07:40:23.325Z","facilityType":"harbour","facilityLabel":"⚓ 漁港","changingTable":false,"wheelchair":false,"needsAddr":false},{"id":680767206,"name":"海灘","lat":22.4447606,"lng":120.4570685,"address":null,"hasBabyChanging":false,"hasAccessible":false,"source":"OpenStreetMap","updatedAt":"2026-06-12T07:40:23.325Z","facilityType":"beach","facilityLabel":"🏖️ 沙灘","changingTable":false,"wheelchair":false,"needsAddr":true},{"id":727512070,"name":"大鵬灣 - 大福漁港 (小琉球)","lat":22.3921863,"lng":120.4251153,"address":null,"hasBabyChanging":false,"hasAccessible":false,"source":"OpenStreetMap","updatedAt":"2026-06-12T07:40:23.325Z","facilityType":"harbour","facilityLabel":"⚓ 漁港","changingTable":false,"wheelchair":false,"needsAddr":false},{"id":773895828,"name":"東濱派出所","lat":22.466674,"lng":120.4476139,"address":"928屏東縣東港鎮延平路112號","hasBabyChanging":false,"hasAccessible":false,"source":"OpenStreetMap","updatedAt":"2026-06-12T07:40:23.325Z","facilityType":"police","facilityLabel":"🚔 派出所","changingTable":false,"wheelchair":false,"openingHours":"24/7","needsAddr":false},{"id":773895829,"name":"東港朝隆宮","lat":22.4670148,"lng":120.4478329,"address":"928屏東縣東港鎮延平路108號","hasBabyChanging":false,"hasAccessible":false,"source":"OpenStreetMap","updatedAt":"2026-06-12T07:40:23.325Z","facilityType":"temple","facilityLabel":"🛕 廟宇","changingTable":false,"wheelchair":false,"needsAddr":false},{"id":774648935,"name":"台灣基督長老教會東港教會","lat":22.4654756,"lng":120.4477002,"address":"928屏東縣東港鎮延平路187號","hasBabyChanging":false,"hasAccessible":false,"source":"OpenStreetMap","updatedAt":"2026-06-12T07:40:23.325Z","facilityType":"temple","facilityLabel":"🛕 廟宇","changingTable":false,"wheelchair":false,"needsAddr":false},{"id":884607788,"name":"東港夜市","lat":22.4703775,"lng":120.4587956,"address":null,"hasBabyChanging":false,"hasAccessible":false,"source":"OpenStreetMap","updatedAt":"2026-06-12T07:40:23.325Z","facilityType":"nightmarket","facilityLabel":"🍢 夜市","changingTable":false,"wheelchair":false,"openingHours":"We,Sa 17:00-24:00","needsAddr":false},{"id":929277203,"name":"東港鎮公所","lat":22.4639704,"lng":120.4591976,"address":"928屏東縣東港鎮船頭路7號","hasBabyChanging":false,"hasAccessible":false,"source":"OpenStreetMap","updatedAt":"2026-06-12T07:40:23.325Z","facilityType":"government","facilityLabel":"🏛 公務機關","changingTable":false,"wheelchair":false,"needsAddr":false},{"id":971257237,"name":"東港鎮水資源回收中心","lat":22.449691,"lng":120.4527481,"address":null,"hasBabyChanging":false,"hasAccessible":false,"source":"OpenStreetMap","updatedAt":"2026-06-12T07:40:23.325Z","facilityType":"water","facilityLabel":"💧 水資源中心","changingTable":false,"wheelchair":false,"needsAddr":false},{"id":1028536838,"name":"屏東縣王船文化館","lat":22.463793,"lng":120.4600313,"address":"928屏東縣東港鎮船頭路9號","hasBabyChanging":false,"hasAccessible":false,"source":"OpenStreetMap","updatedAt":"2026-06-12T07:40:23.325Z","facilityType":"museum","facilityLabel":"🖼️ 博物館","changingTable":false,"wheelchair":false,"openingHours":"Tu-Su 09:00-18:00","needsAddr":false},{"id":1049366261,"name":"下廍社區發展協會","lat":22.4643438,"lng":120.4931466,"address":"屏東縣東港鎮建安一街345號","hasBabyChanging":false,"hasAccessible":false,"source":"OpenStreetMap","updatedAt":"2026-06-12T07:40:23.325Z","facilityType":"community","facilityLabel":"🏘️ 活動中心","changingTable":false,"wheelchair":false,"needsAddr":false},{"id":1060956629,"name":"東港清真寺","lat":22.4614678,"lng":120.4466395,"address":"屏東縣東港鎮興漁街115號","hasBabyChanging":false,"hasAccessible":false,"source":"OpenStreetMap","updatedAt":"2026-06-12T07:40:23.325Z","facilityType":"temple","facilityLabel":"🛕 廟宇","changingTable":false,"wheelchair":false,"needsAddr":false},{"id":1080838805,"name":"屏東縣東港社會福利綜合館","lat":22.4642857,"lng":120.4601441,"address":null,"hasBabyChanging":false,"hasAccessible":false,"source":"OpenStreetMap","updatedAt":"2026-06-12T07:40:23.325Z","facilityType":"government","facilityLabel":"🏛 公務機關","changingTable":false,"wheelchair":false,"needsAddr":false},{"id":1091608826,"name":"東港轉運站","lat":22.4646779,"lng":120.4577357,"address":"928屏東縣東港鎮船頭路3號","hasBabyChanging":false,"hasAccessible":false,"source":"OpenStreetMap","updatedAt":"2026-06-12T07:40:23.325Z","facilityType":"bus","facilityLabel":"🚌 客運站","changingTable":false,"wheelchair":false,"needsAddr":false},{"id":1182419662,"name":"星巴克 屏東東港門市","lat":22.4692149,"lng":120.4549652,"address":"屏東縣東港鎮光復路一段356號","hasBabyChanging":false,"hasAccessible":false,"source":"OpenStreetMap","updatedAt":"2026-06-12T07:40:23.325Z","facilityType":"starbucks","facilityLabel":"☕ 星巴克","changingTable":false,"wheelchair":false,"openingHours":"Mo-Su 07:00-22:00","needsAddr":false},{"id":1187511209,"name":"東港朝隆聖堂","lat":22.4677214,"lng":120.4440053,"address":"屏東縣東港鎮朝安里7鄰新生三路115號","hasBabyChanging":false,"hasAccessible":false,"source":"OpenStreetMap","updatedAt":"2026-06-12T07:40:23.325Z","facilityType":"temple","facilityLabel":"🛕 廟宇","changingTable":false,"wheelchair":false,"needsAddr":false},{"id":1187511225,"name":"(施工中)","lat":22.4655274,"lng":120.4378646,"address":null,"hasBabyChanging":false,"hasAccessible":false,"source":"OpenStreetMap","updatedAt":"2026-06-12T07:40:23.325Z","facilityType":"toilet","facilityLabel":null,"changingTable":false,"wheelchair":false,"needsAddr":false},{"id":1274357333,"name":"公共廁所","lat":22.449377,"lng":120.4799606,"address":null,"hasBabyChanging":false,"hasAccessible":false,"source":"OpenStreetMap","updatedAt":"2026-06-12T07:40:23.325Z","facilityType":"toilet","facilityLabel":null,"changingTable":false,"wheelchair":false,"needsAddr":true},{"id":1274357419,"name":"公共廁所","lat":22.4551385,"lng":120.4788154,"address":null,"hasBabyChanging":false,"hasAccessible":false,"source":"OpenStreetMap","updatedAt":"2026-06-12T07:40:23.325Z","facilityType":"toilet","facilityLabel":null,"changingTable":false,"wheelchair":false,"needsAddr":true},{"id":1274413105,"name":"嘉蓮宮","lat":22.4547323,"lng":120.4486826,"address":null,"hasBabyChanging":false,"hasAccessible":false,"source":"OpenStreetMap","updatedAt":"2026-06-12T07:40:23.325Z","facilityType":"temple","facilityLabel":"🛕 廟宇","changingTable":false,"wheelchair":false,"needsAddr":false},{"id":1274413108,"name":"東港中聖堂","lat":22.4604348,"lng":120.4434243,"address":null,"hasBabyChanging":false,"hasAccessible":false,"source":"OpenStreetMap","updatedAt":"2026-06-12T07:40:23.325Z","facilityType":"temple","facilityLabel":"🛕 廟宇","changingTable":false,"wheelchair":false,"needsAddr":false},{"id":1274413109,"name":"東港鎮共心堂","lat":22.4609001,"lng":120.4465317,"address":"928屏東縣東港鎮興漁街134號","hasBabyChanging":false,"hasAccessible":false,"source":"OpenStreetMap","updatedAt":"2026-06-12T07:40:23.325Z","facilityType":"temple","facilityLabel":"🛕 廟宇","changingTable":false,"wheelchair":false,"needsAddr":false},{"id":1274413110,"name":"東港震霊宮","lat":22.4620214,"lng":120.4468857,"address":null,"hasBabyChanging":false,"hasAccessible":false,"source":"OpenStreetMap","updatedAt":"2026-06-12T07:40:23.325Z","facilityType":"temple","facilityLabel":"🛕 廟宇","changingTable":false,"wheelchair":false,"needsAddr":false},{"id":1274413111,"name":"東港震隆宮","lat":22.4617541,"lng":120.4464019,"address":null,"hasBabyChanging":false,"hasAccessible":false,"source":"OpenStreetMap","updatedAt":"2026-06-12T07:40:23.325Z","facilityType":"temple","facilityLabel":"🛕 廟宇","changingTable":false,"wheelchair":false,"needsAddr":false},{"id":1274413112,"name":"鎮海宮","lat":22.4617315,"lng":120.4422404,"address":"928屏東縣東港鎮鎮海路42-5號","hasBabyChanging":false,"hasAccessible":false,"source":"OpenStreetMap","updatedAt":"2026-06-12T07:40:23.325Z","facilityType":"temple","facilityLabel":"🛕 廟宇","changingTable":false,"wheelchair":false,"needsAddr":false},{"id":1410880500,"name":"大潭社區活動中心","lat":22.4565733,"lng":120.4926974,"address":null,"hasBabyChanging":false,"hasAccessible":false,"source":"OpenStreetMap","updatedAt":"2026-06-12T07:40:23.325Z","facilityType":"community","facilityLabel":"🏘️ 活動中心","changingTable":false,"wheelchair":false,"needsAddr":false},{"id":1410880502,"name":"船頭福安宮","lat":22.4637819,"lng":120.4671111,"address":null,"hasBabyChanging":false,"hasAccessible":false,"source":"OpenStreetMap","updatedAt":"2026-06-12T07:40:23.325Z","facilityType":"temple","facilityLabel":"🛕 廟宇","changingTable":false,"wheelchair":false,"needsAddr":false}]}