{"city":"屏東縣","district":"霧台鄉","category":"toilets","updatedAt":"2026-06-12T07:40:23.325Z","rev":1,"count":42,"items":[{"id":2536763422,"name":"佳暮派出所","lat":22.7607515,"lng":120.720096,"address":"屏東縣霧台鄉佳暮村流川巷10號","hasBabyChanging":false,"hasAccessible":false,"source":"OpenStreetMap","updatedAt":"2026-06-12T07:40:23.325Z","facilityType":"police","facilityLabel":"🚔 派出所","changingTable":false,"wheelchair":false,"needsAddr":false},{"id":2536764261,"name":"大武派出所","lat":22.7579363,"lng":120.7545241,"address":"屏東縣霧台鄉大武村小山巷1號","hasBabyChanging":false,"hasAccessible":false,"source":"OpenStreetMap","updatedAt":"2026-06-12T07:40:23.325Z","facilityType":"police","facilityLabel":"🚔 派出所","changingTable":false,"wheelchair":false,"needsAddr":false},{"id":3742132734,"name":"公共廁所","lat":22.7277241,"lng":120.7582775,"address":null,"hasBabyChanging":false,"hasAccessible":false,"source":"OpenStreetMap","updatedAt":"2026-06-12T07:40:23.325Z","facilityType":"toilet","facilityLabel":null,"changingTable":false,"wheelchair":false,"needsAddr":true},{"id":3790309191,"name":"飛龍瀑布","lat":22.7651493,"lng":120.7443937,"address":null,"hasBabyChanging":false,"hasAccessible":false,"source":"OpenStreetMap","updatedAt":"2026-06-12T07:40:23.325Z","facilityType":"attraction","facilityLabel":"🏞️ 景點","changingTable":false,"wheelchair":false,"needsAddr":false},{"id":4732009223,"name":"神山瀑布","lat":22.7560605,"lng":120.7302935,"address":null,"hasBabyChanging":false,"hasAccessible":false,"source":"OpenStreetMap","updatedAt":"2026-06-12T07:40:23.325Z","facilityType":"attraction","facilityLabel":"🏞️ 景點","changingTable":false,"wheelchair":false,"needsAddr":false},{"id":4732016622,"name":"溯溪","lat":22.7593836,"lng":120.7261011,"address":null,"hasBabyChanging":false,"hasAccessible":false,"source":"OpenStreetMap","updatedAt":"2026-06-12T07:40:23.325Z","facilityType":"attraction","facilityLabel":"🏞️ 景點","changingTable":false,"wheelchair":false,"needsAddr":false},{"id":4891537938,"name":"佳暮社區活動中心","lat":22.7654715,"lng":120.7261371,"address":"屏東縣霧臺鄉佳暮村5鄰小原巷1號","hasBabyChanging":false,"hasAccessible":false,"source":"OpenStreetMap","updatedAt":"2026-06-12T07:40:23.325Z","facilityType":"community","facilityLabel":"🏘️ 活動中心","changingTable":false,"wheelchair":false,"needsAddr":false},{"id":4892165031,"name":"大武社區活動中心","lat":22.7569021,"lng":120.7549909,"address":null,"hasBabyChanging":false,"hasAccessible":false,"source":"OpenStreetMap","updatedAt":"2026-06-12T07:40:23.325Z","facilityType":"community","facilityLabel":"🏘️ 活動中心","changingTable":false,"wheelchair":false,"needsAddr":false},{"id":5539440650,"name":"神山瀑布","lat":22.7536761,"lng":120.7313652,"address":null,"hasBabyChanging":false,"hasAccessible":false,"source":"OpenStreetMap","updatedAt":"2026-06-12T07:40:23.325Z","facilityType":"attraction","facilityLabel":"🏞️ 景點","changingTable":false,"wheelchair":false,"needsAddr":false},{"id":5539554765,"name":"景點","lat":22.7497918,"lng":120.7347813,"address":null,"hasBabyChanging":false,"hasAccessible":false,"source":"OpenStreetMap","updatedAt":"2026-06-12T07:40:23.325Z","facilityType":"attraction","facilityLabel":"🏞️ 景點","changingTable":false,"wheelchair":false,"needsAddr":true},{"id":6285400932,"name":"公共廁所","lat":22.7444186,"lng":120.7320766,"address":null,"hasBabyChanging":false,"hasAccessible":true,"source":"OpenStreetMap","updatedAt":"2026-06-12T07:40:23.325Z","facilityType":"toilet","facilityLabel":null,"changingTable":false,"wheelchair":true,"needsAddr":true},{"id":7038909642,"name":"哈尤溪溫泉","lat":22.7598187,"lng":120.8243229,"address":null,"hasBabyChanging":false,"hasAccessible":false,"source":"OpenStreetMap","updatedAt":"2026-06-12T07:40:23.325Z","facilityType":"attraction","facilityLabel":"🏞️ 景點","changingTable":false,"wheelchair":false,"needsAddr":false},{"id":8019758785,"name":"拜燦谷","lat":22.8487564,"lng":120.8594877,"address":null,"hasBabyChanging":false,"hasAccessible":false,"source":"OpenStreetMap","updatedAt":"2026-06-12T07:40:23.325Z","facilityType":"attraction","facilityLabel":"🏞️ 景點","changingTable":false,"wheelchair":false,"needsAddr":false},{"id":9528636632,"name":"展望","lat":22.7211591,"lng":120.7385592,"address":null,"hasBabyChanging":false,"hasAccessible":false,"source":"OpenStreetMap","updatedAt":"2026-06-12T07:40:23.325Z","facilityType":"attraction","facilityLabel":"🏞️ 景點","changingTable":false,"wheelchair":false,"needsAddr":false},{"id":9528636712,"name":"阿爸禮握手","lat":22.7238365,"lng":120.7594407,"address":null,"hasBabyChanging":false,"hasAccessible":false,"source":"OpenStreetMap","updatedAt":"2026-06-12T07:40:23.325Z","facilityType":"attraction","facilityLabel":"🏞️ 景點","changingTable":false,"wheelchair":false,"needsAddr":false},{"id":9528636718,"name":"拉繩","lat":22.7219126,"lng":120.752473,"address":null,"hasBabyChanging":false,"hasAccessible":false,"source":"OpenStreetMap","updatedAt":"2026-06-12T07:40:23.325Z","facilityType":"attraction","facilityLabel":"🏞️ 景點","changingTable":false,"wheelchair":false,"needsAddr":false},{"id":10607422719,"name":"7-Eleven 霧台門市","lat":22.7507943,"lng":120.7275049,"address":"902屏東縣霧台鄉神山巷15號","hasBabyChanging":false,"hasAccessible":false,"source":"OpenStreetMap","updatedAt":"2026-06-12T07:40:23.325Z","facilityType":"convenience","facilityLabel":"🏪 超商","changingTable":false,"wheelchair":false,"openingHours":"24/7","needsAddr":false},{"id":11375024950,"name":"展望點","lat":22.7628176,"lng":120.7523455,"address":null,"hasBabyChanging":false,"hasAccessible":false,"source":"OpenStreetMap","updatedAt":"2026-06-12T07:40:23.325Z","facilityType":"attraction","facilityLabel":"🏞️ 景點","changingTable":false,"wheelchair":false,"needsAddr":false},{"id":13744226236,"name":"景點","lat":22.7510244,"lng":120.724605,"address":null,"hasBabyChanging":false,"hasAccessible":false,"source":"OpenStreetMap","updatedAt":"2026-06-12T07:40:23.325Z","facilityType":"attraction","facilityLabel":"🏞️ 景點","changingTable":false,"wheelchair":false,"needsAddr":true},{"id":369327418,"name":"霧台派出所","lat":22.7492023,"lng":120.7274304,"address":"屏東縣霧臺鄉霧台村3鄰神山巷71號","hasBabyChanging":false,"hasAccessible":false,"source":"OpenStreetMap","updatedAt":"2026-06-12T07:40:23.325Z","facilityType":"police","facilityLabel":"🚔 派出所","changingTable":false,"wheelchair":false,"needsAddr":false},{"id":369327419,"name":"霧台鄉公所","lat":22.749029,"lng":120.7283053,"address":"屏東縣霧臺鄉霧台村3鄰神山巷73號","hasBabyChanging":false,"hasAccessible":false,"source":"OpenStreetMap","updatedAt":"2026-06-12T07:40:23.325Z","facilityType":"government","facilityLabel":"🏛 公務機關","changingTable":false,"wheelchair":false,"needsAddr":false},{"id":369327555,"name":"公務機關","lat":22.749351,"lng":120.7277645,"address":null,"hasBabyChanging":false,"hasAccessible":false,"source":"OpenStreetMap","updatedAt":"2026-06-12T07:40:23.325Z","facilityType":"government","facilityLabel":"🏛 公務機關","changingTable":false,"wheelchair":false,"needsAddr":true},{"id":369327556,"name":"屏東縣霧台鄉立中正圖書館","lat":22.7492812,"lng":120.7267461,"address":null,"hasBabyChanging":false,"hasAccessible":false,"source":"OpenStreetMap","updatedAt":"2026-06-12T07:40:23.325Z","facilityType":"library","facilityLabel":"📚 圖書館","changingTable":false,"wheelchair":false,"needsAddr":false},{"id":369327759,"name":"霧台鄉衛生所","lat":22.7497691,"lng":120.7261159,"address":null,"hasBabyChanging":false,"hasAccessible":false,"source":"OpenStreetMap","updatedAt":"2026-06-12T07:40:23.325Z","facilityType":"clinic","facilityLabel":"🩺 診所","changingTable":false,"wheelchair":false,"needsAddr":false},{"id":369334547,"name":"公務機關","lat":22.7496962,"lng":120.7262994,"address":null,"hasBabyChanging":false,"hasAccessible":false,"source":"OpenStreetMap","updatedAt":"2026-06-12T07:40:23.325Z","facilityType":"government","facilityLabel":"🏛 公務機關","changingTable":false,"wheelchair":false,"needsAddr":true},{"id":369359103,"name":"魯凱文物館","lat":22.74457,"lng":120.7317514,"address":null,"hasBabyChanging":false,"hasAccessible":false,"source":"OpenStreetMap","updatedAt":"2026-06-12T07:40:23.325Z","facilityType":"museum","facilityLabel":"🖼️ 博物館","changingTable":false,"wheelchair":false,"needsAddr":false},{"id":369360823,"name":"霧台長老教會","lat":22.7444875,"lng":120.731209,"address":null,"hasBabyChanging":false,"hasAccessible":false,"source":"OpenStreetMap","updatedAt":"2026-06-12T07:40:23.325Z","facilityType":"temple","facilityLabel":"🛕 廟宇","changingTable":false,"wheelchair":false,"needsAddr":false},{"id":370415515,"name":"霧台社區活動中心","lat":22.7444523,"lng":120.7320584,"address":"屏東縣霧臺鄉霧台村5鄰中山巷46之3號","hasBabyChanging":false,"hasAccessible":false,"source":"OpenStreetMap","updatedAt":"2026-06-12T07:40:23.325Z","facilityType":"community","facilityLabel":"🏘️ 活動中心","changingTable":false,"wheelchair":false,"needsAddr":false},{"id":370416199,"name":"公共廁所","lat":22.7489535,"lng":120.7270818,"address":null,"hasBabyChanging":false,"hasAccessible":false,"source":"OpenStreetMap","updatedAt":"2026-06-12T07:40:23.325Z","facilityType":"toilet","facilityLabel":null,"changingTable":false,"wheelchair":false,"needsAddr":true},{"id":370416278,"name":"廟宇","lat":22.749558,"lng":120.7296721,"address":null,"hasBabyChanging":false,"hasAccessible":false,"source":"OpenStreetMap","updatedAt":"2026-06-12T07:40:23.325Z","facilityType":"temple","facilityLabel":"🛕 廟宇","changingTable":false,"wheelchair":false,"needsAddr":true},{"id":375324124,"name":"廟宇","lat":22.7266067,"lng":120.7576077,"address":null,"hasBabyChanging":false,"hasAccessible":false,"source":"OpenStreetMap","updatedAt":"2026-06-12T07:40:23.325Z","facilityType":"temple","facilityLabel":"🛕 廟宇","changingTable":false,"wheelchair":false,"needsAddr":true},{"id":375485287,"name":"基督復臨安息日會霧台教會","lat":22.7433176,"lng":120.7314061,"address":null,"hasBabyChanging":false,"hasAccessible":false,"source":"OpenStreetMap","updatedAt":"2026-06-12T07:40:23.325Z","facilityType":"temple","facilityLabel":"🛕 廟宇","changingTable":false,"wheelchair":false,"needsAddr":false},{"id":375565456,"name":"耶穌聖心堂","lat":22.7494552,"lng":120.7293514,"address":null,"hasBabyChanging":false,"hasAccessible":false,"source":"OpenStreetMap","updatedAt":"2026-06-12T07:40:23.325Z","facilityType":"temple","facilityLabel":"🛕 廟宇","changingTable":false,"wheelchair":false,"needsAddr":false},{"id":375681890,"name":"基督教中華循理會大武教會","lat":22.7582281,"lng":120.7544472,"address":null,"hasBabyChanging":false,"hasAccessible":false,"source":"OpenStreetMap","updatedAt":"2026-06-12T07:40:23.325Z","facilityType":"temple","facilityLabel":"🛕 廟宇","changingTable":false,"wheelchair":false,"needsAddr":false},{"id":801867113,"name":"天主教佳暮聖母無染原罪堂","lat":22.6939275,"lng":120.582245,"address":null,"hasBabyChanging":false,"hasAccessible":false,"source":"OpenStreetMap","updatedAt":"2026-06-12T07:40:23.325Z","facilityType":"temple","facilityLabel":"🛕 廟宇","changingTable":false,"wheelchair":false,"needsAddr":false},{"id":1017868245,"name":"安息日會好茶佈道所","lat":22.6991815,"lng":120.6472311,"address":"屏東縣霧臺鄉古茶柏安街21巷13號","hasBabyChanging":false,"hasAccessible":false,"source":"OpenStreetMap","updatedAt":"2026-06-12T07:40:23.325Z","facilityType":"temple","facilityLabel":"🛕 廟宇","changingTable":false,"wheelchair":false,"needsAddr":false},{"id":1017868246,"name":"好茶聖母聖心堂","lat":22.700128,"lng":120.6456754,"address":"屏東縣霧臺鄉和平路一段42號","hasBabyChanging":false,"hasAccessible":false,"source":"OpenStreetMap","updatedAt":"2026-06-12T07:40:23.325Z","facilityType":"temple","facilityLabel":"🛕 廟宇","changingTable":false,"wheelchair":false,"needsAddr":false},{"id":1017868264,"name":"台灣基督長老教會好茶教會","lat":22.7018232,"lng":120.6481172,"address":"屏東縣霧臺鄉古茶柏安街10巷2號","hasBabyChanging":false,"hasAccessible":false,"source":"OpenStreetMap","updatedAt":"2026-06-12T07:40:23.325Z","facilityType":"temple","facilityLabel":"🛕 廟宇","changingTable":false,"wheelchair":false,"needsAddr":false},{"id":1017868265,"name":"中華循理會好茶教會","lat":22.7003492,"lng":120.6478312,"address":"屏東縣霧臺鄉古茶柏安街15巷9號","hasBabyChanging":false,"hasAccessible":false,"source":"OpenStreetMap","updatedAt":"2026-06-12T07:40:23.325Z","facilityType":"temple","facilityLabel":"🛕 廟宇","changingTable":false,"wheelchair":false,"needsAddr":false},{"id":1034339024,"name":"阿禮頭目家屋","lat":22.7238355,"lng":120.7593401,"address":null,"hasBabyChanging":false,"hasAccessible":false,"source":"OpenStreetMap","updatedAt":"2026-06-12T07:40:23.325Z","facilityType":"museum","facilityLabel":"🖼️ 博物館","changingTable":false,"wheelchair":false,"needsAddr":false},{"id":1332532588,"name":"公共廁所","lat":22.7503696,"lng":120.7267709,"address":null,"hasBabyChanging":false,"hasAccessible":false,"source":"OpenStreetMap","updatedAt":"2026-06-12T07:40:23.325Z","facilityType":"toilet","facilityLabel":null,"changingTable":false,"wheelchair":false,"needsAddr":true},{"id":1424943085,"name":"阿禮吉露社區活動中心","lat":22.6892395,"lng":120.5773965,"address":null,"hasBabyChanging":false,"hasAccessible":false,"source":"OpenStreetMap","updatedAt":"2026-06-12T07:40:23.325Z","facilityType":"community","facilityLabel":"🏘️ 活動中心","changingTable":false,"wheelchair":false,"needsAddr":false}]}