{"city":"屏東縣","district":"鹽埔鄉","category":"toilets","updatedAt":"2026-06-12T07:40:23.325Z","rev":1,"count":13,"items":[{"id":2536764915,"name":"振興派出所","lat":22.7236201,"lng":120.6136014,"address":"屏東縣鹽埔鄉振興村中正路6號","hasBabyChanging":false,"hasAccessible":false,"source":"OpenStreetMap","updatedAt":"2026-06-12T07:40:23.325Z","facilityType":"police","facilityLabel":"🚔 派出所","changingTable":false,"wheelchair":false,"needsAddr":false},{"id":2536764996,"name":"新圍派出所","lat":22.7411016,"lng":120.5570234,"address":"屏東縣鹽埔鄉新圍村維新路129號","hasBabyChanging":false,"hasAccessible":false,"source":"OpenStreetMap","updatedAt":"2026-06-12T07:40:23.325Z","facilityType":"police","facilityLabel":"🚔 派出所","changingTable":false,"wheelchair":false,"needsAddr":false},{"id":2536766264,"name":"鹽埔分駐所","lat":22.7578802,"lng":120.5767753,"address":"屏東縣鹽埔鄉鹽中村中山路41號","hasBabyChanging":false,"hasAccessible":false,"source":"OpenStreetMap","updatedAt":"2026-06-12T07:40:23.325Z","facilityType":"police","facilityLabel":"🚔 派出所","changingTable":false,"wheelchair":false,"needsAddr":false},{"id":6283695915,"name":"全家便利商店 鹽埔豐年店","lat":22.7550638,"lng":120.5781365,"address":"屏東縣鹽埔鄉光復路89號","hasBabyChanging":false,"hasAccessible":false,"source":"OpenStreetMap","updatedAt":"2026-06-12T07:40:23.325Z","facilityType":"convenience","facilityLabel":"🏪 超商","changingTable":false,"wheelchair":false,"openingHours":"24/7","needsAddr":false},{"id":6285247511,"name":"7-Eleven 永盛門市","lat":22.7567342,"lng":120.5755865,"address":"屏東縣鹽埔鄉勝利路81-3號","hasBabyChanging":false,"hasAccessible":false,"source":"OpenStreetMap","updatedAt":"2026-06-12T07:40:23.325Z","facilityType":"convenience","facilityLabel":"🏪 超商","changingTable":false,"wheelchair":false,"openingHours":"24/7","needsAddr":false},{"id":13047595635,"name":"彭厝社區活動中心","lat":22.7466737,"lng":120.5460193,"address":null,"hasBabyChanging":false,"hasAccessible":false,"source":"OpenStreetMap","updatedAt":"2026-06-12T07:40:23.325Z","facilityType":"community","facilityLabel":"🏘️ 活動中心","changingTable":false,"wheelchair":false,"needsAddr":false},{"id":351288195,"name":"大仁科技大學","lat":22.7269358,"lng":120.5441845,"address":"屏東縣鹽埔鄉維新路20號","hasBabyChanging":false,"hasAccessible":false,"source":"OpenStreetMap","updatedAt":"2026-06-12T07:40:23.325Z","facilityType":"university","facilityLabel":"🎓 大專院校","changingTable":false,"wheelchair":false,"needsAddr":false},{"id":1419885834,"name":"洛陽社區活動中心","lat":22.740948,"lng":120.5210508,"address":null,"hasBabyChanging":false,"hasAccessible":false,"source":"OpenStreetMap","updatedAt":"2026-06-12T07:40:23.325Z","facilityType":"community","facilityLabel":"🏘️ 活動中心","changingTable":false,"wheelchair":false,"needsAddr":false},{"id":1419885840,"name":"洛陽紫雲寺","lat":22.7349178,"lng":120.5219046,"address":null,"hasBabyChanging":false,"hasAccessible":false,"source":"OpenStreetMap","updatedAt":"2026-06-12T07:40:23.325Z","facilityType":"temple","facilityLabel":"🛕 廟宇","changingTable":false,"wheelchair":false,"needsAddr":false},{"id":1419885849,"name":"建安宮","lat":22.7466351,"lng":120.5459492,"address":null,"hasBabyChanging":false,"hasAccessible":false,"source":"OpenStreetMap","updatedAt":"2026-06-12T07:40:23.325Z","facilityType":"temple","facilityLabel":"🛕 廟宇","changingTable":false,"wheelchair":false,"needsAddr":false},{"id":1419885857,"name":"振隆宮","lat":22.7232274,"lng":120.6116542,"address":null,"hasBabyChanging":false,"hasAccessible":false,"source":"OpenStreetMap","updatedAt":"2026-06-12T07:40:23.325Z","facilityType":"temple","facilityLabel":"🛕 廟宇","changingTable":false,"wheelchair":false,"needsAddr":false},{"id":1420381318,"name":"鹽埔鄉立圖書館","lat":22.7423203,"lng":120.5518585,"address":"屏東縣鹽埔鄉新二村21鄰新埔路610號","hasBabyChanging":false,"hasAccessible":false,"source":"OpenStreetMap","updatedAt":"2026-06-12T07:40:23.325Z","facilityType":"library","facilityLabel":"📚 圖書館","changingTable":false,"wheelchair":false,"needsAddr":false},{"id":1420381319,"name":"台灣中油 鹽埔站","lat":22.7530803,"lng":120.5701746,"address":"屏東縣鹽埔鄉勝利路25號","hasBabyChanging":false,"hasAccessible":false,"source":"OpenStreetMap","updatedAt":"2026-06-12T07:40:23.325Z","facilityType":"fuel","facilityLabel":"⛽ 加油站","changingTable":false,"wheelchair":false,"needsAddr":false}]}