{
  "city": "基隆市",
  "district": "七堵區",
  "category": "transport",
  "updatedAt": "2026-06-11T16:04:46.906Z",
  "rev": 1,
  "count": 121,
  "items": [
    {
      "id": 289131843,
      "name": "七堵",
      "type": "train",
      "city": "基隆市",
      "district": "七堵區",
      "lat": 25.0929751,
      "lng": 121.7138567
    },
    {
      "id": 3063796386,
      "name": "北五堵",
      "type": "bus",
      "city": "基隆市",
      "district": "七堵區",
      "lat": 25.0807816,
      "lng": 121.688559
    },
    {
      "id": 3063796387,
      "name": "北五堵",
      "type": "bus",
      "city": "基隆市",
      "district": "七堵區",
      "lat": 25.0774712,
      "lng": 121.6888145
    },
    {
      "id": 3063796388,
      "name": "基隆市界",
      "type": "bus",
      "city": "基隆市",
      "district": "七堵區",
      "lat": 25.0754367,
      "lng": 121.685571,
      "routes": [
        "589",
        "629",
        "629區",
        "678",
        "817",
        "919",
        "1032",
        "1191",
        "藍22"
      ],
      "routeCount": 9,
      "routeSource": "gtfs",
      "routeUpdatedAt": "2026-06-14T16:43:40.490Z",
      "routeConfidence": "high"
    },
    {
      "id": 3063796390,
      "name": "堵南里",
      "type": "bus",
      "city": "基隆市",
      "district": "七堵區",
      "lat": 25.0778636,
      "lng": 121.6921402,
      "routes": [
        "589",
        "1032",
        "1191"
      ],
      "routeCount": 3,
      "routeSource": "gtfs",
      "routeUpdatedAt": "2026-06-14T16:43:40.491Z",
      "routeConfidence": "high"
    },
    {
      "id": 3064711319,
      "name": "百三街",
      "type": "bus",
      "city": "基隆市",
      "district": "七堵區",
      "lat": 25.0818264,
      "lng": 121.6954721,
      "routes": [
        "402",
        "406",
        "408",
        "409",
        "0470E",
        "589",
        "702A",
        "702D",
        "1032",
        "4081",
        "R82A"
      ],
      "routeCount": 11,
      "routeSource": "gtfs",
      "routeUpdatedAt": "2026-06-14T16:43:40.491Z",
      "routeConfidence": "high"
    },
    {
      "id": 3064711322,
      "name": "百六街口",
      "type": "bus",
      "city": "基隆市",
      "district": "七堵區",
      "lat": 25.0856202,
      "lng": 121.698412,
      "routes": [
        "402",
        "406",
        "408",
        "409",
        "0470E",
        "589",
        "702A",
        "702D",
        "705",
        "1032",
        "1813A",
        "4081",
        "R82A"
      ],
      "routeCount": 13,
      "routeSource": "gtfs",
      "routeUpdatedAt": "2026-06-14T16:43:40.491Z",
      "routeConfidence": "high"
    },
    {
      "id": 3064711324,
      "name": "百福國中",
      "type": "bus",
      "city": "基隆市",
      "district": "七堵區",
      "lat": 25.082943,
      "lng": 121.6991826,
      "routes": [
        "402",
        "406",
        "408",
        "409",
        "0470E",
        "589",
        "702A",
        "702D",
        "705",
        "1032",
        "1191",
        "1813A",
        "4081",
        "R82A"
      ],
      "routeCount": 14,
      "routeSource": "gtfs",
      "routeUpdatedAt": "2026-06-14T16:43:40.491Z",
      "routeConfidence": "high"
    },
    {
      "id": 3064711326,
      "name": "監理站",
      "type": "bus",
      "city": "基隆市",
      "district": "七堵區",
      "lat": 25.0873039,
      "lng": 121.6977047,
      "routes": [
        "402",
        "406",
        "408",
        "409",
        "0470E",
        "589",
        "702",
        "702A",
        "702D",
        "1032",
        "1191",
        "4081",
        "R82A"
      ],
      "routeCount": 13,
      "routeSource": "gtfs",
      "routeUpdatedAt": "2026-06-14T16:43:40.492Z",
      "routeConfidence": "high"
    },
    {
      "id": 3064711328,
      "name": "福三街口",
      "type": "bus",
      "city": "基隆市",
      "district": "七堵區",
      "lat": 25.0818183,
      "lng": 121.6984173,
      "routes": [
        "402",
        "406",
        "408",
        "409",
        "0470E",
        "589",
        "702A",
        "702D",
        "705",
        "4081",
        "R82A"
      ],
      "routeCount": 11,
      "routeSource": "gtfs",
      "routeUpdatedAt": "2026-06-14T16:43:40.492Z",
      "routeConfidence": "high"
    },
    {
      "id": 3064711330,
      "name": "福二街口",
      "type": "bus",
      "city": "基隆市",
      "district": "七堵區",
      "lat": 25.0817799,
      "lng": 121.6970676,
      "routes": [
        "402",
        "406",
        "408",
        "409",
        "0470E",
        "589",
        "702A",
        "702D",
        "1032",
        "1191",
        "1813A",
        "4081",
        "R82A"
      ],
      "routeCount": 13,
      "routeSource": "gtfs",
      "routeUpdatedAt": "2026-06-14T16:43:40.492Z",
      "routeConfidence": "high"
    },
    {
      "id": 3065755414,
      "name": "七堵國小",
      "type": "bus",
      "city": "基隆市",
      "district": "七堵區",
      "lat": 25.097857,
      "lng": 121.7147298,
      "routes": [
        "402",
        "403",
        "403B",
        "403C",
        "406",
        "407",
        "408",
        "409",
        "0470C",
        "0470E",
        "503",
        "510",
        "510A",
        "606",
        "606B",
        "606C",
        "701",
        "703",
        "1031",
        "1032",
        "1191",
        "4037F",
        "4081",
        "4101",
        "5105B",
        "5106",
        "6062A",
        "6065",
        "7012",
        "R66",
        "R82",
        "R82A",
        "R82B",
        "R82D",
        "R86",
        "R86A"
      ],
      "routeCount": 36,
      "routeSource": "gtfs",
      "routeUpdatedAt": "2026-06-14T16:43:40.495Z",
      "routeConfidence": "high"
    },
    {
      "id": 3065755417,
      "name": "七堵郵局",
      "type": "bus",
      "city": "基隆市",
      "district": "七堵區",
      "lat": 25.0971848,
      "lng": 121.7127082,
      "routes": [
        "402",
        "403",
        "403B",
        "403C",
        "406",
        "407",
        "408",
        "409",
        "0470C",
        "0470E",
        "503",
        "510",
        "510A",
        "606",
        "606B",
        "606C",
        "701",
        "702",
        "702A",
        "702D",
        "703",
        "4037F",
        "4081",
        "4101",
        "5105B",
        "5106",
        "6062A",
        "6065",
        "7012",
        "R66",
        "R82",
        "R82A",
        "R82B",
        "R82D",
        "R86",
        "R86A"
      ],
      "routeCount": 36,
      "routeSource": "gtfs",
      "routeUpdatedAt": "2026-06-14T16:43:40.496Z",
      "routeConfidence": "high"
    },
    {
      "id": 3065755419,
      "name": "三分局",
      "type": "bus",
      "city": "基隆市",
      "district": "七堵區",
      "lat": 25.0982854,
      "lng": 121.7158372,
      "routes": [
        "402",
        "403",
        "403B",
        "403C",
        "406",
        "407",
        "408",
        "409",
        "0470C",
        "0470E",
        "503",
        "510",
        "510A",
        "606",
        "606B",
        "606C",
        "4037F",
        "4081",
        "4101",
        "5105B",
        "5106",
        "6062A",
        "6065",
        "R66",
        "R82",
        "R82A",
        "R82B",
        "R82D",
        "R86",
        "R86A"
      ],
      "routeCount": 30,
      "routeSource": "gtfs",
      "routeUpdatedAt": "2026-06-14T16:43:40.498Z",
      "routeConfidence": "high"
    },
    {
      "id": 3065755427,
      "name": "六堵代天府",
      "type": "bus",
      "city": "基隆市",
      "district": "七堵區",
      "lat": 25.0898786,
      "lng": 121.7013685,
      "routes": [
        "402",
        "406",
        "408",
        "409",
        "606B",
        "1032",
        "4081"
      ],
      "routeCount": 7,
      "routeSource": "gtfs",
      "routeUpdatedAt": "2026-06-14T16:43:40.498Z",
      "routeConfidence": "high"
    },
    {
      "id": 3065755429,
      "name": "六堵加油站",
      "type": "bus",
      "city": "基隆市",
      "district": "七堵區",
      "lat": 25.0838284,
      "lng": 121.7039181,
      "routes": [
        "402",
        "406",
        "408",
        "409",
        "0470E",
        "606B",
        "1032",
        "1191",
        "4081",
        "R82A"
      ],
      "routeCount": 10,
      "routeSource": "gtfs",
      "routeUpdatedAt": "2026-06-14T16:43:40.498Z",
      "routeConfidence": "high"
    },
    {
      "id": 3065755431,
      "name": "六堵科技園區",
      "type": "bus",
      "city": "基隆市",
      "district": "七堵區",
      "lat": 25.0914412,
      "lng": 121.7002981,
      "routes": [
        "402",
        "406",
        "408",
        "409",
        "0470E",
        "606B",
        "1032",
        "1191",
        "4081",
        "R82A"
      ],
      "routeCount": 10,
      "routeSource": "gtfs",
      "routeUpdatedAt": "2026-06-14T16:43:40.498Z",
      "routeConfidence": "high"
    },
    {
      "id": 3065756133,
      "name": "六堵科技園區服務中心",
      "type": "bus",
      "city": "基隆市",
      "district": "七堵區",
      "lat": 25.0880727,
      "lng": 121.7024249,
      "routes": [
        "402",
        "406",
        "408",
        "409",
        "0470E",
        "606B",
        "1032",
        "1191",
        "4081",
        "R82A"
      ],
      "routeCount": 10,
      "routeSource": "gtfs",
      "routeUpdatedAt": "2026-06-14T16:43:40.498Z",
      "routeConfidence": "high"
    },
    {
      "id": 3065756135,
      "name": "六堵嶺",
      "type": "bus",
      "city": "基隆市",
      "district": "七堵區",
      "lat": 25.0873776,
      "lng": 121.7053381,
      "routes": [
        "402",
        "406",
        "408",
        "409",
        "0470E",
        "606B",
        "1031",
        "1032",
        "1191",
        "4081",
        "R82A",
        "R82E"
      ],
      "routeCount": 12,
      "routeSource": "gtfs",
      "routeUpdatedAt": "2026-06-14T16:43:40.499Z",
      "routeConfidence": "high"
    },
    {
      "id": 3065756137,
      "name": "光明路口",
      "type": "bus",
      "city": "基隆市",
      "district": "七堵區",
      "lat": 25.0931005,
      "lng": 121.710612,
      "routes": [
        "402",
        "406",
        "408",
        "409",
        "510A",
        "606B",
        "4081",
        "5106"
      ],
      "routeCount": 8,
      "routeSource": "gtfs",
      "routeUpdatedAt": "2026-06-14T16:43:40.499Z",
      "routeConfidence": "high"
    },
    {
      "id": 3065756143,
      "name": "大華橋",
      "type": "bus",
      "city": "基隆市",
      "district": "七堵區",
      "lat": 25.0989571,
      "lng": 121.7171073,
      "routes": [
        "402",
        "403",
        "403B",
        "403C",
        "406",
        "407",
        "408",
        "409",
        "0470C",
        "0470E",
        "503",
        "510",
        "510A",
        "606",
        "606B",
        "606C",
        "1031",
        "1032",
        "1191",
        "4037F",
        "4081",
        "4101",
        "5105B",
        "5106",
        "6062A",
        "6065",
        "R66",
        "R82",
        "R82A",
        "R82B",
        "R82D",
        "R86",
        "R86A"
      ],
      "routeCount": 33,
      "routeSource": "gtfs",
      "routeUpdatedAt": "2026-06-14T16:43:40.500Z",
      "routeConfidence": "high"
    },
    {
      "id": 3065756144,
      "name": "大華橋",
      "type": "bus",
      "city": "基隆市",
      "district": "七堵區",
      "lat": 25.0996749,
      "lng": 121.7181655,
      "routes": [
        "402",
        "403",
        "403B",
        "403C",
        "406",
        "407",
        "408",
        "409",
        "0470C",
        "0470E",
        "503",
        "510",
        "510A",
        "606",
        "606B",
        "606C",
        "1031",
        "1032",
        "1191",
        "4037F",
        "4081",
        "4101",
        "5105B",
        "5106",
        "6062A",
        "6065",
        "R66",
        "R82",
        "R82A",
        "R82B",
        "R82D",
        "R86",
        "R86A"
      ],
      "routeCount": 33,
      "routeSource": "gtfs",
      "routeUpdatedAt": "2026-06-14T16:43:40.501Z",
      "routeConfidence": "high"
    },
    {
      "id": 3065756146,
      "name": "幸福人生社區",
      "type": "bus",
      "city": "基隆市",
      "district": "七堵區",
      "lat": 25.0888354,
      "lng": 121.7053036,
      "routes": [
        "402",
        "406",
        "408",
        "409",
        "0470E",
        "606B",
        "1031",
        "1032",
        "4081",
        "R82A",
        "R82E"
      ],
      "routeCount": 11,
      "routeSource": "gtfs",
      "routeUpdatedAt": "2026-06-14T16:43:40.502Z",
      "routeConfidence": "high"
    },
    {
      "id": 3065756280,
      "name": "南七堵",
      "type": "bus",
      "city": "基隆市",
      "district": "七堵區",
      "lat": 25.0968257,
      "lng": 121.7119237,
      "routes": [
        "402",
        "406",
        "408",
        "409",
        "0470C",
        "0470E",
        "503",
        "510A",
        "606",
        "606B",
        "701",
        "702",
        "702A",
        "702D",
        "703",
        "1031",
        "1032",
        "1191",
        "4081",
        "5106",
        "6062A",
        "6065",
        "7012",
        "R66",
        "R82",
        "R82A",
        "R82B",
        "R82D",
        "R86",
        "R86A"
      ],
      "routeCount": 30,
      "routeSource": "gtfs",
      "routeUpdatedAt": "2026-06-14T16:43:40.503Z",
      "routeConfidence": "high"
    },
    {
      "id": 3065756282,
      "name": "草濫",
      "type": "bus",
      "city": "基隆市",
      "district": "七堵區",
      "lat": 25.0901935,
      "lng": 121.7068645,
      "routes": [
        "402",
        "406",
        "408",
        "409",
        "0470E",
        "606B",
        "1031",
        "1032",
        "1191",
        "4081",
        "R82A",
        "R82E"
      ],
      "routeCount": 12,
      "routeSource": "gtfs",
      "routeUpdatedAt": "2026-06-14T16:43:40.503Z",
      "routeConfidence": "high"
    },
    {
      "id": 3065756285,
      "name": "陽明海運",
      "type": "bus",
      "city": "基隆市",
      "district": "七堵區",
      "lat": 25.0940303,
      "lng": 121.7106006,
      "routes": [
        "402",
        "406",
        "408",
        "409",
        "0470C",
        "0470E",
        "510A",
        "606B",
        "1031",
        "1032",
        "1191",
        "4081",
        "5106",
        "R66",
        "R82",
        "R82A",
        "R82B",
        "R82D",
        "R86",
        "R86A"
      ],
      "routeCount": 20,
      "routeSource": "gtfs",
      "routeUpdatedAt": "2026-06-14T16:43:40.504Z",
      "routeConfidence": "high"
    },
    {
      "id": 3096912596,
      "name": "七堵火車站",
      "type": "bus",
      "city": "基隆市",
      "district": "七堵區",
      "lat": 25.0949947,
      "lng": 121.7131289,
      "routes": [
        "0470C",
        "510",
        "510A",
        "5105B",
        "5106",
        "R66",
        "R82",
        "R82A",
        "R82B",
        "R82C",
        "R82D",
        "R82E",
        "R86",
        "R86A",
        "R90A"
      ],
      "routeCount": 15,
      "routeSource": "gtfs",
      "routeUpdatedAt": "2026-06-14T15:08:25.986Z",
      "routeConfidence": "high"
    },
    {
      "id": 3984191720,
      "name": "百福",
      "type": "train",
      "city": "基隆市",
      "district": "七堵區",
      "lat": 25.0781714,
      "lng": 121.694768
    },
    {
      "id": 8406199361,
      "name": "五堵站",
      "type": "bus",
      "city": "基隆市",
      "district": "七堵區",
      "lat": 25.075459,
      "lng": 121.6871372
    },
    {
      "id": 10613421757,
      "name": "友諒橋",
      "type": "bus",
      "city": "基隆市",
      "district": "七堵區",
      "lat": 25.0941837,
      "lng": 121.6693963,
      "routes": [
        "702",
        "702A",
        "702D"
      ],
      "routeCount": 3,
      "routeSource": "gtfs",
      "routeUpdatedAt": "2026-06-14T15:08:25.987Z",
      "routeConfidence": "high"
    },
    {
      "id": 10613421759,
      "name": "友益橋",
      "type": "bus",
      "city": "基隆市",
      "district": "七堵區",
      "lat": 25.0998112,
      "lng": 121.6664532,
      "routes": [
        "702",
        "702A",
        "702D"
      ],
      "routeCount": 3,
      "routeSource": "gtfs",
      "routeUpdatedAt": "2026-06-14T16:43:40.504Z",
      "routeConfidence": "high"
    },
    {
      "id": 10613421761,
      "name": "一坑",
      "type": "bus",
      "city": "基隆市",
      "district": "七堵區",
      "lat": 25.1029497,
      "lng": 121.6654476,
      "routes": [
        "702",
        "702A",
        "702D"
      ],
      "routeCount": 3,
      "routeSource": "gtfs",
      "routeUpdatedAt": "2026-06-14T16:43:40.504Z",
      "routeConfidence": "high"
    },
    {
      "id": 10613421768,
      "name": "復興國小",
      "type": "bus",
      "city": "基隆市",
      "district": "七堵區",
      "lat": 25.1066911,
      "lng": 121.6653081,
      "routes": [
        "702",
        "702A",
        "702D"
      ],
      "routeCount": 3,
      "routeSource": "gtfs",
      "routeUpdatedAt": "2026-06-14T16:43:40.504Z",
      "routeConfidence": "high"
    },
    {
      "id": 10613421772,
      "name": "友二里民大會堂",
      "type": "bus",
      "city": "基隆市",
      "district": "七堵區",
      "lat": 25.1084134,
      "lng": 121.6655829,
      "routes": [
        "702",
        "702A",
        "702D"
      ],
      "routeCount": 3,
      "routeSource": "gtfs",
      "routeUpdatedAt": "2026-06-14T15:08:25.987Z",
      "routeConfidence": "high"
    },
    {
      "id": 10613421774,
      "name": "華新二路",
      "type": "bus",
      "city": "基隆市",
      "district": "七堵區",
      "lat": 25.111815,
      "lng": 121.6643624,
      "routes": [
        "702",
        "702A",
        "702D"
      ],
      "routeCount": 3,
      "routeSource": "gtfs",
      "routeUpdatedAt": "2026-06-14T16:43:40.504Z",
      "routeConfidence": "high"
    },
    {
      "id": 10613421776,
      "name": "鹿寮",
      "type": "bus",
      "city": "基隆市",
      "district": "七堵區",
      "lat": 25.1133166,
      "lng": 121.6644941,
      "routes": [
        "702",
        "702A",
        "702D"
      ],
      "routeCount": 3,
      "routeSource": "gtfs",
      "routeUpdatedAt": "2026-06-14T16:43:40.504Z",
      "routeConfidence": "high"
    },
    {
      "id": 10613421778,
      "name": "石公潭",
      "type": "bus",
      "city": "基隆市",
      "district": "七堵區",
      "lat": 25.1165793,
      "lng": 121.6597221,
      "routes": [
        "702",
        "702A",
        "702D"
      ],
      "routeCount": 3,
      "routeSource": "gtfs",
      "routeUpdatedAt": "2026-06-14T16:43:40.504Z",
      "routeConfidence": "high"
    },
    {
      "id": 10613421780,
      "name": "鴛鴦潭",
      "type": "bus",
      "city": "基隆市",
      "district": "七堵區",
      "lat": 25.0978911,
      "lng": 121.6662713,
      "routes": [
        "702",
        "702A",
        "702D"
      ],
      "routeCount": 3,
      "routeSource": "gtfs",
      "routeUpdatedAt": "2026-06-14T16:43:40.504Z",
      "routeConfidence": "high"
    },
    {
      "id": 10613421782,
      "name": "友愛橋",
      "type": "bus",
      "city": "基隆市",
      "district": "七堵區",
      "lat": 25.0956759,
      "lng": 121.6666334,
      "routes": [
        "702",
        "702A",
        "702D"
      ],
      "routeCount": 3,
      "routeSource": "gtfs",
      "routeUpdatedAt": "2026-06-14T16:43:40.504Z",
      "routeConfidence": "high"
    },
    {
      "id": 10613421784,
      "name": "靜修寺",
      "type": "bus",
      "city": "基隆市",
      "district": "七堵區",
      "lat": 25.1146928,
      "lng": 121.6550216,
      "routes": [
        "702",
        "702A",
        "702D"
      ],
      "routeCount": 3,
      "routeSource": "gtfs",
      "routeUpdatedAt": "2026-06-14T15:08:25.987Z",
      "routeConfidence": "high"
    },
    {
      "id": 10613421789,
      "name": "內十四坑",
      "type": "bus",
      "city": "基隆市",
      "district": "七堵區",
      "lat": 25.1142376,
      "lng": 121.6539899,
      "routes": [
        "702",
        "702A",
        "702D"
      ],
      "routeCount": 3,
      "routeSource": "gtfs",
      "routeUpdatedAt": "2026-06-14T15:08:25.987Z",
      "routeConfidence": "high"
    },
    {
      "id": 10613421791,
      "name": "友一里民大會堂",
      "type": "bus",
      "city": "基隆市",
      "district": "七堵區",
      "lat": 25.091891,
      "lng": 121.6687219,
      "routes": [
        "702",
        "702A",
        "702D"
      ],
      "routeCount": 3,
      "routeSource": "gtfs",
      "routeUpdatedAt": "2026-06-14T15:08:25.987Z",
      "routeConfidence": "high"
    },
    {
      "id": 10613421793,
      "name": "綠葉山莊",
      "type": "bus",
      "city": "基隆市",
      "district": "七堵區",
      "lat": 25.0903466,
      "lng": 121.6678702,
      "routes": [
        "702",
        "702A",
        "702D"
      ],
      "routeCount": 3,
      "routeSource": "gtfs",
      "routeUpdatedAt": "2026-06-14T16:43:40.505Z",
      "routeConfidence": "high"
    },
    {
      "id": 10613421795,
      "name": "土地公廟",
      "type": "bus",
      "city": "基隆市",
      "district": "七堵區",
      "lat": 25.0890161,
      "lng": 121.6674185
    },
    {
      "id": 10613421801,
      "name": "友一社區發展協會",
      "type": "bus",
      "city": "基隆市",
      "district": "七堵區",
      "lat": 25.0879125,
      "lng": 121.6680732,
      "routes": [
        "702",
        "702A",
        "702D"
      ],
      "routeCount": 3,
      "routeSource": "gtfs",
      "routeUpdatedAt": "2026-06-14T16:43:40.505Z",
      "routeConfidence": "high"
    },
    {
      "id": 10613421803,
      "name": "友一里",
      "type": "bus",
      "city": "基隆市",
      "district": "七堵區",
      "lat": 25.0862223,
      "lng": 121.6724607,
      "routes": [
        "702",
        "702A",
        "702D"
      ],
      "routeCount": 3,
      "routeSource": "gtfs",
      "routeUpdatedAt": "2026-06-14T16:43:40.505Z",
      "routeConfidence": "high"
    },
    {
      "id": 10613489605,
      "name": "麗景天下社區",
      "type": "bus",
      "city": "基隆市",
      "district": "七堵區",
      "lat": 25.0851815,
      "lng": 121.6739769,
      "routes": [
        "702",
        "702A",
        "702D"
      ],
      "routeCount": 3,
      "routeSource": "gtfs",
      "routeUpdatedAt": "2026-06-14T16:43:40.505Z",
      "routeConfidence": "high"
    },
    {
      "id": 10613489607,
      "name": "天使宮",
      "type": "bus",
      "city": "基隆市",
      "district": "七堵區",
      "lat": 25.0867194,
      "lng": 121.6769344,
      "routes": [
        "702",
        "702A",
        "702D"
      ],
      "routeCount": 3,
      "routeSource": "gtfs",
      "routeUpdatedAt": "2026-06-14T16:43:40.505Z",
      "routeConfidence": "high"
    },
    {
      "id": 10613489609,
      "name": "真聖堂",
      "type": "bus",
      "city": "基隆市",
      "district": "七堵區",
      "lat": 25.0844745,
      "lng": 121.6831587,
      "routes": [
        "702",
        "702A",
        "702D"
      ],
      "routeCount": 3,
      "routeSource": "gtfs",
      "routeUpdatedAt": "2026-06-14T16:43:40.505Z",
      "routeConfidence": "high"
    },
    {
      "id": 10617281453,
      "name": "苓蘭生態農場",
      "type": "bus",
      "city": "基隆市",
      "district": "七堵區",
      "lat": 25.1413688,
      "lng": 121.6677171
    },
    {
      "id": 10617281455,
      "name": "面桶寮",
      "type": "bus",
      "city": "基隆市",
      "district": "七堵區",
      "lat": 25.138878,
      "lng": 121.6701053
    },
    {
      "id": 10617281457,
      "name": "大華三路100號(親水公園)",
      "type": "bus",
      "city": "基隆市",
      "district": "七堵區",
      "lat": 25.1331034,
      "lng": 121.6739871,
      "routes": [
        "7012"
      ],
      "routeCount": 1,
      "routeSource": "gtfs",
      "routeUpdatedAt": "2026-06-14T15:08:25.988Z",
      "routeConfidence": "high"
    },
    {
      "id": 10617281459,
      "name": "瑪陵",
      "type": "bus",
      "city": "基隆市",
      "district": "七堵區",
      "lat": 25.1309766,
      "lng": 121.6740143,
      "routes": [
        "701",
        "7012"
      ],
      "routeCount": 2,
      "routeSource": "gtfs",
      "routeUpdatedAt": "2026-06-14T16:43:40.505Z",
      "routeConfidence": "high"
    },
    {
      "id": 10617281461,
      "name": "大華三路95號",
      "type": "bus",
      "city": "基隆市",
      "district": "七堵區",
      "lat": 25.1303767,
      "lng": 121.6753819,
      "routes": [
        "701",
        "7012"
      ],
      "routeCount": 2,
      "routeSource": "gtfs",
      "routeUpdatedAt": "2026-06-14T16:43:40.505Z",
      "routeConfidence": "high"
    },
    {
      "id": 10617281463,
      "name": "瑪西里民活動中心",
      "type": "bus",
      "city": "基隆市",
      "district": "七堵區",
      "lat": 25.1285912,
      "lng": 121.6776378,
      "routes": [
        "701",
        "7012"
      ],
      "routeCount": 2,
      "routeSource": "gtfs",
      "routeUpdatedAt": "2026-06-14T16:43:40.505Z",
      "routeConfidence": "high"
    },
    {
      "id": 10617281465,
      "name": "武玄宮",
      "type": "bus",
      "city": "基隆市",
      "district": "七堵區",
      "lat": 25.1270883,
      "lng": 121.6780341,
      "routes": [
        "701",
        "7012"
      ],
      "routeCount": 2,
      "routeSource": "gtfs",
      "routeUpdatedAt": "2026-06-14T16:43:40.505Z",
      "routeConfidence": "high"
    },
    {
      "id": 10617281467,
      "name": "福德宮(遊客服務中心)",
      "type": "bus",
      "city": "基隆市",
      "district": "七堵區",
      "lat": 25.1250556,
      "lng": 121.6794918,
      "routes": [
        "701",
        "7012"
      ],
      "routeCount": 2,
      "routeSource": "gtfs",
      "routeUpdatedAt": "2026-06-14T16:43:40.505Z",
      "routeConfidence": "high"
    },
    {
      "id": 10617281469,
      "name": "仙洞湖",
      "type": "bus",
      "city": "基隆市",
      "district": "七堵區",
      "lat": 25.1228207,
      "lng": 121.6795127,
      "routes": [
        "701",
        "7012"
      ],
      "routeCount": 2,
      "routeSource": "gtfs",
      "routeUpdatedAt": "2026-06-14T16:43:40.505Z",
      "routeConfidence": "high"
    },
    {
      "id": 10617281471,
      "name": "鯉魚潭",
      "type": "bus",
      "city": "基隆市",
      "district": "七堵區",
      "lat": 25.1216938,
      "lng": 121.6800238,
      "routes": [
        "701",
        "7012"
      ],
      "routeCount": 2,
      "routeSource": "gtfs",
      "routeUpdatedAt": "2026-06-14T16:43:40.505Z",
      "routeConfidence": "high"
    },
    {
      "id": 10617281473,
      "name": "茶花園",
      "type": "bus",
      "city": "基隆市",
      "district": "七堵區",
      "lat": 25.1210178,
      "lng": 121.6810289,
      "routes": [
        "701",
        "7012"
      ],
      "routeCount": 2,
      "routeSource": "gtfs",
      "routeUpdatedAt": "2026-06-14T16:43:40.505Z",
      "routeConfidence": "high"
    },
    {
      "id": 10617281475,
      "name": "長潭(焦炭窯)",
      "type": "bus",
      "city": "基隆市",
      "district": "七堵區",
      "lat": 25.1174827,
      "lng": 121.6805649,
      "routes": [
        "701",
        "7012"
      ],
      "routeCount": 2,
      "routeSource": "gtfs",
      "routeUpdatedAt": "2026-06-14T16:43:40.505Z",
      "routeConfidence": "high"
    },
    {
      "id": 10617281477,
      "name": "向揚工業",
      "type": "bus",
      "city": "基隆市",
      "district": "七堵區",
      "lat": 25.1133505,
      "lng": 121.682437,
      "routes": [
        "701",
        "7012"
      ],
      "routeCount": 2,
      "routeSource": "gtfs",
      "routeUpdatedAt": "2026-06-14T16:43:40.505Z",
      "routeConfidence": "high"
    },
    {
      "id": 10617281479,
      "name": "大華三路10號",
      "type": "bus",
      "city": "基隆市",
      "district": "七堵區",
      "lat": 25.1121304,
      "lng": 121.6846864,
      "routes": [
        "701",
        "7012"
      ],
      "routeCount": 2,
      "routeSource": "gtfs",
      "routeUpdatedAt": "2026-06-14T16:43:40.505Z",
      "routeConfidence": "high"
    },
    {
      "id": 10617281481,
      "name": "翠谷橋",
      "type": "bus",
      "city": "基隆市",
      "district": "七堵區",
      "lat": 25.1110139,
      "lng": 121.6867888,
      "routes": [
        "701",
        "7012"
      ],
      "routeCount": 2,
      "routeSource": "gtfs",
      "routeUpdatedAt": "2026-06-14T16:43:40.505Z",
      "routeConfidence": "high"
    },
    {
      "id": 10617281483,
      "name": "青嵐橋(金明昌鹿園)",
      "type": "bus",
      "city": "基隆市",
      "district": "七堵區",
      "lat": 25.1113756,
      "lng": 121.6878635,
      "routes": [
        "701",
        "7012"
      ],
      "routeCount": 2,
      "routeSource": "gtfs",
      "routeUpdatedAt": "2026-06-14T16:43:40.505Z",
      "routeConfidence": "high"
    },
    {
      "id": 10617281488,
      "name": "瑪東里",
      "type": "bus",
      "city": "基隆市",
      "district": "七堵區",
      "lat": 25.1155031,
      "lng": 121.6927937,
      "routes": [
        "703"
      ],
      "routeCount": 1,
      "routeSource": "gtfs",
      "routeUpdatedAt": "2026-06-14T16:43:40.505Z",
      "routeConfidence": "high"
    },
    {
      "id": 10617281490,
      "name": "大同街",
      "type": "bus",
      "city": "基隆市",
      "district": "七堵區",
      "lat": 25.116682,
      "lng": 121.6955573,
      "routes": [
        "703"
      ],
      "routeCount": 1,
      "routeSource": "gtfs",
      "routeUpdatedAt": "2026-06-14T16:43:40.505Z",
      "routeConfidence": "high"
    },
    {
      "id": 10617281492,
      "name": "自強路口",
      "type": "bus",
      "city": "基隆市",
      "district": "七堵區",
      "lat": 25.1167936,
      "lng": 121.6988253,
      "routes": [
        "703"
      ],
      "routeCount": 1,
      "routeSource": "gtfs",
      "routeUpdatedAt": "2026-06-14T16:43:40.505Z",
      "routeConfidence": "high"
    },
    {
      "id": 10617281494,
      "name": "舊里民大會堂",
      "type": "bus",
      "city": "基隆市",
      "district": "七堵區",
      "lat": 25.1189622,
      "lng": 121.6988739,
      "routes": [
        "703"
      ],
      "routeCount": 1,
      "routeSource": "gtfs",
      "routeUpdatedAt": "2026-06-14T15:08:25.988Z",
      "routeConfidence": "high"
    },
    {
      "id": 10617281496,
      "name": "盧厝",
      "type": "bus",
      "city": "基隆市",
      "district": "七堵區",
      "lat": 25.1218039,
      "lng": 121.6985837,
      "routes": [
        "703"
      ],
      "routeCount": 1,
      "routeSource": "gtfs",
      "routeUpdatedAt": "2026-06-14T16:43:40.505Z",
      "routeConfidence": "high"
    },
    {
      "id": 10617281498,
      "name": "摩天嶺",
      "type": "bus",
      "city": "基隆市",
      "district": "七堵區",
      "lat": 25.1242541,
      "lng": 121.6994729,
      "routes": [
        "703"
      ],
      "routeCount": 1,
      "routeSource": "gtfs",
      "routeUpdatedAt": "2026-06-14T16:43:40.505Z",
      "routeConfidence": "high"
    },
    {
      "id": 10617281500,
      "name": "瑪東農村社區公園",
      "type": "bus",
      "city": "基隆市",
      "district": "七堵區",
      "lat": 25.1255985,
      "lng": 121.6979959,
      "routes": [
        "703"
      ],
      "routeCount": 1,
      "routeSource": "gtfs",
      "routeUpdatedAt": "2026-06-14T16:43:40.505Z",
      "routeConfidence": "high"
    },
    {
      "id": 10617281502,
      "name": "瑪新橋",
      "type": "bus",
      "city": "基隆市",
      "district": "七堵區",
      "lat": 25.1276382,
      "lng": 121.6967889,
      "routes": [
        "703"
      ],
      "routeCount": 1,
      "routeSource": "gtfs",
      "routeUpdatedAt": "2026-06-14T16:43:40.505Z",
      "routeConfidence": "high"
    },
    {
      "id": 10617281504,
      "name": "大同街52號",
      "type": "bus",
      "city": "基隆市",
      "district": "七堵區",
      "lat": 25.1306877,
      "lng": 121.6937856,
      "routes": [
        "703"
      ],
      "routeCount": 1,
      "routeSource": "gtfs",
      "routeUpdatedAt": "2026-06-14T16:43:40.505Z",
      "routeConfidence": "high"
    },
    {
      "id": 10617293206,
      "name": "大同街47號",
      "type": "bus",
      "city": "基隆市",
      "district": "七堵區",
      "lat": 25.1325739,
      "lng": 121.6889479,
      "routes": [
        "703"
      ],
      "routeCount": 1,
      "routeSource": "gtfs",
      "routeUpdatedAt": "2026-06-14T16:43:40.505Z",
      "routeConfidence": "high"
    },
    {
      "id": 10617293208,
      "name": "陳厝",
      "type": "bus",
      "city": "基隆市",
      "district": "七堵區",
      "lat": 25.1331579,
      "lng": 121.6867514,
      "routes": [
        "703"
      ],
      "routeCount": 1,
      "routeSource": "gtfs",
      "routeUpdatedAt": "2026-06-14T16:43:40.505Z",
      "routeConfidence": "high"
    },
    {
      "id": 10617293210,
      "name": "大同街59-1號",
      "type": "bus",
      "city": "基隆市",
      "district": "七堵區",
      "lat": 25.134436,
      "lng": 121.6866237,
      "routes": [
        "703"
      ],
      "routeCount": 1,
      "routeSource": "gtfs",
      "routeUpdatedAt": "2026-06-14T16:43:40.505Z",
      "routeConfidence": "high"
    },
    {
      "id": 10617293212,
      "name": "大同街60號",
      "type": "bus",
      "city": "基隆市",
      "district": "七堵區",
      "lat": 25.1400425,
      "lng": 121.681829
    },
    {
      "id": 10617293213,
      "name": "大同街63號",
      "type": "bus",
      "city": "基隆市",
      "district": "七堵區",
      "lat": 25.1358538,
      "lng": 121.6811466,
      "routes": [
        "703"
      ],
      "routeCount": 1,
      "routeSource": "gtfs",
      "routeUpdatedAt": "2026-06-14T16:43:40.505Z",
      "routeConfidence": "high"
    },
    {
      "id": 10628309607,
      "name": "瑪陵國小",
      "type": "bus",
      "city": "基隆市",
      "district": "七堵區",
      "lat": 25.1111398,
      "lng": 121.6889081,
      "routes": [
        "701",
        "703",
        "7012"
      ],
      "routeCount": 3,
      "routeSource": "gtfs",
      "routeUpdatedAt": "2026-06-14T16:43:40.505Z",
      "routeConfidence": "high"
    },
    {
      "id": 10628309609,
      "name": "瑪南里",
      "type": "bus",
      "city": "基隆市",
      "district": "七堵區",
      "lat": 25.1086537,
      "lng": 121.6918081,
      "routes": [
        "701",
        "703",
        "7012"
      ],
      "routeCount": 3,
      "routeSource": "gtfs",
      "routeUpdatedAt": "2026-06-14T16:43:40.505Z",
      "routeConfidence": "high"
    },
    {
      "id": 10628309611,
      "name": "旭騰",
      "type": "bus",
      "city": "基隆市",
      "district": "七堵區",
      "lat": 25.1059,
      "lng": 121.6923588,
      "routes": [
        "701",
        "703",
        "7012"
      ],
      "routeCount": 3,
      "routeSource": "gtfs",
      "routeUpdatedAt": "2026-06-14T16:43:40.506Z",
      "routeConfidence": "high"
    },
    {
      "id": 10628309613,
      "name": "中埔",
      "type": "bus",
      "city": "基隆市",
      "district": "七堵區",
      "lat": 25.1051182,
      "lng": 121.6936537,
      "routes": [
        "701",
        "703",
        "7012"
      ],
      "routeCount": 3,
      "routeSource": "gtfs",
      "routeUpdatedAt": "2026-06-14T16:43:40.506Z",
      "routeConfidence": "high"
    },
    {
      "id": 10628309619,
      "name": "慶國橋",
      "type": "bus",
      "city": "基隆市",
      "district": "七堵區",
      "lat": 25.1047591,
      "lng": 121.6961345,
      "routes": [
        "701",
        "703",
        "7012"
      ],
      "routeCount": 3,
      "routeSource": "gtfs",
      "routeUpdatedAt": "2026-06-14T16:43:40.506Z",
      "routeConfidence": "high"
    },
    {
      "id": 10628309621,
      "name": "港口",
      "type": "bus",
      "city": "基隆市",
      "district": "七堵區",
      "lat": 25.1018284,
      "lng": 121.6956969,
      "routes": [
        "701",
        "703",
        "7012"
      ],
      "routeCount": 3,
      "routeSource": "gtfs",
      "routeUpdatedAt": "2026-06-14T16:43:40.506Z",
      "routeConfidence": "high"
    },
    {
      "id": 10628309623,
      "name": "火炭坑",
      "type": "bus",
      "city": "基隆市",
      "district": "七堵區",
      "lat": 25.1009672,
      "lng": 121.6990614,
      "routes": [
        "701",
        "703",
        "7012"
      ],
      "routeCount": 3,
      "routeSource": "gtfs",
      "routeUpdatedAt": "2026-06-14T15:08:25.988Z",
      "routeConfidence": "high"
    },
    {
      "id": 10628309625,
      "name": "俊賢路",
      "type": "bus",
      "city": "基隆市",
      "district": "七堵區",
      "lat": 25.0952861,
      "lng": 121.7061389,
      "routes": [
        "606B",
        "701",
        "702",
        "702A",
        "702D",
        "703",
        "7012"
      ],
      "routeCount": 7,
      "routeSource": "gtfs",
      "routeUpdatedAt": "2026-06-14T16:43:40.506Z",
      "routeConfidence": "high"
    },
    {
      "id": 10628309635,
      "name": "連柑宅",
      "type": "bus",
      "city": "基隆市",
      "district": "七堵區",
      "lat": 25.0961726,
      "lng": 121.7067649,
      "routes": [
        "701",
        "703",
        "7012"
      ],
      "routeCount": 3,
      "routeSource": "gtfs",
      "routeUpdatedAt": "2026-06-14T16:43:40.506Z",
      "routeConfidence": "high"
    },
    {
      "id": 10628309637,
      "name": "大華一路68之1號",
      "type": "bus",
      "city": "基隆市",
      "district": "七堵區",
      "lat": 25.0990672,
      "lng": 121.7071408,
      "routes": [
        "701",
        "703",
        "7012"
      ],
      "routeCount": 3,
      "routeSource": "gtfs",
      "routeUpdatedAt": "2026-06-14T16:43:40.506Z",
      "routeConfidence": "high"
    },
    {
      "id": 10628309639,
      "name": "美河新都",
      "type": "bus",
      "city": "基隆市",
      "district": "七堵區",
      "lat": 25.1007511,
      "lng": 121.7108516,
      "routes": [
        "701",
        "703",
        "7012"
      ],
      "routeCount": 3,
      "routeSource": "gtfs",
      "routeUpdatedAt": "2026-06-14T16:43:40.506Z",
      "routeConfidence": "high"
    },
    {
      "id": 10628309641,
      "name": "大華新村",
      "type": "bus",
      "city": "基隆市",
      "district": "七堵區",
      "lat": 25.1019423,
      "lng": 121.7155944,
      "routes": [
        "503"
      ],
      "routeCount": 1,
      "routeSource": "gtfs",
      "routeUpdatedAt": "2026-06-14T16:43:40.506Z",
      "routeConfidence": "high"
    },
    {
      "id": 10628309643,
      "name": "石厝坑",
      "type": "bus",
      "city": "基隆市",
      "district": "七堵區",
      "lat": 25.1014491,
      "lng": 121.7124414,
      "routes": [
        "701",
        "703",
        "7012"
      ],
      "routeCount": 3,
      "routeSource": "gtfs",
      "routeUpdatedAt": "2026-06-14T16:43:40.506Z",
      "routeConfidence": "high"
    },
    {
      "id": 10628309645,
      "name": "崇智公園",
      "type": "bus",
      "city": "基隆市",
      "district": "七堵區",
      "lat": 25.0992412,
      "lng": 121.7136269,
      "routes": [
        "503",
        "701",
        "703",
        "7012"
      ],
      "routeCount": 4,
      "routeSource": "gtfs",
      "routeUpdatedAt": "2026-06-14T16:43:40.507Z",
      "routeConfidence": "high"
    },
    {
      "id": 10628309665,
      "name": "八德路17巷口",
      "type": "bus",
      "city": "基隆市",
      "district": "七堵區",
      "lat": 25.1057273,
      "lng": 121.7245065,
      "routes": [
        "503",
        "4101"
      ],
      "routeCount": 2,
      "routeSource": "gtfs",
      "routeUpdatedAt": "2026-06-14T16:43:40.507Z",
      "routeConfidence": "high"
    },
    {
      "id": 10628309676,
      "name": "自治街",
      "type": "bus",
      "city": "基隆市",
      "district": "七堵區",
      "lat": 25.095702,
      "lng": 121.7130883,
      "routes": [
        "403",
        "403B",
        "403C",
        "510",
        "606",
        "606C",
        "4037F",
        "5105B",
        "7061",
        "7062",
        "7063"
      ],
      "routeCount": 11,
      "routeSource": "gtfs",
      "routeUpdatedAt": "2026-06-14T16:43:40.508Z",
      "routeConfidence": "high"
    },
    {
      "id": 10628309678,
      "name": "開元路停車場",
      "type": "bus",
      "city": "基隆市",
      "district": "七堵區",
      "lat": 25.0962623,
      "lng": 121.7148228
    },
    {
      "id": 10635384401,
      "name": "七堵區行政大樓",
      "type": "bus",
      "city": "基隆市",
      "district": "七堵區",
      "lat": 25.0979403,
      "lng": 121.716234,
      "routes": [
        "403A",
        "403D",
        "403E",
        "R66",
        "R82",
        "R82A",
        "R82B",
        "R82C",
        "R82D",
        "R82E",
        "R86",
        "R86A",
        "R90A"
      ],
      "routeCount": 13,
      "routeSource": "gtfs",
      "routeUpdatedAt": "2026-06-14T16:43:40.510Z",
      "routeConfidence": "high"
    },
    {
      "id": 10635384403,
      "name": "堵南里",
      "type": "bus",
      "city": "基隆市",
      "district": "七堵區",
      "lat": 25.0821344,
      "lng": 121.6841046,
      "routes": [
        "402",
        "406",
        "409"
      ],
      "routeCount": 3,
      "routeSource": "gtfs",
      "routeUpdatedAt": "2026-06-14T16:43:40.511Z",
      "routeConfidence": "high"
    },
    {
      "id": 10635394105,
      "name": "堵南加油站",
      "type": "bus",
      "city": "基隆市",
      "district": "七堵區",
      "lat": 25.0822606,
      "lng": 121.6855997,
      "routes": [
        "402",
        "406",
        "409",
        "702",
        "702A",
        "702D"
      ],
      "routeCount": 6,
      "routeSource": "gtfs",
      "routeUpdatedAt": "2026-06-14T16:43:40.511Z",
      "routeConfidence": "high"
    },
    {
      "id": 10635394108,
      "name": "特殊教育學校",
      "type": "bus",
      "city": "基隆市",
      "district": "七堵區",
      "lat": 25.0826152,
      "lng": 121.6872915,
      "routes": [
        "402",
        "406",
        "409",
        "702",
        "702A",
        "702D"
      ],
      "routeCount": 6,
      "routeSource": "gtfs",
      "routeUpdatedAt": "2026-06-14T16:43:40.511Z",
      "routeConfidence": "high"
    },
    {
      "id": 10635394110,
      "name": "溪頭街口",
      "type": "bus",
      "city": "基隆市",
      "district": "七堵區",
      "lat": 25.0830373,
      "lng": 121.6885765,
      "routes": [
        "402",
        "406",
        "409",
        "702",
        "702A",
        "702D"
      ],
      "routeCount": 6,
      "routeSource": "gtfs",
      "routeUpdatedAt": "2026-06-14T16:43:40.511Z",
      "routeConfidence": "high"
    },
    {
      "id": 10635394112,
      "name": "大德路",
      "type": "bus",
      "city": "基隆市",
      "district": "七堵區",
      "lat": 25.084205,
      "lng": 121.6908797,
      "routes": [
        "402",
        "406",
        "409",
        "702",
        "702A",
        "702D"
      ],
      "routeCount": 6,
      "routeSource": "gtfs",
      "routeUpdatedAt": "2026-06-14T16:43:40.511Z",
      "routeConfidence": "high"
    },
    {
      "id": 10635394114,
      "name": "堵南國小",
      "type": "bus",
      "city": "基隆市",
      "district": "七堵區",
      "lat": 25.0844424,
      "lng": 121.6923169,
      "routes": [
        "402",
        "406",
        "409",
        "702",
        "702A",
        "702D",
        "1813A"
      ],
      "routeCount": 7,
      "routeSource": "gtfs",
      "routeUpdatedAt": "2026-06-14T16:43:40.511Z",
      "routeConfidence": "high"
    },
    {
      "id": 10635394116,
      "name": "百福火車站(大德路)",
      "type": "bus",
      "city": "基隆市",
      "district": "七堵區",
      "lat": 25.0785611,
      "lng": 121.6919871,
      "routes": [
        "0470E",
        "702A",
        "702D",
        "705",
        "R82A"
      ],
      "routeCount": 5,
      "routeSource": "gtfs",
      "routeUpdatedAt": "2026-06-14T16:43:40.511Z",
      "routeConfidence": "high"
    },
    {
      "id": 10635394118,
      "name": "水漾會館",
      "type": "bus",
      "city": "基隆市",
      "district": "七堵區",
      "lat": 25.0866109,
      "lng": 121.6936582,
      "routes": [
        "402",
        "406"
      ],
      "routeCount": 2,
      "routeSource": "gtfs",
      "routeUpdatedAt": "2026-06-14T15:08:25.994Z",
      "routeConfidence": "high"
    },
    {
      "id": 10653319057,
      "name": "東新街口",
      "type": "bus",
      "city": "基隆市",
      "district": "七堵區",
      "lat": 25.0946475,
      "lng": 121.7194089,
      "routes": [
        "403",
        "403A",
        "403B",
        "403C",
        "403D",
        "403E",
        "4037F"
      ],
      "routeCount": 7,
      "routeSource": "gtfs",
      "routeUpdatedAt": "2026-06-14T16:43:40.512Z",
      "routeConfidence": "high"
    },
    {
      "id": 10653319059,
      "name": "東新街127號",
      "type": "bus",
      "city": "基隆市",
      "district": "七堵區",
      "lat": 25.0907082,
      "lng": 121.7203421,
      "routes": [
        "403A",
        "403B",
        "403C"
      ],
      "routeCount": 3,
      "routeSource": "gtfs",
      "routeUpdatedAt": "2026-06-14T15:08:25.994Z",
      "routeConfidence": "high"
    },
    {
      "id": 10653319060,
      "name": "東新街138號",
      "type": "bus",
      "city": "基隆市",
      "district": "七堵區",
      "lat": 25.0891852,
      "lng": 121.7218265,
      "routes": [
        "403A",
        "403B",
        "403C"
      ],
      "routeCount": 3,
      "routeSource": "gtfs",
      "routeUpdatedAt": "2026-06-14T15:08:25.994Z",
      "routeConfidence": "high"
    },
    {
      "id": 10653319061,
      "name": "福基煤礦",
      "type": "bus",
      "city": "基隆市",
      "district": "七堵區",
      "lat": 25.0871703,
      "lng": 121.7237438,
      "routes": [
        "403A",
        "403B",
        "403C",
        "403E",
        "4037F"
      ],
      "routeCount": 5,
      "routeSource": "gtfs",
      "routeUpdatedAt": "2026-06-14T16:43:40.512Z",
      "routeConfidence": "high"
    },
    {
      "id": 10653319062,
      "name": "基隆商工",
      "type": "bus",
      "city": "基隆市",
      "district": "七堵區",
      "lat": 25.0945544,
      "lng": 121.716494,
      "routes": [
        "403",
        "403A",
        "403B",
        "403C",
        "403D",
        "403E",
        "4037F"
      ],
      "routeCount": 7,
      "routeSource": "gtfs",
      "routeUpdatedAt": "2026-06-14T15:08:25.994Z",
      "routeConfidence": "high"
    },
    {
      "id": 10653319064,
      "name": "明德國中",
      "type": "bus",
      "city": "基隆市",
      "district": "七堵區",
      "lat": 25.0936629,
      "lng": 121.7154814,
      "routes": [
        "403",
        "403A",
        "403B",
        "403C",
        "403D",
        "403E",
        "606",
        "606C",
        "4037F"
      ],
      "routeCount": 9,
      "routeSource": "gtfs",
      "routeUpdatedAt": "2026-06-14T16:43:40.512Z",
      "routeConfidence": "high"
    },
    {
      "id": 10653319066,
      "name": "泰安路186-1號",
      "type": "bus",
      "city": "基隆市",
      "district": "七堵區",
      "lat": 25.0790953,
      "lng": 121.7107832,
      "routes": [
        "7061",
        "7062",
        "7063"
      ],
      "routeCount": 3,
      "routeSource": "gtfs",
      "routeUpdatedAt": "2026-06-14T15:08:25.994Z",
      "routeConfidence": "high"
    },
    {
      "id": 10653319067,
      "name": "泰安路130號",
      "type": "bus",
      "city": "基隆市",
      "district": "七堵區",
      "lat": 25.0810429,
      "lng": 121.7087288,
      "routes": [
        "7061",
        "7062",
        "7063"
      ],
      "routeCount": 3,
      "routeSource": "gtfs",
      "routeUpdatedAt": "2026-06-14T15:08:25.994Z",
      "routeConfidence": "high"
    },
    {
      "id": 10653319069,
      "name": "泰安路77號",
      "type": "bus",
      "city": "基隆市",
      "district": "七堵區",
      "lat": 25.0852541,
      "lng": 121.7088993,
      "routes": [
        "7061",
        "7062",
        "7063"
      ],
      "routeCount": 3,
      "routeSource": "gtfs",
      "routeUpdatedAt": "2026-06-14T15:08:25.994Z",
      "routeConfidence": "high"
    },
    {
      "id": 10653319071,
      "name": "泰安里民活動中心",
      "type": "bus",
      "city": "基隆市",
      "district": "七堵區",
      "lat": 25.0864523,
      "lng": 121.71135,
      "routes": [
        "7061",
        "7062",
        "7063"
      ],
      "routeCount": 3,
      "routeSource": "gtfs",
      "routeUpdatedAt": "2026-06-14T15:08:25.994Z",
      "routeConfidence": "high"
    },
    {
      "id": 10653319073,
      "name": "泰安公園",
      "type": "bus",
      "city": "基隆市",
      "district": "七堵區",
      "lat": 25.0881109,
      "lng": 121.7094017,
      "routes": [
        "7061",
        "7062",
        "7063"
      ],
      "routeCount": 3,
      "routeSource": "gtfs",
      "routeUpdatedAt": "2026-06-14T15:08:25.994Z",
      "routeConfidence": "high"
    },
    {
      "id": 10653319089,
      "name": "泰安路23-12號",
      "type": "bus",
      "city": "基隆市",
      "district": "七堵區",
      "lat": 25.0891239,
      "lng": 121.7087114,
      "routes": [
        "7061",
        "7062",
        "7063"
      ],
      "routeCount": 3,
      "routeSource": "gtfs",
      "routeUpdatedAt": "2026-06-14T15:08:25.995Z",
      "routeConfidence": "high"
    },
    {
      "id": 10653319103,
      "name": "長安街口",
      "type": "bus",
      "city": "基隆市",
      "district": "七堵區",
      "lat": 25.0773944,
      "lng": 121.6901297,
      "routes": [
        "406",
        "408",
        "4081"
      ],
      "routeCount": 3,
      "routeSource": "gtfs",
      "routeUpdatedAt": "2026-06-14T16:43:40.512Z",
      "routeConfidence": "high"
    },
    {
      "id": 10653378616,
      "name": "長安社區",
      "type": "bus",
      "city": "基隆市",
      "district": "七堵區",
      "lat": 25.0750381,
      "lng": 121.6960521,
      "routes": [
        "406",
        "408",
        "4081"
      ],
      "routeCount": 3,
      "routeSource": "gtfs",
      "routeUpdatedAt": "2026-06-14T16:43:40.512Z",
      "routeConfidence": "high"
    },
    {
      "id": 10653383205,
      "name": "長安里民會堂",
      "type": "bus",
      "city": "基隆市",
      "district": "七堵區",
      "lat": 25.0770348,
      "lng": 121.6928963,
      "routes": [
        "406",
        "408",
        "4081"
      ],
      "routeCount": 3,
      "routeSource": "gtfs",
      "routeUpdatedAt": "2026-06-14T16:43:40.512Z",
      "routeConfidence": "high"
    },
    {
      "id": 370571650,
      "name": "基隆市公車七堵分站",
      "type": "bus_station",
      "city": "基隆市",
      "district": "七堵區",
      "lat": 25.0969774,
      "lng": 121.7100081,
      "routes": [
        "503",
        "701",
        "702",
        "702A",
        "702D",
        "703",
        "6062A",
        "6065",
        "7012"
      ],
      "routeCount": 9,
      "routeSource": "gtfs",
      "routeUpdatedAt": "2026-06-14T15:08:25.996Z",
      "routeConfidence": "high"
    }
  ]
}
