{"city":"台南市","district":"東區","category":"toilets","updatedAt":"2026-06-11T02:40:46.199Z","rev":1,"count":290,"items":[{"id":257398161,"name":"臺南 4220","lat":22.9972146,"lng":120.2130434,"address":"701臺南市東區北門路二段4號","hasBabyChanging":false,"hasAccessible":true,"source":"OpenStreetMap","updatedAt":"2026-06-11T02:40:46.199Z","facilityType":"train","facilityLabel":"🚂 火車站","changingTable":false,"wheelchair":true,"needsAddr":false},{"id":1650311093,"name":"天宮","lat":22.9909151,"lng":120.2171657,"address":null,"hasBabyChanging":false,"hasAccessible":false,"source":"OpenStreetMap","updatedAt":"2026-06-11T02:40:46.199Z","facilityType":"temple","facilityLabel":"🛕 廟宇","changingTable":false,"wheelchair":false,"needsAddr":false},{"id":1728838696,"name":"南鰲慈惠堂","lat":22.983175,"lng":120.2123908,"address":null,"hasBabyChanging":false,"hasAccessible":false,"source":"OpenStreetMap","updatedAt":"2026-06-11T02:40:46.199Z","facilityType":"temple","facilityLabel":"🛕 廟宇","changingTable":false,"wheelchair":false,"needsAddr":false},{"id":1968133687,"name":"公共廁所","lat":22.985919,"lng":120.2172747,"address":null,"hasBabyChanging":false,"hasAccessible":false,"source":"OpenStreetMap","updatedAt":"2026-06-11T02:40:46.199Z","facilityType":"toilet","facilityLabel":null,"changingTable":false,"wheelchair":false,"needsAddr":true},{"id":2290335375,"name":"加油站","lat":22.9814567,"lng":120.2293287,"address":null,"hasBabyChanging":false,"hasAccessible":false,"source":"OpenStreetMap","updatedAt":"2026-06-11T02:40:46.199Z","facilityType":"fuel","facilityLabel":"⛽ 加油站","changingTable":false,"wheelchair":false,"needsAddr":true},{"id":2536764672,"name":"後甲派出所","lat":22.984717,"lng":120.2354509,"address":"臺南市東區自強里富農街一段267號","hasBabyChanging":false,"hasAccessible":false,"source":"OpenStreetMap","updatedAt":"2026-06-11T02:40:46.199Z","facilityType":"police","facilityLabel":"🚔 派出所","changingTable":false,"wheelchair":false,"needsAddr":false},{"id":2536764929,"name":"文化派出所","lat":22.9760143,"lng":120.2211453,"address":"臺南市東區忠孝里崇明路384號","hasBabyChanging":false,"hasAccessible":false,"source":"OpenStreetMap","updatedAt":"2026-06-11T02:40:46.199Z","facilityType":"police","facilityLabel":"🚔 派出所","changingTable":false,"wheelchair":false,"needsAddr":false},{"id":2536765389,"name":"東門派出所","lat":22.9821188,"lng":120.2216576,"address":"臺南市東區龍山里富德街23號","hasBabyChanging":false,"hasAccessible":false,"source":"OpenStreetMap","updatedAt":"2026-06-11T02:40:46.199Z","facilityType":"police","facilityLabel":"🚔 派出所","changingTable":false,"wheelchair":false,"needsAddr":false},{"id":2536765979,"name":"莊敬派出所","lat":22.9969164,"lng":120.2316769,"address":"臺南市東區莊敬里東光路二段78號","hasBabyChanging":false,"hasAccessible":false,"source":"OpenStreetMap","updatedAt":"2026-06-11T02:40:46.199Z","facilityType":"police","facilityLabel":"🚔 派出所","changingTable":false,"wheelchair":false,"needsAddr":false},{"id":160095106,"name":"大東夜市","lat":22.9826121,"lng":120.219241,"address":"臺南市","hasBabyChanging":false,"hasAccessible":false,"source":"OpenStreetMap","updatedAt":"2026-06-11T02:40:46.199Z","facilityType":"nightmarket","facilityLabel":"🍢 夜市","changingTable":false,"wheelchair":false,"openingHours":"Mo, Tu, Fr \"晚間營業\"","needsAddr":false},{"id":2614700239,"name":"公共廁所","lat":22.9979864,"lng":120.2151007,"address":null,"hasBabyChanging":false,"hasAccessible":true,"source":"OpenStreetMap","updatedAt":"2026-06-11T02:40:46.199Z","facilityType":"toilet","facilityLabel":null,"changingTable":false,"wheelchair":true,"openingHours":"24/7","needsAddr":true},{"id":2616165013,"name":"成大商場","lat":22.9953366,"lng":120.2184526,"address":"701臺南市東區勝利路118號","hasBabyChanging":true,"hasAccessible":false,"source":"OpenStreetMap","updatedAt":"2026-06-11T02:40:46.199Z","facilityType":"department","facilityLabel":"🏬 百貨","changingTable":true,"wheelchair":false,"needsAddr":false},{"id":2616887565,"name":"星巴克","lat":22.9962966,"lng":120.2222885,"address":null,"hasBabyChanging":false,"hasAccessible":false,"source":"OpenStreetMap","updatedAt":"2026-06-11T02:40:46.199Z","facilityType":"starbucks","facilityLabel":"☕ 星巴克","changingTable":false,"wheelchair":false,"needsAddr":true},{"id":2619366836,"name":"公共廁所","lat":22.9966052,"lng":120.2125739,"address":null,"hasBabyChanging":false,"hasAccessible":false,"source":"OpenStreetMap","updatedAt":"2026-06-11T02:40:46.199Z","facilityType":"toilet","facilityLabel":null,"changingTable":false,"wheelchair":false,"fee":"no","needsAddr":true},{"id":2832893891,"name":"慈航居士會三寶殿","lat":22.9897711,"lng":120.2177585,"address":null,"hasBabyChanging":false,"hasAccessible":false,"source":"OpenStreetMap","updatedAt":"2026-06-11T02:40:46.199Z","facilityType":"temple","facilityLabel":"🛕 廟宇","changingTable":false,"wheelchair":false,"needsAddr":false},{"id":2833033027,"name":"呂怡璋小兒科診所","lat":22.990191,"lng":120.2126909,"address":"台南市東區前峰路41號","hasBabyChanging":false,"hasAccessible":false,"source":"OpenStreetMap","updatedAt":"2026-06-11T02:40:46.199Z","facilityType":"clinic","facilityLabel":"🩺 診所","changingTable":false,"wheelchair":false,"openingHours":"Mo-Fr 07:45-12:00; Mo-Th 16:00-20:30; Sa 08:00-12:30,14:30-19:00; Su 08:00-12:30","needsAddr":false},{"id":2833060465,"name":"基督教大專服務中心","lat":22.9955721,"lng":120.2216926,"address":null,"hasBabyChanging":false,"hasAccessible":false,"source":"OpenStreetMap","updatedAt":"2026-06-11T02:40:46.199Z","facilityType":"temple","facilityLabel":"🛕 廟宇","changingTable":false,"wheelchair":false,"needsAddr":false},{"id":2833060787,"name":"陳友二小兒科 內科診所","lat":22.991146,"lng":120.2155424,"address":"台南市青年路","hasBabyChanging":false,"hasAccessible":false,"source":"OpenStreetMap","updatedAt":"2026-06-11T02:40:46.199Z","facilityType":"clinic","facilityLabel":"🩺 診所","changingTable":false,"wheelchair":false,"openingHours":"Mo-Su 8:30-12:00; Mo-Sa 14:30-18:00; Mo-Fr 19:00-21:00","needsAddr":false},{"id":2833064912,"name":"Dr.Skin皮膚專科","lat":22.9947437,"lng":120.2216711,"address":null,"hasBabyChanging":false,"hasAccessible":false,"source":"OpenStreetMap","updatedAt":"2026-06-11T02:40:46.199Z","facilityType":"clinic","facilityLabel":"🩺 診所","changingTable":false,"wheelchair":false,"needsAddr":false},{"id":2833094439,"name":"寶雅","lat":22.996015,"lng":120.2202221,"address":"臺南市東區大學路8號一樓","hasBabyChanging":false,"hasAccessible":false,"source":"OpenStreetMap","updatedAt":"2026-06-11T02:40:46.199Z","facilityType":"poya","facilityLabel":"💄 寶雅","changingTable":false,"wheelchair":false,"needsAddr":false},{"id":2833111889,"name":"公共廁所","lat":23.0001665,"lng":120.2229071,"address":null,"hasBabyChanging":false,"hasAccessible":false,"source":"OpenStreetMap","updatedAt":"2026-06-11T02:40:46.199Z","facilityType":"toilet","facilityLabel":null,"changingTable":false,"wheelchair":false,"fee":"no","needsAddr":true},{"id":2833657632,"name":"尚儒大學眼科診所","lat":22.990254,"lng":120.2204382,"address":"701台南市東區長榮路二段75號","hasBabyChanging":false,"hasAccessible":false,"source":"OpenStreetMap","updatedAt":"2026-06-11T02:40:46.199Z","facilityType":"clinic","facilityLabel":"🩺 診所","changingTable":false,"wheelchair":false,"openingHours":"Mo-Fr 09:00-12:00, 17:00-21:00; Sa 09:00-12:00, 14:00-18:00","needsAddr":false},{"id":2833657644,"name":"葉明宏外科診所","lat":22.9906612,"lng":120.2207662,"address":"台南市東區長榮路二段101號","hasBabyChanging":false,"hasAccessible":false,"source":"OpenStreetMap","updatedAt":"2026-06-11T02:40:46.199Z","facilityType":"clinic","facilityLabel":"🩺 診所","changingTable":false,"wheelchair":false,"openingHours":"Mo 09:00-12:00, 15:00-21:00; Tu 15:00-21:00; We-Fr 09:00-12:00, 17:30-21:00; Sa 09:00-12:00","needsAddr":false},{"id":2833657645,"name":"謝明宏內科診所","lat":22.9904719,"lng":120.2206137,"address":"台南市東區長榮路二段93號","hasBabyChanging":false,"hasAccessible":false,"source":"OpenStreetMap","updatedAt":"2026-06-11T02:40:46.199Z","facilityType":"clinic","facilityLabel":"🩺 診所","changingTable":false,"wheelchair":false,"openingHours":"Mo-Fr 08:30-12:00, 15:00-20:00; Sa 08:30-12:00, 15:00-18:00","needsAddr":false},{"id":2833677185,"name":"春暉精神科診所","lat":22.9897732,"lng":120.2200054,"address":"台南市東區長榮路二段43號","hasBabyChanging":false,"hasAccessible":false,"source":"OpenStreetMap","updatedAt":"2026-06-11T02:40:46.199Z","facilityType":"clinic","facilityLabel":"🩺 診所","changingTable":false,"wheelchair":false,"needsAddr":false},{"id":2840004649,"name":"公共廁所","lat":22.9750703,"lng":120.2380252,"address":null,"hasBabyChanging":false,"hasAccessible":false,"source":"OpenStreetMap","updatedAt":"2026-06-11T02:40:46.199Z","facilityType":"toilet","facilityLabel":null,"changingTable":false,"wheelchair":false,"needsAddr":true},{"id":2932251831,"name":"明耀健康精油SPA中心","lat":22.9920745,"lng":120.2217915,"address":"701臺南市東區東寧路57號","hasBabyChanging":false,"hasAccessible":false,"source":"OpenStreetMap","updatedAt":"2026-06-11T02:40:46.199Z","facilityType":"clinic","facilityLabel":"🩺 診所","changingTable":false,"wheelchair":false,"needsAddr":false},{"id":3019036758,"name":"廁所","lat":22.9924331,"lng":120.2211118,"address":null,"hasBabyChanging":false,"hasAccessible":true,"source":"OpenStreetMap","updatedAt":"2026-06-11T02:40:46.199Z","facilityType":"toilet","facilityLabel":null,"changingTable":false,"wheelchair":true,"needsAddr":false},{"id":3232401866,"name":"松鶴堂中醫診所","lat":22.988446,"lng":120.2345004,"address":"701臺南市東區裕農路580號","hasBabyChanging":false,"hasAccessible":false,"source":"OpenStreetMap","updatedAt":"2026-06-11T02:40:46.199Z","facilityType":"clinic","facilityLabel":"🩺 診所","changingTable":false,"wheelchair":false,"openingHours":"Mo 14:00-18:00,18:30-21:30;Tu-Fr 08:00-12:00,14:00-18:00,18:30-21:30;Sa 08:00-12:00,14:00-18:00","needsAddr":false},{"id":3232412725,"name":"幼馨診所","lat":22.9884535,"lng":120.2345897,"address":"701臺南市東區裕農路584號","hasBabyChanging":false,"hasAccessible":false,"source":"OpenStreetMap","updatedAt":"2026-06-11T02:40:46.199Z","facilityType":"clinic","facilityLabel":"🩺 診所","changingTable":false,"wheelchair":false,"openingHours":"Mo-Fr 08:00-12:00,17:00-21:30","needsAddr":false},{"id":3232412727,"name":"富田診所","lat":22.9884773,"lng":120.2348542,"address":"701臺南市東區裕農路594號","hasBabyChanging":false,"hasAccessible":false,"source":"OpenStreetMap","updatedAt":"2026-06-11T02:40:46.199Z","facilityType":"clinic","facilityLabel":"🩺 診所","changingTable":false,"wheelchair":false,"openingHours":"Mo-Sa 08:00-12:00,16:30-21:00","needsAddr":false},{"id":3232412729,"name":"長鼎牙醫","lat":22.9885046,"lng":120.2349474,"address":"701臺南市東區裕農路598號","hasBabyChanging":false,"hasAccessible":false,"source":"OpenStreetMap","updatedAt":"2026-06-11T02:40:46.199Z","facilityType":"clinic","facilityLabel":"🩺 診所","changingTable":false,"wheelchair":false,"needsAddr":false},{"id":3232443271,"name":"賴金蓉中醫","lat":22.9886908,"lng":120.235988,"address":"701臺南市東區裕農路641號","hasBabyChanging":false,"hasAccessible":false,"source":"OpenStreetMap","updatedAt":"2026-06-11T02:40:46.199Z","facilityType":"clinic","facilityLabel":"🩺 診所","changingTable":false,"wheelchair":false,"needsAddr":false},{"id":3232471579,"name":"妙善牙醫","lat":22.9887129,"lng":120.2354258,"address":"701臺南市東區裕農路619-1號","hasBabyChanging":false,"hasAccessible":false,"source":"OpenStreetMap","updatedAt":"2026-06-11T02:40:46.199Z","facilityType":"clinic","facilityLabel":"🩺 診所","changingTable":false,"wheelchair":false,"needsAddr":false},{"id":3232471830,"name":"丁慶雄耳鼻喉科","lat":22.9887139,"lng":120.2352962,"address":"701臺南市東區裕農路613號","hasBabyChanging":false,"hasAccessible":false,"source":"OpenStreetMap","updatedAt":"2026-06-11T02:40:46.199Z","facilityType":"clinic","facilityLabel":"🩺 診所","changingTable":false,"wheelchair":false,"needsAddr":false},{"id":3232593471,"name":"五府千歲","lat":22.9993289,"lng":120.2263242,"address":null,"hasBabyChanging":false,"hasAccessible":false,"source":"OpenStreetMap","updatedAt":"2026-06-11T02:40:46.199Z","facilityType":"temple","facilityLabel":"🛕 廟宇","changingTable":false,"wheelchair":false,"needsAddr":false},{"id":3232593477,"name":"東光教會","lat":22.9985323,"lng":120.2291096,"address":"701臺南市東區東和路59號","hasBabyChanging":false,"hasAccessible":false,"source":"OpenStreetMap","updatedAt":"2026-06-11T02:40:46.199Z","facilityType":"temple","facilityLabel":"🛕 廟宇","changingTable":false,"wheelchair":false,"needsAddr":false},{"id":3232651606,"name":"享溫馨KTV","lat":22.9971466,"lng":120.2341506,"address":null,"hasBabyChanging":false,"hasAccessible":false,"source":"OpenStreetMap","updatedAt":"2026-06-11T02:40:46.199Z","facilityType":"ktv","facilityLabel":"🎤 KTV","changingTable":false,"wheelchair":false,"needsAddr":false},{"id":3232654188,"name":"張育彰復健科","lat":22.9946446,"lng":120.2282875,"address":null,"hasBabyChanging":false,"hasAccessible":false,"source":"OpenStreetMap","updatedAt":"2026-06-11T02:40:46.199Z","facilityType":"clinic","facilityLabel":"🩺 診所","changingTable":false,"wheelchair":false,"needsAddr":false},{"id":3232654190,"name":"怡東診所","lat":22.99426,"lng":120.2284268,"address":null,"hasBabyChanging":false,"hasAccessible":false,"source":"OpenStreetMap","updatedAt":"2026-06-11T02:40:46.199Z","facilityType":"clinic","facilityLabel":"🩺 診所","changingTable":false,"wheelchair":false,"needsAddr":false},{"id":3232727808,"name":"三榕王廟","lat":22.9903422,"lng":120.2362532,"address":null,"hasBabyChanging":false,"hasAccessible":false,"source":"OpenStreetMap","updatedAt":"2026-06-11T02:40:46.199Z","facilityType":"temple","facilityLabel":"🛕 廟宇","changingTable":false,"wheelchair":false,"needsAddr":false},{"id":3232727819,"name":"徐安診所","lat":22.9886273,"lng":120.234875,"address":"701台南市東區裕農路603號","hasBabyChanging":false,"hasAccessible":false,"source":"OpenStreetMap","updatedAt":"2026-06-11T02:40:46.199Z","facilityType":"clinic","facilityLabel":"🩺 診所","changingTable":false,"wheelchair":false,"needsAddr":false},{"id":3232727821,"name":"林一宏眼科","lat":22.9886015,"lng":120.2342291,"address":"701台南市東區裕農路583號","hasBabyChanging":false,"hasAccessible":false,"source":"OpenStreetMap","updatedAt":"2026-06-11T02:40:46.199Z","facilityType":"clinic","facilityLabel":"🩺 診所","changingTable":false,"wheelchair":false,"needsAddr":false},{"id":3232729360,"name":"佳一家庭診所","lat":22.9947719,"lng":120.2314341,"address":"臺南市東區東平路71號","hasBabyChanging":false,"hasAccessible":false,"source":"OpenStreetMap","updatedAt":"2026-06-11T02:40:46.199Z","facilityType":"clinic","facilityLabel":"🩺 診所","changingTable":false,"wheelchair":false,"needsAddr":false},{"id":3232729568,"name":"喜樂小兒科診所","lat":22.994116,"lng":120.2314075,"address":null,"hasBabyChanging":false,"hasAccessible":false,"source":"OpenStreetMap","updatedAt":"2026-06-11T02:40:46.199Z","facilityType":"clinic","facilityLabel":"🩺 診所","changingTable":false,"wheelchair":false,"needsAddr":false},{"id":3232729584,"name":"愛爾麗整形外科整所","lat":22.9912947,"lng":120.223556,"address":"701臺南市東區東寧路162號","hasBabyChanging":false,"hasAccessible":false,"source":"OpenStreetMap","updatedAt":"2026-06-11T02:40:46.199Z","facilityType":"clinic","facilityLabel":"🩺 診所","changingTable":false,"wheelchair":false,"needsAddr":false},{"id":3232729585,"name":"懷安堂中醫診所","lat":22.9929676,"lng":120.2304599,"address":"701台南市東區凱旋路33號","hasBabyChanging":false,"hasAccessible":false,"source":"OpenStreetMap","updatedAt":"2026-06-11T02:40:46.199Z","facilityType":"clinic","facilityLabel":"🩺 診所","changingTable":false,"wheelchair":false,"needsAddr":false},{"id":3232729586,"name":"方耳鼻喉科診所","lat":22.9895699,"lng":120.2299069,"address":"701臺南市東區東寧路421號","hasBabyChanging":false,"hasAccessible":false,"source":"OpenStreetMap","updatedAt":"2026-06-11T02:40:46.199Z","facilityType":"clinic","facilityLabel":"🩺 診所","changingTable":false,"wheelchair":false,"needsAddr":false},{"id":3232729589,"name":"楊慧斌耳鼻喉科","lat":22.9897779,"lng":120.2292749,"address":null,"hasBabyChanging":false,"hasAccessible":false,"source":"OpenStreetMap","updatedAt":"2026-06-11T02:40:46.199Z","facilityType":"clinic","facilityLabel":"🩺 診所","changingTable":false,"wheelchair":false,"needsAddr":false},{"id":3240558903,"name":"家樂福超市","lat":22.9955382,"lng":120.2329992,"address":"臺南市","hasBabyChanging":false,"hasAccessible":false,"source":"OpenStreetMap","updatedAt":"2026-06-11T02:40:46.199Z","facilityType":"supermarket","facilityLabel":"🧺 超市","changingTable":false,"wheelchair":false,"openingHours":"24/7","needsAddr":false},{"id":3256624469,"name":"公共廁所","lat":23.0008212,"lng":120.2164431,"address":null,"hasBabyChanging":false,"hasAccessible":true,"source":"OpenStreetMap","updatedAt":"2026-06-11T02:40:46.199Z","facilityType":"toilet","facilityLabel":null,"changingTable":false,"wheelchair":true,"fee":"no","openingHours":"24/7","needsAddr":true},{"id":3460148369,"name":"莊敬福德正神","lat":22.9984039,"lng":120.2331077,"address":null,"hasBabyChanging":false,"hasAccessible":false,"source":"OpenStreetMap","updatedAt":"2026-06-11T02:40:46.199Z","facilityType":"temple","facilityLabel":"🛕 廟宇","changingTable":false,"wheelchair":false,"needsAddr":false},{"id":3460175212,"name":"念字聖堂","lat":22.9961751,"lng":120.232339,"address":"臺南市東區東光路二段36巷27號","hasBabyChanging":false,"hasAccessible":false,"source":"OpenStreetMap","updatedAt":"2026-06-11T02:40:46.199Z","facilityType":"temple","facilityLabel":"🛕 廟宇","changingTable":false,"wheelchair":false,"needsAddr":false},{"id":3498366648,"name":"薛澤杰復健科診所","lat":22.9867025,"lng":120.21662,"address":"台南市東區東門路一段298號","hasBabyChanging":false,"hasAccessible":false,"source":"OpenStreetMap","updatedAt":"2026-06-11T02:40:46.199Z","facilityType":"clinic","facilityLabel":"🩺 診所","changingTable":false,"wheelchair":false,"needsAddr":false},{"id":3498368071,"name":"弘恩復健科診所","lat":22.9898099,"lng":120.2299931,"address":"台南市東區東寧路429號","hasBabyChanging":false,"hasAccessible":false,"source":"OpenStreetMap","updatedAt":"2026-06-11T02:40:46.199Z","facilityType":"clinic","facilityLabel":"🩺 診所","changingTable":false,"wheelchair":false,"needsAddr":false},{"id":3498369205,"name":"怡安復健科診所","lat":22.9909209,"lng":120.227449,"address":"台南市東區怡東路15號","hasBabyChanging":false,"hasAccessible":false,"source":"OpenStreetMap","updatedAt":"2026-06-11T02:40:46.199Z","facilityType":"clinic","facilityLabel":"🩺 診所","changingTable":false,"wheelchair":false,"needsAddr":false},{"id":3498372223,"name":"欣姿診所","lat":22.9856219,"lng":120.2214655,"address":"台南市東區東門路二段300號","hasBabyChanging":false,"hasAccessible":false,"source":"OpenStreetMap","updatedAt":"2026-06-11T02:40:46.199Z","facilityType":"clinic","facilityLabel":"🩺 診所","changingTable":false,"wheelchair":false,"needsAddr":false},{"id":3498375838,"name":"惠民診所","lat":22.9825945,"lng":120.2160002,"address":"台南市東區長榮路一段15號","hasBabyChanging":false,"hasAccessible":false,"source":"OpenStreetMap","updatedAt":"2026-06-11T02:40:46.199Z","facilityType":"clinic","facilityLabel":"🩺 診所","changingTable":false,"wheelchair":false,"needsAddr":false},{"id":3499171679,"name":"黃輝鵬皮膚科","lat":22.9779533,"lng":120.222059,"address":"台南市東區崇德路283號","hasBabyChanging":false,"hasAccessible":false,"source":"OpenStreetMap","updatedAt":"2026-06-11T02:40:46.199Z","facilityType":"clinic","facilityLabel":"🩺 診所","changingTable":false,"wheelchair":false,"openingHours":"Mo-Fr 09:00-12:00, 15:30-18:30, 19:00-21:00","needsAddr":false},{"id":3499175247,"name":"藝群皮膚科","lat":22.9821961,"lng":120.2477186,"address":"70163台南市東區裕義路332號","hasBabyChanging":false,"hasAccessible":false,"source":"OpenStreetMap","updatedAt":"2026-06-11T02:40:46.199Z","facilityType":"clinic","facilityLabel":"🩺 診所","changingTable":false,"wheelchair":false,"openingHours":"Mo-Sa 09:00-12:00,14:00-17:30, 18:00-21:30","needsAddr":false},{"id":3499199326,"name":"全心中醫診所","lat":22.975389,"lng":120.2306143,"address":null,"hasBabyChanging":false,"hasAccessible":false,"source":"OpenStreetMap","updatedAt":"2026-06-11T02:40:46.199Z","facilityType":"clinic","facilityLabel":"🩺 診所","changingTable":false,"wheelchair":false,"needsAddr":false},{"id":3499217779,"name":"梁中醫診所","lat":22.9830326,"lng":120.2378152,"address":null,"hasBabyChanging":false,"hasAccessible":false,"source":"OpenStreetMap","updatedAt":"2026-06-11T02:40:46.199Z","facilityType":"clinic","facilityLabel":"🩺 診所","changingTable":false,"wheelchair":false,"needsAddr":false},{"id":3499223367,"name":"易和中醫診所","lat":22.9856959,"lng":120.218759,"address":"台南市東區府東街63號","hasBabyChanging":false,"hasAccessible":false,"source":"OpenStreetMap","updatedAt":"2026-06-11T02:40:46.199Z","facilityType":"clinic","facilityLabel":"🩺 診所","changingTable":false,"wheelchair":false,"needsAddr":false},{"id":3499225741,"name":"仁安內科中醫診所","lat":22.9906332,"lng":120.2266332,"address":"台南市東區東寧路235號","hasBabyChanging":false,"hasAccessible":false,"source":"OpenStreetMap","updatedAt":"2026-06-11T02:40:46.199Z","facilityType":"clinic","facilityLabel":"🩺 診所","changingTable":false,"wheelchair":false,"openingHours":"Mo-Fr 09:00-12:00, 15:00-22:00; Sa 09:00-12:00, 15:00-18:00","needsAddr":false},{"id":3499226638,"name":"詮諒中醫診所","lat":22.9700585,"lng":120.2350481,"address":"台南市東區和平里仁和路33號1樓","hasBabyChanging":false,"hasAccessible":false,"source":"OpenStreetMap","updatedAt":"2026-06-11T02:40:46.199Z","facilityType":"clinic","facilityLabel":"🩺 診所","changingTable":false,"wheelchair":false,"needsAddr":false},{"id":3499233104,"name":"太乙中醫診所","lat":22.9813966,"lng":120.2244019,"address":"台南市東區崇學路237號","hasBabyChanging":false,"hasAccessible":false,"source":"OpenStreetMap","updatedAt":"2026-06-11T02:40:46.199Z","facilityType":"clinic","facilityLabel":"🩺 診所","changingTable":false,"wheelchair":false,"needsAddr":false},{"id":3499233951,"name":"道元內婦科中醫診所","lat":22.9735219,"lng":120.2148237,"address":"台南市東區大同路二段343號","hasBabyChanging":false,"hasAccessible":false,"source":"OpenStreetMap","updatedAt":"2026-06-11T02:40:46.199Z","facilityType":"clinic","facilityLabel":"🩺 診所","changingTable":false,"wheelchair":false,"needsAddr":false},{"id":3499234597,"name":"趙眼科診所","lat":22.9863265,"lng":120.2185488,"address":"台南市東區東門路一段340號","hasBabyChanging":false,"hasAccessible":false,"source":"OpenStreetMap","updatedAt":"2026-06-11T02:40:46.199Z","facilityType":"clinic","facilityLabel":"🩺 診所","changingTable":false,"wheelchair":false,"needsAddr":false},{"id":3499235382,"name":"育德中醫診所","lat":22.9597226,"lng":120.2288182,"address":"台南市東區崇德三十四街30號","hasBabyChanging":false,"hasAccessible":false,"source":"OpenStreetMap","updatedAt":"2026-06-11T02:40:46.199Z","facilityType":"clinic","facilityLabel":"🩺 診所","changingTable":false,"wheelchair":false,"needsAddr":false},{"id":3499236863,"name":"天仁中醫診所","lat":22.9827591,"lng":120.2350501,"address":"台南市東區富農街一段230號","hasBabyChanging":false,"hasAccessible":false,"source":"OpenStreetMap","updatedAt":"2026-06-11T02:40:46.199Z","facilityType":"clinic","facilityLabel":"🩺 診所","changingTable":false,"wheelchair":false,"needsAddr":false},{"id":3499237436,"name":"李榮貴中醫診所","lat":22.9857739,"lng":120.2227535,"address":"台南市東區林森路二段12號","hasBabyChanging":false,"hasAccessible":false,"source":"OpenStreetMap","updatedAt":"2026-06-11T02:40:46.199Z","facilityType":"clinic","facilityLabel":"🩺 診所","changingTable":false,"wheelchair":false,"needsAddr":false},{"id":3499242798,"name":"洪慶喜中醫診所","lat":22.9799926,"lng":120.2187464,"address":"台南市東區崇德路110號","hasBabyChanging":false,"hasAccessible":false,"source":"OpenStreetMap","updatedAt":"2026-06-11T02:40:46.199Z","facilityType":"clinic","facilityLabel":"🩺 診所","changingTable":false,"wheelchair":false,"needsAddr":false},{"id":3499248081,"name":"鴻安中醫診所","lat":22.9813652,"lng":120.2298095,"address":"台南市東區中華東路二段347號","hasBabyChanging":false,"hasAccessible":false,"source":"OpenStreetMap","updatedAt":"2026-06-11T02:40:46.199Z","facilityType":"clinic","facilityLabel":"🩺 診所","changingTable":false,"wheelchair":false,"needsAddr":false},{"id":3499256167,"name":"上和診所","lat":22.9711617,"lng":120.2152909,"address":"701台南市東區大同路二段93號","hasBabyChanging":false,"hasAccessible":false,"source":"OpenStreetMap","updatedAt":"2026-06-11T02:40:46.199Z","facilityType":"clinic","facilityLabel":"🩺 診所","changingTable":false,"wheelchair":false,"needsAddr":false},{"id":3499256593,"name":"吳志宏中醫診所","lat":22.9865753,"lng":120.2202109,"address":"台南市東區東門路二段43巷15號","hasBabyChanging":false,"hasAccessible":false,"source":"OpenStreetMap","updatedAt":"2026-06-11T02:40:46.199Z","facilityType":"clinic","facilityLabel":"🩺 診所","changingTable":false,"wheelchair":false,"needsAddr":false},{"id":3499261487,"name":"陳秀琴眼科診所","lat":22.9942606,"lng":120.2268434,"address":"臺南市東區東安路146號之1","hasBabyChanging":false,"hasAccessible":false,"source":"OpenStreetMap","updatedAt":"2026-06-11T02:40:46.199Z","facilityType":"clinic","facilityLabel":"🩺 診所","changingTable":false,"wheelchair":false,"needsAddr":false},{"id":3499261488,"name":"張明木眼科診所","lat":22.9826026,"lng":120.2273078,"address":"台南市東區東門路二段372號","hasBabyChanging":false,"hasAccessible":false,"source":"OpenStreetMap","updatedAt":"2026-06-11T02:40:46.199Z","facilityType":"clinic","facilityLabel":"🩺 診所","changingTable":false,"wheelchair":false,"needsAddr":false},{"id":3499262010,"name":"愛爾麗診所","lat":22.9915835,"lng":120.212978,"address":"701台南市東區青年路261號","hasBabyChanging":false,"hasAccessible":false,"source":"OpenStreetMap","updatedAt":"2026-06-11T02:40:46.199Z","facilityType":"clinic","facilityLabel":"🩺 診所","changingTable":false,"wheelchair":false,"needsAddr":false},{"id":3499262042,"name":"馮榮陞中醫診所","lat":22.987259,"lng":120.2240383,"address":"台南市東區衛國街112巷10號","hasBabyChanging":false,"hasAccessible":false,"source":"OpenStreetMap","updatedAt":"2026-06-11T02:40:46.199Z","facilityType":"clinic","facilityLabel":"🩺 診所","changingTable":false,"wheelchair":false,"needsAddr":false},{"id":3499264571,"name":"信合美眼科診所","lat":22.9850904,"lng":120.2213414,"address":"台南市東區林森路一段379號","hasBabyChanging":false,"hasAccessible":false,"source":"OpenStreetMap","updatedAt":"2026-06-11T02:40:46.199Z","facilityType":"clinic","facilityLabel":"🩺 診所","changingTable":false,"wheelchair":false,"needsAddr":false},{"id":3499265420,"name":"奇德中醫診所","lat":22.9710784,"lng":120.2276861,"address":"台南市東區崇德路633號","hasBabyChanging":false,"hasAccessible":false,"source":"OpenStreetMap","updatedAt":"2026-06-11T02:40:46.199Z","facilityType":"clinic","facilityLabel":"🩺 診所","changingTable":false,"wheelchair":false,"needsAddr":false},{"id":3499266203,"name":"明清眼科診所","lat":22.981305,"lng":120.229916,"address":"台南市東區中華東路二段343號","hasBabyChanging":false,"hasAccessible":false,"source":"OpenStreetMap","updatedAt":"2026-06-11T02:40:46.199Z","facilityType":"clinic","facilityLabel":"🩺 診所","changingTable":false,"wheelchair":false,"needsAddr":false},{"id":3499269037,"name":"莊惠君中醫診所","lat":22.9949169,"lng":120.2317481,"address":"701台南市東區東平路71號","hasBabyChanging":false,"hasAccessible":false,"source":"OpenStreetMap","updatedAt":"2026-06-11T02:40:46.199Z","facilityType":"clinic","facilityLabel":"🩺 診所","changingTable":false,"wheelchair":false,"needsAddr":false},{"id":3499271512,"name":"陳皇志中醫診所","lat":22.9798072,"lng":120.2177762,"address":"台南市東區崇明路111號","hasBabyChanging":false,"hasAccessible":false,"source":"OpenStreetMap","updatedAt":"2026-06-11T02:40:46.199Z","facilityType":"clinic","facilityLabel":"🩺 診所","changingTable":false,"wheelchair":false,"needsAddr":false},{"id":3499272448,"name":"新善中醫診所","lat":22.9616978,"lng":120.2363709,"address":"台南市東區崇善路908號","hasBabyChanging":false,"hasAccessible":false,"source":"OpenStreetMap","updatedAt":"2026-06-11T02:40:46.199Z","facilityType":"clinic","facilityLabel":"🩺 診所","changingTable":false,"wheelchair":false,"needsAddr":false},{"id":3499273456,"name":"博安中醫診所","lat":22.9860068,"lng":120.2334514,"address":"台南市東區中華東路二段105號","hasBabyChanging":false,"hasAccessible":false,"source":"OpenStreetMap","updatedAt":"2026-06-11T02:40:46.199Z","facilityType":"clinic","facilityLabel":"🩺 診所","changingTable":false,"wheelchair":false,"needsAddr":false},{"id":3499274634,"name":"王孟文眼科診所","lat":22.9776743,"lng":120.219625,"address":"台南市東區祟明路298號","hasBabyChanging":false,"hasAccessible":false,"source":"OpenStreetMap","updatedAt":"2026-06-11T02:40:46.199Z","facilityType":"clinic","facilityLabel":"🩺 診所","changingTable":false,"wheelchair":false,"needsAddr":false},{"id":3499281148,"name":"執善中醫診所","lat":22.9734689,"lng":120.2294901,"address":"台南市東區崇善路539號1-1樓","hasBabyChanging":false,"hasAccessible":false,"source":"OpenStreetMap","updatedAt":"2026-06-11T02:40:46.199Z","facilityType":"clinic","facilityLabel":"🩺 診所","changingTable":false,"wheelchair":false,"needsAddr":false},{"id":3499289925,"name":"陳眼科耳鼻喉科診所","lat":22.9864353,"lng":120.2197716,"address":"臺南市東區東門路二段37號","hasBabyChanging":false,"hasAccessible":false,"source":"OpenStreetMap","updatedAt":"2026-06-11T02:40:46.199Z","facilityType":"clinic","facilityLabel":"🩺 診所","changingTable":false,"wheelchair":false,"needsAddr":false},{"id":3499289926,"name":"陳煌奇耳鼻喉科診所","lat":22.9824172,"lng":120.2254642,"address":"701臺南市東區崇學路271號之4","hasBabyChanging":false,"hasAccessible":false,"source":"OpenStreetMap","updatedAt":"2026-06-11T02:40:46.199Z","facilityType":"clinic","facilityLabel":"🩺 診所","changingTable":false,"wheelchair":false,"needsAddr":false},{"id":3499289927,"name":"林翰卿耳鼻喉科診所","lat":22.9789464,"lng":120.222705,"address":"台南市東區崇學路90號","hasBabyChanging":false,"hasAccessible":false,"source":"OpenStreetMap","updatedAt":"2026-06-11T02:40:46.199Z","facilityType":"clinic","facilityLabel":"🩺 診所","changingTable":false,"wheelchair":false,"needsAddr":false},{"id":3499289928,"name":"黃智毅耳鼻喉科診所","lat":22.979829,"lng":120.2230094,"address":"台南市東區德光里崇學路149之1號","hasBabyChanging":false,"hasAccessible":false,"source":"OpenStreetMap","updatedAt":"2026-06-11T02:40:46.199Z","facilityType":"clinic","facilityLabel":"🩺 診所","changingTable":false,"wheelchair":false,"needsAddr":false},{"id":3499293119,"name":"德根中醫診所","lat":22.9946147,"lng":120.2206765,"address":"台南市東區大學路18巷18號","hasBabyChanging":false,"hasAccessible":false,"source":"OpenStreetMap","updatedAt":"2026-06-11T02:40:46.199Z","facilityType":"clinic","facilityLabel":"🩺 診所","changingTable":false,"wheelchair":false,"needsAddr":false},{"id":3499293631,"name":"王睿宏中醫診所","lat":22.989612,"lng":120.2201792,"address":"台南市東區長榮路二段162號一樓","hasBabyChanging":false,"hasAccessible":false,"source":"OpenStreetMap","updatedAt":"2026-06-11T02:40:46.199Z","facilityType":"clinic","facilityLabel":"🩺 診所","changingTable":false,"wheelchair":false,"needsAddr":false},{"id":3499296681,"name":"陳勃旭耳鼻喉科診所","lat":22.9737303,"lng":120.2292468,"address":"701台南市東區崇善路438號","hasBabyChanging":false,"hasAccessible":false,"source":"OpenStreetMap","updatedAt":"2026-06-11T02:40:46.199Z","facilityType":"clinic","facilityLabel":"🩺 診所","changingTable":false,"wheelchair":false,"needsAddr":false},{"id":3499296882,"name":"芊喜中醫診所","lat":22.9789536,"lng":120.2255891,"address":"臺南市東區崇善路233-3號1樓","hasBabyChanging":false,"hasAccessible":false,"source":"OpenStreetMap","updatedAt":"2026-06-11T02:40:46.199Z","facilityType":"clinic","facilityLabel":"🩺 診所","changingTable":false,"wheelchair":false,"needsAddr":false},{"id":3499299338,"name":"蕭耳鼻喉科診所","lat":22.9853262,"lng":120.2251028,"address":"台南市東區裕農路27-13號1樓","hasBabyChanging":false,"hasAccessible":false,"source":"OpenStreetMap","updatedAt":"2026-06-11T02:40:46.199Z","facilityType":"clinic","facilityLabel":"🩺 診所","changingTable":false,"wheelchair":false,"needsAddr":false},{"id":3499299974,"name":"吳建民耳鼻喉科診所","lat":22.9757893,"lng":120.2220602,"address":"台南市東區崇明路343號1樓","hasBabyChanging":false,"hasAccessible":false,"source":"OpenStreetMap","updatedAt":"2026-06-11T02:40:46.199Z","facilityType":"clinic","facilityLabel":"🩺 診所","changingTable":false,"wheelchair":false,"needsAddr":false},{"id":3499300328,"name":"杜侑原耳鼻喉科診所","lat":22.9699948,"lng":120.2309074,"address":"台南市東區崇善路685號1樓","hasBabyChanging":false,"hasAccessible":false,"source":"OpenStreetMap","updatedAt":"2026-06-11T02:40:46.199Z","facilityType":"clinic","facilityLabel":"🩺 診所","changingTable":false,"wheelchair":false,"needsAddr":false},{"id":3499303148,"name":"郭碩宗耳鼻喉科診所","lat":22.9727823,"lng":120.2275885,"address":"台南市東區崇德路561號1樓","hasBabyChanging":false,"hasAccessible":false,"source":"OpenStreetMap","updatedAt":"2026-06-11T02:40:46.199Z","facilityType":"clinic","facilityLabel":"🩺 診所","changingTable":false,"wheelchair":false,"needsAddr":false},{"id":3499309897,"name":"大河馬耳鼻喉科診所","lat":22.9908232,"lng":120.2250397,"address":"701臺南市東區東寧路230號一樓","hasBabyChanging":false,"hasAccessible":false,"source":"OpenStreetMap","updatedAt":"2026-06-11T02:40:46.199Z","facilityType":"clinic","facilityLabel":"🩺 診所","changingTable":false,"wheelchair":false,"needsAddr":false},{"id":3549113493,"name":"台南市文化中心","lat":22.9745075,"lng":120.221554,"address":"臺南市東區中華東路三段332號","hasBabyChanging":false,"hasAccessible":false,"source":"OpenStreetMap","updatedAt":"2026-06-11T02:40:46.199Z","facilityType":"arts","facilityLabel":"🎭 藝文場館","changingTable":false,"wheelchair":false,"needsAddr":false},{"id":3574842097,"name":"藝文書車","lat":22.9953292,"lng":120.2252317,"address":null,"hasBabyChanging":false,"hasAccessible":false,"source":"OpenStreetMap","updatedAt":"2026-06-11T02:40:46.199Z","facilityType":"library","facilityLabel":"📚 圖書館","changingTable":false,"wheelchair":false,"needsAddr":false},{"id":3822795695,"name":"高堂中醫","lat":22.9789036,"lng":120.2133978,"address":null,"hasBabyChanging":false,"hasAccessible":false,"source":"OpenStreetMap","updatedAt":"2026-06-11T02:40:46.199Z","facilityType":"clinic","facilityLabel":"🩺 診所","changingTable":false,"wheelchair":false,"needsAddr":false},{"id":3826405496,"name":"玉窩堂","lat":22.9772518,"lng":120.2144007,"address":"臺南市東區立德八路3巷36號","hasBabyChanging":false,"hasAccessible":false,"source":"OpenStreetMap","updatedAt":"2026-06-11T02:40:46.199Z","facilityType":"temple","facilityLabel":"🛕 廟宇","changingTable":false,"wheelchair":false,"needsAddr":false},{"id":3993609686,"name":"臺南市東區中西東安聯合社區活動中心","lat":22.987584,"lng":120.219013,"address":"臺南市東區長榮路二段17號","hasBabyChanging":false,"hasAccessible":false,"source":"OpenStreetMap","updatedAt":"2026-06-11T02:40:46.199Z","facilityType":"community","facilityLabel":"🏘️ 活動中心","changingTable":false,"wheelchair":false,"needsAddr":false},{"id":3993609687,"name":"臺南市東區仁和社區活動中心","lat":22.972458,"lng":120.2332314,"address":"臺南市東區仁和路133巷39號","hasBabyChanging":false,"hasAccessible":false,"source":"OpenStreetMap","updatedAt":"2026-06-11T02:40:46.199Z","facilityType":"community","facilityLabel":"🏘️ 活動中心","changingTable":false,"wheelchair":false,"needsAddr":false},{"id":3993609689,"name":"臺南市東區大德里活動中心","lat":22.977,"lng":120.2148,"address":"臺南市東區立德十路30巷51號","hasBabyChanging":false,"hasAccessible":false,"source":"OpenStreetMap","updatedAt":"2026-06-11T02:40:46.199Z","facilityType":"community","facilityLabel":"🏘️ 活動中心","changingTable":false,"wheelchair":false,"needsAddr":false},{"id":3993609692,"name":"臺南市東區小東社區活動中心","lat":23.0001,"lng":120.2264,"address":"臺南市東區小東路198巷24弄52號","hasBabyChanging":false,"hasAccessible":false,"source":"OpenStreetMap","updatedAt":"2026-06-11T02:40:46.199Z","facilityType":"community","facilityLabel":"🏘️ 活動中心","changingTable":false,"wheelchair":false,"needsAddr":false},{"id":3993609693,"name":"臺南市東區崇明里活動中心","lat":22.9723,"lng":120.2151,"address":"臺南市東區中華東路三段569號","hasBabyChanging":false,"hasAccessible":false,"source":"OpenStreetMap","updatedAt":"2026-06-11T02:40:46.199Z","facilityType":"community","facilityLabel":"🏘️ 活動中心","changingTable":false,"wheelchair":false,"needsAddr":false},{"id":3993609694,"name":"臺南市東區崇誨里活動中心","lat":22.9898,"lng":120.2247,"address":"臺南市東區林森路二段192巷15號","hasBabyChanging":false,"hasAccessible":false,"source":"OpenStreetMap","updatedAt":"2026-06-11T02:40:46.199Z","facilityType":"community","facilityLabel":"🏘️ 活動中心","changingTable":false,"wheelchair":false,"needsAddr":false},{"id":3993609695,"name":"臺南市東區德高里活動中心","lat":22.9687,"lng":120.2345,"address":"臺南市東區仁和路196號","hasBabyChanging":false,"hasAccessible":false,"source":"OpenStreetMap","updatedAt":"2026-06-11T02:40:46.199Z","facilityType":"community","facilityLabel":"🏘️ 活動中心","changingTable":false,"wheelchair":false,"needsAddr":false},{"id":3993609696,"name":"臺南市東區忠孝里活動中心","lat":22.973146,"lng":120.2182156,"address":"臺南市東區中華東路三段498號","hasBabyChanging":false,"hasAccessible":false,"source":"OpenStreetMap","updatedAt":"2026-06-11T02:40:46.199Z","facilityType":"community","facilityLabel":"🏘️ 活動中心","changingTable":false,"wheelchair":false,"needsAddr":false},{"id":364739286,"name":"臺南市東區衛生所","lat":22.9848961,"lng":120.2220013,"address":"臺南市","hasBabyChanging":false,"hasAccessible":false,"source":"OpenStreetMap","updatedAt":"2026-06-11T02:40:46.199Z","facilityType":"clinic","facilityLabel":"🩺 診所","changingTable":false,"wheelchair":false,"needsAddr":false},{"id":3993609698,"name":"臺南市東區東光社區活動中心","lat":22.9905579,"lng":120.2307325,"address":"臺南市東區東光路一段39-1號","hasBabyChanging":false,"hasAccessible":false,"source":"OpenStreetMap","updatedAt":"2026-06-11T02:40:46.199Z","facilityType":"community","facilityLabel":"🏘️ 活動中心","changingTable":false,"wheelchair":false,"needsAddr":false},{"id":3993609699,"name":"臺南市東區東聖里活動中心","lat":22.9858,"lng":120.2349,"address":"臺南市東區中華東路二段133巷57弄34號","hasBabyChanging":false,"hasAccessible":false,"source":"OpenStreetMap","updatedAt":"2026-06-11T02:40:46.199Z","facilityType":"community","facilityLabel":"🏘️ 活動中心","changingTable":false,"wheelchair":false,"needsAddr":false},{"id":3993609700,"name":"臺南市東區泉南里活動中心","lat":22.9847,"lng":120.2155,"address":"臺南市東區府連路326巷2號","hasBabyChanging":false,"hasAccessible":false,"source":"OpenStreetMap","updatedAt":"2026-06-11T02:40:46.199Z","facilityType":"community","facilityLabel":"🏘️ 活動中心","changingTable":false,"wheelchair":false,"needsAddr":false},{"id":3993609704,"name":"臺南市東區裕農里活動中心","lat":22.9876,"lng":120.2304,"address":"臺南市東區裕農路379號","hasBabyChanging":false,"hasAccessible":false,"source":"OpenStreetMap","updatedAt":"2026-06-11T02:40:46.199Z","facilityType":"community","facilityLabel":"🏘️ 活動中心","changingTable":false,"wheelchair":false,"needsAddr":false},{"id":3993609705,"name":"臺南市東區路東里活動中心","lat":22.9797,"lng":120.2134,"address":"臺南市東區大同路二段61巷5號","hasBabyChanging":false,"hasAccessible":false,"source":"OpenStreetMap","updatedAt":"2026-06-11T02:40:46.199Z","facilityType":"community","facilityLabel":"🏘️ 活動中心","changingTable":false,"wheelchair":false,"needsAddr":false},{"id":4432554939,"name":"林森圖書館","lat":22.9867525,"lng":120.2231251,"address":null,"hasBabyChanging":false,"hasAccessible":false,"source":"OpenStreetMap","updatedAt":"2026-06-11T02:40:46.199Z","facilityType":"library","facilityLabel":"📚 圖書館","changingTable":false,"wheelchair":false,"needsAddr":false},{"id":4552132966,"name":"世界之光聖教會","lat":22.9993363,"lng":120.2289349,"address":null,"hasBabyChanging":false,"hasAccessible":false,"source":"OpenStreetMap","updatedAt":"2026-06-11T02:40:46.199Z","facilityType":"temple","facilityLabel":"🛕 廟宇","changingTable":false,"wheelchair":false,"needsAddr":false},{"id":4580663191,"name":"台灣中油 中華路東站","lat":22.977083,"lng":120.2262472,"address":"701臺南市東區中華東路三段171號","hasBabyChanging":false,"hasAccessible":false,"source":"OpenStreetMap","updatedAt":"2026-06-11T02:40:46.199Z","facilityType":"fuel","facilityLabel":"⛽ 加油站","changingTable":false,"wheelchair":false,"openingHours":"Mo-Su 07:00-21:00","needsAddr":false},{"id":4580663291,"name":"寶雅","lat":22.9744228,"lng":120.223718,"address":null,"hasBabyChanging":false,"hasAccessible":false,"source":"OpenStreetMap","updatedAt":"2026-06-11T02:40:46.199Z","facilityType":"poya","facilityLabel":"💄 寶雅","changingTable":false,"wheelchair":false,"needsAddr":false},{"id":4678210890,"name":"仁愛醫院","lat":22.9897693,"lng":120.2115865,"address":"臺南市東區北門路一段10號","hasBabyChanging":false,"hasAccessible":false,"source":"OpenStreetMap","updatedAt":"2026-06-11T02:40:46.199Z","facilityType":"hospital","facilityLabel":"🏥 醫院","changingTable":false,"wheelchair":false,"needsAddr":false},{"id":4789974151,"name":"公共廁所","lat":22.9976372,"lng":120.2128832,"address":null,"hasBabyChanging":false,"hasAccessible":false,"source":"OpenStreetMap","updatedAt":"2026-06-11T02:40:46.199Z","facilityType":"toilet","facilityLabel":null,"changingTable":false,"wheelchair":false,"fee":"no","needsAddr":true},{"id":4846767036,"name":"廣龍宮","lat":22.980837,"lng":120.2319276,"address":"701台南市東區東門路三段37巷12弄3號","hasBabyChanging":false,"hasAccessible":false,"source":"OpenStreetMap","updatedAt":"2026-06-11T02:40:46.199Z","facilityType":"temple","facilityLabel":"🛕 廟宇","changingTable":false,"wheelchair":false,"needsAddr":false},{"id":4854532418,"name":"愛欣動物醫院","lat":22.9810353,"lng":120.2297288,"address":null,"hasBabyChanging":false,"hasAccessible":false,"source":"OpenStreetMap","updatedAt":"2026-06-11T02:40:46.199Z","facilityType":"vet","facilityLabel":"🐾 獸醫院","changingTable":false,"wheelchair":false,"needsAddr":false},{"id":4854548197,"name":"曾立榮腸胃肝膽內科專科診所","lat":22.9814006,"lng":120.2298348,"address":null,"hasBabyChanging":false,"hasAccessible":false,"source":"OpenStreetMap","updatedAt":"2026-06-11T02:40:46.199Z","facilityType":"clinic","facilityLabel":"🩺 診所","changingTable":false,"wheelchair":false,"needsAddr":false},{"id":4854549198,"name":"國光眼科","lat":22.9814911,"lng":120.229924,"address":null,"hasBabyChanging":false,"hasAccessible":false,"source":"OpenStreetMap","updatedAt":"2026-06-11T02:40:46.199Z","facilityType":"clinic","facilityLabel":"🩺 診所","changingTable":false,"wheelchair":false,"needsAddr":false},{"id":4854672165,"name":"東仁診所","lat":22.9822701,"lng":120.2305803,"address":null,"hasBabyChanging":false,"hasAccessible":false,"source":"OpenStreetMap","updatedAt":"2026-06-11T02:40:46.199Z","facilityType":"clinic","facilityLabel":"🩺 診所","changingTable":false,"wheelchair":false,"needsAddr":false},{"id":4855939677,"name":"富強教會-行政中心","lat":22.9810588,"lng":120.2301744,"address":"701台南市東區東門路三段13號","hasBabyChanging":false,"hasAccessible":false,"source":"OpenStreetMap","updatedAt":"2026-06-11T02:40:46.199Z","facilityType":"temple","facilityLabel":"🛕 廟宇","changingTable":false,"wheelchair":false,"needsAddr":false},{"id":4897987751,"name":"公共廁所","lat":22.9924517,"lng":120.2134337,"address":null,"hasBabyChanging":false,"hasAccessible":false,"source":"OpenStreetMap","updatedAt":"2026-06-11T02:40:46.199Z","facilityType":"toilet","facilityLabel":null,"changingTable":false,"wheelchair":false,"needsAddr":true},{"id":4912094847,"name":"台南人劇團","lat":22.9920912,"lng":120.2174047,"address":null,"hasBabyChanging":false,"hasAccessible":false,"source":"OpenStreetMap","updatedAt":"2026-06-11T02:40:46.199Z","facilityType":"arts","facilityLabel":"🎭 藝文場館","changingTable":false,"wheelchair":false,"needsAddr":false},{"id":4912094848,"name":"天主教台南教區耶穌聖心堂","lat":22.9915943,"lng":120.217617,"address":"70146台南市東區勝利路85號","hasBabyChanging":false,"hasAccessible":false,"source":"OpenStreetMap","updatedAt":"2026-06-11T02:40:46.199Z","facilityType":"temple","facilityLabel":"🛕 廟宇","changingTable":false,"wheelchair":false,"needsAddr":false},{"id":4912094854,"name":"勝利補習班","lat":22.9919055,"lng":120.2178963,"address":null,"hasBabyChanging":false,"hasAccessible":false,"source":"OpenStreetMap","updatedAt":"2026-06-11T02:40:46.199Z","facilityType":"university","facilityLabel":"🎓 大專院校","changingTable":false,"wheelchair":false,"needsAddr":false},{"id":4912094863,"name":"楊立晟物理治療所","lat":22.9912145,"lng":120.2178392,"address":null,"hasBabyChanging":false,"hasAccessible":false,"source":"OpenStreetMap","updatedAt":"2026-06-11T02:40:46.199Z","facilityType":"clinic","facilityLabel":"🩺 診所","changingTable":false,"wheelchair":false,"needsAddr":false},{"id":4989013021,"name":"公共廁所","lat":22.9833591,"lng":120.2189746,"address":null,"hasBabyChanging":false,"hasAccessible":false,"source":"OpenStreetMap","updatedAt":"2026-06-11T02:40:46.199Z","facilityType":"toilet","facilityLabel":null,"changingTable":false,"wheelchair":false,"fee":"no","needsAddr":true},{"id":5611064040,"name":"公共廁所","lat":22.9971126,"lng":120.2213009,"address":null,"hasBabyChanging":false,"hasAccessible":false,"source":"OpenStreetMap","updatedAt":"2026-06-11T02:40:46.199Z","facilityType":"toilet","facilityLabel":null,"changingTable":false,"wheelchair":false,"fee":"no","needsAddr":true},{"id":5611064041,"name":"公共廁所","lat":22.9992316,"lng":120.2213475,"address":null,"hasBabyChanging":false,"hasAccessible":false,"source":"OpenStreetMap","updatedAt":"2026-06-11T02:40:46.199Z","facilityType":"toilet","facilityLabel":null,"changingTable":false,"wheelchair":false,"needsAddr":true},{"id":5611064042,"name":"公共廁所","lat":23.0001177,"lng":120.2199318,"address":null,"hasBabyChanging":false,"hasAccessible":false,"source":"OpenStreetMap","updatedAt":"2026-06-11T02:40:46.199Z","facilityType":"toilet","facilityLabel":null,"changingTable":false,"wheelchair":false,"needsAddr":true},{"id":5611064044,"name":"公共廁所","lat":22.9986484,"lng":120.2199212,"address":null,"hasBabyChanging":false,"hasAccessible":false,"source":"OpenStreetMap","updatedAt":"2026-06-11T02:40:46.199Z","facilityType":"toilet","facilityLabel":null,"changingTable":false,"wheelchair":false,"fee":"no","needsAddr":true},{"id":5611064046,"name":"公共廁所","lat":22.9982167,"lng":120.2185887,"address":null,"hasBabyChanging":false,"hasAccessible":false,"source":"OpenStreetMap","updatedAt":"2026-06-11T02:40:46.199Z","facilityType":"toilet","facilityLabel":null,"changingTable":false,"wheelchair":false,"needsAddr":true},{"id":5611064047,"name":"公共廁所","lat":22.9970064,"lng":120.2187816,"address":null,"hasBabyChanging":false,"hasAccessible":false,"source":"OpenStreetMap","updatedAt":"2026-06-11T02:40:46.199Z","facilityType":"toilet","facilityLabel":null,"changingTable":false,"wheelchair":false,"needsAddr":true},{"id":5611064048,"name":"公共廁所","lat":22.993781,"lng":120.2191143,"address":null,"hasBabyChanging":false,"hasAccessible":false,"source":"OpenStreetMap","updatedAt":"2026-06-11T02:40:46.199Z","facilityType":"toilet","facilityLabel":null,"changingTable":false,"wheelchair":false,"needsAddr":true},{"id":5611064049,"name":"公共廁所","lat":22.9966041,"lng":120.2176101,"address":null,"hasBabyChanging":false,"hasAccessible":false,"source":"OpenStreetMap","updatedAt":"2026-06-11T02:40:46.199Z","facilityType":"toilet","facilityLabel":null,"changingTable":false,"wheelchair":false,"fee":"no","needsAddr":true},{"id":5611064055,"name":"公共廁所","lat":22.9991061,"lng":120.2157078,"address":null,"hasBabyChanging":false,"hasAccessible":false,"source":"OpenStreetMap","updatedAt":"2026-06-11T02:40:46.199Z","facilityType":"toilet","facilityLabel":null,"changingTable":false,"wheelchair":false,"needsAddr":true},{"id":5611064059,"name":"公共廁所","lat":22.9990019,"lng":120.2147097,"address":null,"hasBabyChanging":false,"hasAccessible":false,"source":"OpenStreetMap","updatedAt":"2026-06-11T02:40:46.199Z","facilityType":"toilet","facilityLabel":null,"changingTable":false,"wheelchair":false,"needsAddr":true},{"id":5611104428,"name":"中美獸醫院","lat":22.9850318,"lng":120.2153232,"address":null,"hasBabyChanging":false,"hasAccessible":false,"source":"OpenStreetMap","updatedAt":"2026-06-11T02:40:46.199Z","facilityType":"vet","facilityLabel":"🐾 獸醫院","changingTable":false,"wheelchair":false,"needsAddr":false},{"id":5698243683,"name":"合聖宮","lat":22.9840156,"lng":120.2126504,"address":null,"hasBabyChanging":false,"hasAccessible":false,"source":"OpenStreetMap","updatedAt":"2026-06-11T02:40:46.199Z","facilityType":"temple","facilityLabel":"🛕 廟宇","changingTable":false,"wheelchair":false,"needsAddr":false},{"id":6110231698,"name":"公共廁所","lat":22.9981872,"lng":120.2247107,"address":null,"hasBabyChanging":false,"hasAccessible":false,"source":"OpenStreetMap","updatedAt":"2026-06-11T02:40:46.199Z","facilityType":"toilet","facilityLabel":null,"changingTable":false,"wheelchair":false,"fee":"no","needsAddr":true},{"id":6115037837,"name":"穆斯林祈禱室","lat":22.9946117,"lng":120.2190049,"address":"台南市東區","hasBabyChanging":false,"hasAccessible":false,"source":"OpenStreetMap","updatedAt":"2026-06-11T02:40:46.199Z","facilityType":"temple","facilityLabel":"🛕 廟宇","changingTable":false,"wheelchair":false,"needsAddr":false},{"id":6470893673,"name":"派出所","lat":22.9962024,"lng":120.2125936,"address":null,"hasBabyChanging":false,"hasAccessible":false,"source":"OpenStreetMap","updatedAt":"2026-06-11T02:40:46.199Z","facilityType":"police","facilityLabel":"🚔 派出所","changingTable":false,"wheelchair":false,"needsAddr":true},{"id":6698570117,"name":"空中大學台南中心","lat":23.0002947,"lng":120.2152605,"address":null,"hasBabyChanging":false,"hasAccessible":false,"source":"OpenStreetMap","updatedAt":"2026-06-11T02:40:46.199Z","facilityType":"university","facilityLabel":"🎓 大專院校","changingTable":false,"wheelchair":false,"needsAddr":false},{"id":6843937068,"name":"麥當勞","lat":22.9898163,"lng":120.2424559,"address":null,"hasBabyChanging":false,"hasAccessible":false,"source":"OpenStreetMap","updatedAt":"2026-06-11T02:40:46.199Z","facilityType":"mcdonalds","facilityLabel":"🍔 麥當勞","changingTable":false,"wheelchair":false,"needsAddr":true},{"id":7410948504,"name":"台灣中油 生產路站","lat":22.9642238,"lng":120.2168415,"address":"701台南市東區大同路二段869號","hasBabyChanging":false,"hasAccessible":false,"source":"OpenStreetMap","updatedAt":"2026-06-11T02:40:46.199Z","facilityType":"fuel","facilityLabel":"⛽ 加油站","changingTable":false,"wheelchair":false,"openingHours":"Mo-Su 07:00-21:00","needsAddr":false},{"id":7410948506,"name":"台灣中油崇善路站","lat":22.9730623,"lng":120.2297699,"address":"701台南市東區崇善路557號","hasBabyChanging":false,"hasAccessible":false,"source":"OpenStreetMap","updatedAt":"2026-06-11T02:40:46.199Z","facilityType":"fuel","facilityLabel":"⛽ 加油站","changingTable":false,"wheelchair":false,"openingHours":"Mo-Su 07:00-22:00","needsAddr":false},{"id":7633728285,"name":"台糖黑版樹林","lat":22.9677147,"lng":120.222025,"address":null,"hasBabyChanging":false,"hasAccessible":false,"source":"OpenStreetMap","updatedAt":"2026-06-11T02:40:46.199Z","facilityType":"attraction","facilityLabel":"🏞️ 景點","changingTable":false,"wheelchair":false,"needsAddr":false},{"id":8557735170,"name":"天主教台南青年中心","lat":22.994319,"lng":120.2210602,"address":"701臺南市東區大學路18巷23號","hasBabyChanging":false,"hasAccessible":false,"source":"OpenStreetMap","updatedAt":"2026-06-11T02:40:46.199Z","facilityType":"temple","facilityLabel":"🛕 廟宇","changingTable":false,"wheelchair":false,"needsAddr":false},{"id":8557735171,"name":"巴哈伊中心","lat":22.9940974,"lng":120.2208296,"address":null,"hasBabyChanging":false,"hasAccessible":false,"source":"OpenStreetMap","updatedAt":"2026-06-11T02:40:46.199Z","facilityType":"temple","facilityLabel":"🛕 廟宇","changingTable":false,"wheelchair":false,"needsAddr":false},{"id":9017858685,"name":"公共廁所","lat":22.9943786,"lng":120.2361578,"address":null,"hasBabyChanging":false,"hasAccessible":true,"source":"OpenStreetMap","updatedAt":"2026-06-11T02:40:46.199Z","facilityType":"toilet","facilityLabel":null,"changingTable":false,"wheelchair":true,"fee":"no","openingHours":"24/7","needsAddr":true},{"id":9662103397,"name":"聖堂","lat":22.9793754,"lng":120.2216844,"address":null,"hasBabyChanging":false,"hasAccessible":false,"source":"OpenStreetMap","updatedAt":"2026-06-11T02:40:46.199Z","facilityType":"temple","facilityLabel":"🛕 廟宇","changingTable":false,"wheelchair":false,"needsAddr":false},{"id":9664641603,"name":"德光後門","lat":22.9786013,"lng":120.2211592,"address":"701台南市東區崇德路112號","hasBabyChanging":false,"hasAccessible":false,"source":"OpenStreetMap","updatedAt":"2026-06-11T02:40:46.199Z","facilityType":"temple","facilityLabel":"🛕 廟宇","changingTable":false,"wheelchair":false,"needsAddr":false},{"id":9791746718,"name":"臺南純福音教會","lat":22.9861233,"lng":120.2200212,"address":"701臺南市東區東門路二段96號二樓","hasBabyChanging":false,"hasAccessible":false,"source":"OpenStreetMap","updatedAt":"2026-06-11T02:40:46.199Z","facilityType":"temple","facilityLabel":"🛕 廟宇","changingTable":false,"wheelchair":false,"needsAddr":false},{"id":10558893478,"name":"廟宇","lat":23.0000688,"lng":120.220001,"address":null,"hasBabyChanging":false,"hasAccessible":false,"source":"OpenStreetMap","updatedAt":"2026-06-11T02:40:46.199Z","facilityType":"temple","facilityLabel":"🛕 廟宇","changingTable":false,"wheelchair":false,"needsAddr":true},{"id":10753693816,"name":"公共廁所","lat":22.9708329,"lng":120.2226728,"address":null,"hasBabyChanging":false,"hasAccessible":false,"source":"OpenStreetMap","updatedAt":"2026-06-11T02:40:46.199Z","facilityType":"toilet","facilityLabel":null,"changingTable":false,"wheelchair":false,"needsAddr":true},{"id":11297651628,"name":"台灣信義會恩道堂","lat":22.9902278,"lng":120.2353963,"address":null,"hasBabyChanging":false,"hasAccessible":false,"source":"OpenStreetMap","updatedAt":"2026-06-11T02:40:46.199Z","facilityType":"temple","facilityLabel":"🛕 廟宇","changingTable":false,"wheelchair":false,"needsAddr":false},{"id":11524756589,"name":"爭鮮","lat":22.9966199,"lng":120.212301,"address":null,"hasBabyChanging":false,"hasAccessible":false,"source":"OpenStreetMap","updatedAt":"2026-06-11T02:40:46.199Z","facilityType":"sushi","facilityLabel":"🍣 迴轉壽司","changingTable":false,"wheelchair":false,"needsAddr":false},{"id":12009348120,"name":"獸醫院","lat":22.9987334,"lng":120.2292668,"address":null,"hasBabyChanging":false,"hasAccessible":false,"source":"OpenStreetMap","updatedAt":"2026-06-11T02:40:46.199Z","facilityType":"vet","facilityLabel":"🐾 獸醫院","changingTable":false,"wheelchair":false,"needsAddr":true},{"id":12329775976,"name":"凡登整形外科診所","lat":22.9882362,"lng":120.219552,"address":null,"hasBabyChanging":false,"hasAccessible":false,"source":"OpenStreetMap","updatedAt":"2026-06-11T02:40:46.199Z","facilityType":"clinic","facilityLabel":"🩺 診所","changingTable":false,"wheelchair":false,"needsAddr":false},{"id":12329931143,"name":"獸醫院","lat":22.9800472,"lng":120.2310797,"address":null,"hasBabyChanging":false,"hasAccessible":false,"source":"OpenStreetMap","updatedAt":"2026-06-11T02:40:46.199Z","facilityType":"vet","facilityLabel":"🐾 獸醫院","changingTable":false,"wheelchair":false,"needsAddr":true},{"id":12530547636,"name":"長榮骨外科診所","lat":22.9893916,"lng":120.2236033,"address":null,"hasBabyChanging":false,"hasAccessible":false,"source":"OpenStreetMap","updatedAt":"2026-06-11T02:40:46.199Z","facilityType":"clinic","facilityLabel":"🩺 診所","changingTable":false,"wheelchair":false,"needsAddr":false},{"id":12535631918,"name":"東門-圍下里聯合活動中心","lat":22.9913131,"lng":120.2137676,"address":"701臺南市東區青年路328號","hasBabyChanging":false,"hasAccessible":false,"source":"OpenStreetMap","updatedAt":"2026-06-11T02:40:46.199Z","facilityType":"community","facilityLabel":"🏘️ 活動中心","changingTable":false,"wheelchair":false,"needsAddr":false},{"id":12617529648,"name":"診所","lat":22.9911657,"lng":120.2239293,"address":null,"hasBabyChanging":false,"hasAccessible":false,"source":"OpenStreetMap","updatedAt":"2026-06-11T02:40:46.199Z","facilityType":"clinic","facilityLabel":"🩺 診所","changingTable":false,"wheelchair":false,"needsAddr":true},{"id":12617575657,"name":"診所","lat":22.9804205,"lng":120.2172585,"address":null,"hasBabyChanging":false,"hasAccessible":false,"source":"OpenStreetMap","updatedAt":"2026-06-11T02:40:46.199Z","facilityType":"clinic","facilityLabel":"🩺 診所","changingTable":false,"wheelchair":false,"needsAddr":true},{"id":12625951264,"name":"成功大學藝術中心","lat":22.9979997,"lng":120.2165723,"address":null,"hasBabyChanging":false,"hasAccessible":false,"source":"OpenStreetMap","updatedAt":"2026-06-11T02:40:46.199Z","facilityType":"arts","facilityLabel":"🎭 藝文場館","changingTable":false,"wheelchair":false,"openingHours":"Mo-Sa 09:30-17:00","needsAddr":false},{"id":12646974688,"name":"獸醫院","lat":22.9901154,"lng":120.2273077,"address":null,"hasBabyChanging":false,"hasAccessible":false,"source":"OpenStreetMap","updatedAt":"2026-06-11T02:40:46.199Z","facilityType":"vet","facilityLabel":"🐾 獸醫院","changingTable":false,"wheelchair":false,"needsAddr":true},{"id":12671306109,"name":"心安耳鼻喉科診所","lat":22.9856777,"lng":120.2267277,"address":null,"hasBabyChanging":false,"hasAccessible":false,"source":"OpenStreetMap","updatedAt":"2026-06-11T02:40:46.199Z","facilityType":"clinic","facilityLabel":"🩺 診所","changingTable":false,"wheelchair":false,"needsAddr":false},{"id":12805633150,"name":"診所","lat":22.9927618,"lng":120.2310065,"address":null,"hasBabyChanging":false,"hasAccessible":false,"source":"OpenStreetMap","updatedAt":"2026-06-11T02:40:46.199Z","facilityType":"clinic","facilityLabel":"🩺 診所","changingTable":false,"wheelchair":false,"needsAddr":true},{"id":13000908939,"name":"公共廁所","lat":22.999488,"lng":120.2170512,"address":null,"hasBabyChanging":false,"hasAccessible":false,"source":"OpenStreetMap","updatedAt":"2026-06-11T02:40:46.199Z","facilityType":"toilet","facilityLabel":null,"changingTable":false,"wheelchair":false,"needsAddr":true},{"id":13140491564,"name":"國立成功大學規劃與設計學院圖書","lat":23.0008655,"lng":120.2152016,"address":"701台南市東區大學路1號一樓","hasBabyChanging":false,"hasAccessible":false,"source":"OpenStreetMap","updatedAt":"2026-06-11T02:40:46.199Z","facilityType":"library","facilityLabel":"📚 圖書館","changingTable":false,"wheelchair":false,"openingHours":"Mo-Fr 09:00-21:00","needsAddr":false},{"id":13253621523,"name":"祝三多廟","lat":22.988632,"lng":120.2128029,"address":"臺南市東區東門路一段65號","hasBabyChanging":false,"hasAccessible":false,"source":"OpenStreetMap","updatedAt":"2026-06-11T02:40:46.199Z","facilityType":"temple","facilityLabel":"🛕 廟宇","changingTable":false,"wheelchair":false,"needsAddr":false},{"id":13360739092,"name":"沒毛Been","lat":22.995978,"lng":120.2270252,"address":null,"hasBabyChanging":false,"hasAccessible":false,"source":"OpenStreetMap","updatedAt":"2026-06-11T02:40:46.199Z","facilityType":"clinic","facilityLabel":"🩺 診所","changingTable":false,"wheelchair":false,"needsAddr":false},{"id":13363853801,"name":"浮生圖像所","lat":22.9931122,"lng":120.2153559,"address":"臺南市東區育樂街197巷10-5號","hasBabyChanging":false,"hasAccessible":false,"source":"OpenStreetMap","updatedAt":"2026-06-11T02:40:46.199Z","facilityType":"library","facilityLabel":"📚 圖書館","changingTable":false,"wheelchair":false,"openingHours":"Th-Su 11:00-18:00","needsAddr":false},{"id":13518938339,"name":"公共廁所","lat":22.9937676,"lng":120.2160602,"address":null,"hasBabyChanging":false,"hasAccessible":true,"source":"OpenStreetMap","updatedAt":"2026-06-11T02:40:46.199Z","facilityType":"toilet","facilityLabel":null,"changingTable":false,"wheelchair":true,"needsAddr":true},{"id":13518938345,"name":"公共廁所","lat":22.9941832,"lng":120.2170736,"address":null,"hasBabyChanging":false,"hasAccessible":false,"source":"OpenStreetMap","updatedAt":"2026-06-11T02:40:46.199Z","facilityType":"toilet","facilityLabel":null,"changingTable":false,"wheelchair":false,"needsAddr":true},{"id":13518938351,"name":"公共廁所","lat":22.9925771,"lng":120.2181787,"address":null,"hasBabyChanging":false,"hasAccessible":false,"source":"OpenStreetMap","updatedAt":"2026-06-11T02:40:46.199Z","facilityType":"toilet","facilityLabel":null,"changingTable":false,"wheelchair":false,"needsAddr":true},{"id":13518938352,"name":"公共廁所","lat":22.9931243,"lng":120.2171303,"address":null,"hasBabyChanging":false,"hasAccessible":false,"source":"OpenStreetMap","updatedAt":"2026-06-11T02:40:46.199Z","facilityType":"toilet","facilityLabel":null,"changingTable":false,"wheelchair":false,"needsAddr":true},{"id":13518992838,"name":"圖書館","lat":22.9941149,"lng":120.2173385,"address":null,"hasBabyChanging":false,"hasAccessible":false,"source":"OpenStreetMap","updatedAt":"2026-06-11T02:40:46.199Z","facilityType":"library","facilityLabel":"📚 圖書館","changingTable":false,"wheelchair":false,"needsAddr":true},{"id":13568749192,"name":"公共廁所","lat":22.9960098,"lng":120.2273647,"address":null,"hasBabyChanging":false,"hasAccessible":false,"source":"OpenStreetMap","updatedAt":"2026-06-11T02:40:46.199Z","facilityType":"toilet","facilityLabel":null,"changingTable":false,"wheelchair":false,"fee":"no","needsAddr":true},{"id":13611233550,"name":"葉倍宏小兒科診所","lat":22.9869867,"lng":120.2181692,"address":null,"hasBabyChanging":false,"hasAccessible":false,"source":"OpenStreetMap","updatedAt":"2026-06-11T02:40:46.199Z","facilityType":"clinic","facilityLabel":"🩺 診所","changingTable":false,"wheelchair":false,"needsAddr":false},{"id":13611233557,"name":"大東門讚診所","lat":22.9872304,"lng":120.2178827,"address":null,"hasBabyChanging":false,"hasAccessible":false,"source":"OpenStreetMap","updatedAt":"2026-06-11T02:40:46.199Z","facilityType":"clinic","facilityLabel":"🩺 診所","changingTable":false,"wheelchair":false,"needsAddr":false},{"id":13907221650,"name":"爭鮮","lat":22.9795806,"lng":120.222856,"address":"701臺南市東區崇學路143號一樓","hasBabyChanging":false,"hasAccessible":false,"source":"OpenStreetMap","updatedAt":"2026-06-11T02:40:46.199Z","facilityType":"sushi","facilityLabel":"🍣 迴轉壽司","changingTable":false,"wheelchair":false,"openingHours":"Mo-Su 11:00-21:30","needsAddr":false},{"id":13927417878,"name":"寶雅","lat":22.9656643,"lng":120.2310212,"address":null,"hasBabyChanging":false,"hasAccessible":false,"source":"OpenStreetMap","updatedAt":"2026-06-11T02:40:46.199Z","facilityType":"poya","facilityLabel":"💄 寶雅","changingTable":false,"wheelchair":false,"needsAddr":false},{"id":160253723,"name":"台南新樓醫院","lat":22.9890378,"lng":120.2132412,"address":"臺南市東區東門里6鄰東門路一段57號","hasBabyChanging":false,"hasAccessible":false,"source":"OpenStreetMap","updatedAt":"2026-06-11T02:40:46.199Z","facilityType":"hospital","facilityLabel":"🏥 醫院","changingTable":false,"wheelchair":false,"needsAddr":false},{"id":161156222,"name":"彌陀寺","lat":22.9886419,"lng":120.2144735,"address":"臺南市東區東門里6鄰東門路一段133號","hasBabyChanging":false,"hasAccessible":false,"source":"OpenStreetMap","updatedAt":"2026-06-11T02:40:46.199Z","facilityType":"temple","facilityLabel":"🛕 廟宇","changingTable":false,"wheelchair":false,"needsAddr":false},{"id":161156225,"name":"東門教會","lat":22.9879787,"lng":120.2157352,"address":null,"hasBabyChanging":false,"hasAccessible":false,"source":"OpenStreetMap","updatedAt":"2026-06-11T02:40:46.199Z","facilityType":"temple","facilityLabel":"🛕 廟宇","changingTable":false,"wheelchair":false,"needsAddr":false},{"id":161157805,"name":"台南文化創意產業園區","lat":22.9989875,"lng":120.2128961,"address":null,"hasBabyChanging":false,"hasAccessible":false,"source":"OpenStreetMap","updatedAt":"2026-06-11T02:40:46.199Z","facilityType":"arts","facilityLabel":"🎭 藝文場館","changingTable":false,"wheelchair":false,"needsAddr":false},{"id":161308929,"name":"台南市立醫院","lat":22.9684517,"lng":120.22659,"address":"臺南市東區崇成里18鄰崇德路670號","hasBabyChanging":false,"hasAccessible":true,"source":"OpenStreetMap","updatedAt":"2026-06-11T02:40:46.199Z","facilityType":"hospital","facilityLabel":"🏥 醫院","changingTable":false,"wheelchair":true,"needsAddr":false},{"id":170492306,"name":"原臺南縣知事官邸","lat":22.9925772,"lng":120.2133387,"address":"701台南市東區衛民街1號","hasBabyChanging":false,"hasAccessible":false,"source":"OpenStreetMap","updatedAt":"2026-06-11T02:40:46.199Z","facilityType":"attraction","facilityLabel":"🏞️ 景點","changingTable":false,"wheelchair":false,"needsAddr":false},{"id":186109346,"name":"代天府","lat":22.9857811,"lng":120.2172905,"address":"臺南市","hasBabyChanging":false,"hasAccessible":false,"source":"OpenStreetMap","updatedAt":"2026-06-11T02:40:46.199Z","facilityType":"temple","facilityLabel":"🛕 廟宇","changingTable":false,"wheelchair":false,"needsAddr":false},{"id":189158850,"name":"台南市召會裕忠會所","lat":22.9883584,"lng":120.2419298,"address":null,"hasBabyChanging":false,"hasAccessible":false,"source":"OpenStreetMap","updatedAt":"2026-06-11T02:40:46.199Z","facilityType":"temple","facilityLabel":"🛕 廟宇","changingTable":false,"wheelchair":false,"needsAddr":false},{"id":6038644,"name":"國立成功大學","lat":22.9979395,"lng":120.219098,"address":"70101台南市東區大學路1號","hasBabyChanging":false,"hasAccessible":false,"source":"OpenStreetMap","updatedAt":"2026-06-11T02:40:46.199Z","facilityType":"university","facilityLabel":"🎓 大專院校","changingTable":false,"wheelchair":false,"needsAddr":false},{"id":204493490,"name":"星巴克 台南文創門市","lat":22.9989671,"lng":120.2129858,"address":"704臺南市北區北門路二段16號","hasBabyChanging":false,"hasAccessible":false,"source":"OpenStreetMap","updatedAt":"2026-06-11T02:40:46.199Z","facilityType":"starbucks","facilityLabel":"☕ 星巴克","changingTable":false,"wheelchair":false,"needsAddr":false},{"id":219905139,"name":"關帝殿","lat":22.9849793,"lng":120.2325028,"address":null,"hasBabyChanging":false,"hasAccessible":false,"source":"OpenStreetMap","updatedAt":"2026-06-11T02:40:46.199Z","facilityType":"temple","facilityLabel":"🛕 廟宇","changingTable":false,"wheelchair":false,"needsAddr":false},{"id":227913934,"name":"崇文暨崇成里聯合活動中心","lat":22.9684468,"lng":120.2277641,"address":"臺南市東區崇德路691號","hasBabyChanging":false,"hasAccessible":false,"source":"OpenStreetMap","updatedAt":"2026-06-11T02:40:46.199Z","facilityType":"community","facilityLabel":"🏘️ 活動中心","changingTable":false,"wheelchair":false,"needsAddr":false},{"id":243801455,"name":"天主堂","lat":22.9853839,"lng":120.2234291,"address":"臺南市","hasBabyChanging":false,"hasAccessible":false,"source":"OpenStreetMap","updatedAt":"2026-06-11T02:40:46.199Z","facilityType":"temple","facilityLabel":"🛕 廟宇","changingTable":false,"wheelchair":false,"needsAddr":false},{"id":251596111,"name":"總圖書館","lat":22.9999198,"lng":120.2198964,"address":"70101臺南市東區大學路1號","hasBabyChanging":false,"hasAccessible":false,"source":"OpenStreetMap","updatedAt":"2026-06-11T02:40:46.199Z","facilityType":"library","facilityLabel":"📚 圖書館","changingTable":false,"wheelchair":false,"needsAddr":false},{"id":255990927,"name":"遠東百貨","lat":22.9963154,"lng":120.2142907,"address":"70146臺南市東區前鋒路21號十樓","hasBabyChanging":true,"hasAccessible":false,"source":"OpenStreetMap","updatedAt":"2026-06-11T02:40:46.199Z","facilityType":"department","facilityLabel":"🏬 百貨","changingTable":true,"wheelchair":false,"openingHours":"Mo-Fr 10:00-22:00; Sa-Su 10:00-22:30","needsAddr":false},{"id":256406168,"name":"台南市立圖書館裕文分館","lat":22.9820765,"lng":120.2454724,"address":null,"hasBabyChanging":false,"hasAccessible":false,"source":"OpenStreetMap","updatedAt":"2026-06-11T02:40:46.199Z","facilityType":"library","facilityLabel":"📚 圖書館","changingTable":false,"wheelchair":false,"needsAddr":false},{"id":274793741,"name":"國立臺南大學榮譽教學中心","lat":22.9762332,"lng":120.2174404,"address":"臺南市東區忠孝里14鄰榮譽街123巷7號之1","hasBabyChanging":false,"hasAccessible":false,"source":"OpenStreetMap","updatedAt":"2026-06-11T02:40:46.199Z","facilityType":"university","facilityLabel":"🎓 大專院校","changingTable":false,"wheelchair":false,"needsAddr":false},{"id":278227789,"name":"台南靈糧堂(東區本館)","lat":22.9854217,"lng":120.2399992,"address":"70175台南市東區裕平路39號三樓","hasBabyChanging":false,"hasAccessible":false,"source":"OpenStreetMap","updatedAt":"2026-06-11T02:40:46.199Z","facilityType":"temple","facilityLabel":"🛕 廟宇","changingTable":false,"wheelchair":false,"needsAddr":false},{"id":279044489,"name":"麥當勞 (701臺南市東區大學路26號)","lat":22.9958303,"lng":120.2214317,"address":"701臺南市東區大學路26號","hasBabyChanging":false,"hasAccessible":false,"source":"OpenStreetMap","updatedAt":"2026-06-11T02:40:46.199Z","facilityType":"mcdonalds","facilityLabel":"🍔 麥當勞","changingTable":false,"wheelchair":false,"needsAddr":false},{"id":279044884,"name":"恩慈堂","lat":22.9959226,"lng":120.2205187,"address":"臺南市東區大學路12巷14號","hasBabyChanging":false,"hasAccessible":false,"source":"OpenStreetMap","updatedAt":"2026-06-11T02:40:46.199Z","facilityType":"temple","facilityLabel":"🛕 廟宇","changingTable":false,"wheelchair":false,"needsAddr":false},{"id":288399462,"name":"臺南市東南地政事務所","lat":22.9830355,"lng":120.2203305,"address":"701臺南市東區林森路一段318號","hasBabyChanging":false,"hasAccessible":false,"source":"OpenStreetMap","updatedAt":"2026-06-11T02:40:46.199Z","facilityType":"government","facilityLabel":"🏛 公務機關","changingTable":false,"wheelchair":false,"needsAddr":false},{"id":297579251,"name":"龍山寺","lat":22.9855021,"lng":120.2206961,"address":"臺南市東區東門路二段134巷27號","hasBabyChanging":false,"hasAccessible":false,"source":"OpenStreetMap","updatedAt":"2026-06-11T02:40:46.199Z","facilityType":"temple","facilityLabel":"🛕 廟宇","changingTable":false,"wheelchair":false,"needsAddr":false},{"id":297779475,"name":"基督教台灣信義會善牧堂","lat":22.9924968,"lng":120.2212518,"address":"70143台南市東區長榮路三段1號","hasBabyChanging":false,"hasAccessible":false,"source":"OpenStreetMap","updatedAt":"2026-06-11T02:40:46.199Z","facilityType":"temple","facilityLabel":"🛕 廟宇","changingTable":false,"wheelchair":false,"needsAddr":false},{"id":303128829,"name":"臺南市無障礙福利之家","lat":22.9997296,"lng":120.2250378,"address":"臺南市","hasBabyChanging":false,"hasAccessible":true,"source":"OpenStreetMap","updatedAt":"2026-06-11T02:40:46.199Z","facilityType":"government","facilityLabel":"🏛 公務機關","changingTable":false,"wheelchair":true,"needsAddr":false},{"id":310746976,"name":"台南清真寺","lat":22.9784509,"lng":120.2284524,"address":"臺南市東區中華東路三段77巷34弄12號","hasBabyChanging":false,"hasAccessible":false,"source":"OpenStreetMap","updatedAt":"2026-06-11T02:40:46.199Z","facilityType":"temple","facilityLabel":"🛕 廟宇","changingTable":false,"wheelchair":false,"needsAddr":false},{"id":313793839,"name":"大學東寧社區聯合活動中心","lat":22.9920338,"lng":120.2243308,"address":"林森路二段252號","hasBabyChanging":false,"hasAccessible":false,"source":"OpenStreetMap","updatedAt":"2026-06-11T02:40:46.199Z","facilityType":"community","facilityLabel":"🏘️ 活動中心","changingTable":false,"wheelchair":false,"needsAddr":false},{"id":314213870,"name":"農業部農糧署南區分署","lat":22.9867341,"lng":120.2168836,"address":"臺南市東區東門路一段320號","hasBabyChanging":false,"hasAccessible":false,"source":"OpenStreetMap","updatedAt":"2026-06-11T02:40:46.199Z","facilityType":"government","facilityLabel":"🏛 公務機關","changingTable":false,"wheelchair":false,"needsAddr":false},{"id":316122329,"name":"臺南市立後甲國民中學圖書館","lat":22.9962382,"lng":120.2246153,"address":"701臺南市東區林森路二段260號","hasBabyChanging":false,"hasAccessible":false,"source":"OpenStreetMap","updatedAt":"2026-06-11T02:40:46.199Z","facilityType":"library","facilityLabel":"📚 圖書館","changingTable":false,"wheelchair":false,"needsAddr":false},{"id":334869023,"name":"胸腔醫院","lat":22.987184,"lng":120.2115828,"address":"臺南市","hasBabyChanging":false,"hasAccessible":false,"source":"OpenStreetMap","updatedAt":"2026-06-11T02:40:46.199Z","facilityType":"hospital","facilityLabel":"🏥 醫院","changingTable":false,"wheelchair":false,"needsAddr":false},{"id":351672312,"name":"植物園","lat":22.9960119,"lng":120.2253215,"address":null,"hasBabyChanging":false,"hasAccessible":false,"source":"OpenStreetMap","updatedAt":"2026-06-11T02:40:46.199Z","facilityType":"botanical","facilityLabel":"🌿 植物園","changingTable":false,"wheelchair":false,"needsAddr":false},{"id":360039611,"name":"德高厝上帝廟","lat":22.965829,"lng":120.2352112,"address":"70158臺南市東區城東街28號","hasBabyChanging":false,"hasAccessible":false,"source":"OpenStreetMap","updatedAt":"2026-06-11T02:40:46.199Z","facilityType":"temple","facilityLabel":"🛕 廟宇","changingTable":false,"wheelchair":false,"needsAddr":false},{"id":361107919,"name":"廟宇","lat":22.9723372,"lng":120.2299912,"address":null,"hasBabyChanging":false,"hasAccessible":false,"source":"OpenStreetMap","updatedAt":"2026-06-11T02:40:46.199Z","facilityType":"temple","facilityLabel":"🛕 廟宇","changingTable":false,"wheelchair":false,"needsAddr":true},{"id":379323136,"name":"台南市政府警察局第一分局","lat":22.9665252,"lng":120.2321509,"address":null,"hasBabyChanging":false,"hasAccessible":false,"source":"OpenStreetMap","updatedAt":"2026-06-11T02:40:46.199Z","facilityType":"police","facilityLabel":"🚔 派出所","changingTable":false,"wheelchair":false,"needsAddr":false},{"id":396548841,"name":"和平里活動中心","lat":22.9768946,"lng":120.2326145,"address":"臺南市東區文化路100號","hasBabyChanging":false,"hasAccessible":false,"source":"OpenStreetMap","updatedAt":"2026-06-11T02:40:46.199Z","facilityType":"government","facilityLabel":"🏛 公務機關","changingTable":false,"wheelchair":false,"needsAddr":false},{"id":396548842,"name":"大智里活動中心","lat":22.9614873,"lng":120.230094,"address":"臺南市東區德東街90號","hasBabyChanging":false,"hasAccessible":false,"source":"OpenStreetMap","updatedAt":"2026-06-11T02:40:46.199Z","facilityType":"government","facilityLabel":"🏛 公務機關","changingTable":false,"wheelchair":false,"needsAddr":false},{"id":396548844,"name":"臺南市東區崇善里活動中心","lat":22.9758197,"lng":120.2295348,"address":"臺南市東區仁和路70巷38號","hasBabyChanging":false,"hasAccessible":false,"source":"OpenStreetMap","updatedAt":"2026-06-11T02:40:46.199Z","facilityType":"government","facilityLabel":"🏛 公務機關","changingTable":false,"wheelchair":false,"needsAddr":false},{"id":396548845,"name":"崇德里活動中心","lat":22.9754733,"lng":120.2281061,"address":"臺南市東區崇德七街30巷2號","hasBabyChanging":false,"hasAccessible":false,"source":"OpenStreetMap","updatedAt":"2026-06-11T02:40:46.199Z","facilityType":"government","facilityLabel":"🏛 公務機關","changingTable":false,"wheelchair":false,"needsAddr":false},{"id":396548846,"name":"台南市東區後甲、南聖社區發展協會","lat":22.9894626,"lng":120.2427041,"address":"臺南市東區裕農路878號","hasBabyChanging":false,"hasAccessible":false,"source":"OpenStreetMap","updatedAt":"2026-06-11T02:40:46.199Z","facilityType":"government","facilityLabel":"🏛 公務機關","changingTable":false,"wheelchair":false,"needsAddr":false},{"id":396548847,"name":"復興里活動中心","lat":22.9805281,"lng":120.2414132,"address":"臺南市東區裕忠路456號","hasBabyChanging":false,"hasAccessible":false,"source":"OpenStreetMap","updatedAt":"2026-06-11T02:40:46.199Z","facilityType":"government","facilityLabel":"🏛 公務機關","changingTable":false,"wheelchair":false,"needsAddr":false},{"id":396548848,"name":"臺南市東區德光里活動中心","lat":22.9805911,"lng":120.2187196,"address":"臺南市東區崇德路111號","hasBabyChanging":false,"hasAccessible":false,"source":"OpenStreetMap","updatedAt":"2026-06-11T02:40:46.199Z","facilityType":"community","facilityLabel":"🏘️ 活動中心","changingTable":false,"wheelchair":false,"needsAddr":false},{"id":396548857,"name":"虎尾里活動中心","lat":22.9814081,"lng":120.2352755,"address":"臺南市東區富農街一段188巷10弄7號","hasBabyChanging":false,"hasAccessible":false,"source":"OpenStreetMap","updatedAt":"2026-06-11T02:40:46.199Z","facilityType":"government","facilityLabel":"🏛 公務機關","changingTable":false,"wheelchair":false,"needsAddr":false},{"id":396548858,"name":"臺南市東區龍山社區活動中心","lat":22.9835337,"lng":120.2192152,"address":"臺南市東區林森路一段311號","hasBabyChanging":false,"hasAccessible":false,"source":"OpenStreetMap","updatedAt":"2026-06-11T02:40:46.199Z","facilityType":"government","facilityLabel":"🏛 公務機關","changingTable":false,"wheelchair":false,"needsAddr":false},{"id":396548859,"name":"莊敬里活動中心","lat":22.9969778,"lng":120.2323,"address":"臺南市東區莊敬路205巷23號","hasBabyChanging":false,"hasAccessible":false,"source":"OpenStreetMap","updatedAt":"2026-06-11T02:40:46.199Z","facilityType":"community","facilityLabel":"🏘️ 活動中心","changingTable":false,"wheelchair":false,"needsAddr":false},{"id":398483530,"name":"麥當勞 台南東門餐廳","lat":22.9826119,"lng":120.2278491,"address":"701臺南市東區東門路二段353號","hasBabyChanging":false,"hasAccessible":false,"source":"OpenStreetMap","updatedAt":"2026-06-11T02:40:46.199Z","facilityType":"mcdonalds","facilityLabel":"🍔 麥當勞","changingTable":false,"wheelchair":false,"openingHours":"Mo-Su 05:00-04:00","needsAddr":false},{"id":398484645,"name":"台灣基督長老教會-富強教會","lat":22.9814723,"lng":120.2306937,"address":"70157臺南市東區東門路三段11巷2-1號","hasBabyChanging":false,"hasAccessible":false,"source":"OpenStreetMap","updatedAt":"2026-06-11T02:40:46.199Z","facilityType":"temple","facilityLabel":"🛕 廟宇","changingTable":false,"wheelchair":false,"needsAddr":false},{"id":410984072,"name":"家樂福超市 台南裕農店","lat":22.9885796,"lng":120.2386217,"address":null,"hasBabyChanging":false,"hasAccessible":false,"source":"OpenStreetMap","updatedAt":"2026-06-11T02:40:46.199Z","facilityType":"supermarket","facilityLabel":"🧺 超市","changingTable":false,"wheelchair":false,"openingHours":"24/7","needsAddr":false},{"id":441949148,"name":"農村發展及水土保持署台南分署","lat":22.9829353,"lng":120.2196352,"address":"臺南市東區德光里18鄰林森路一段316號","hasBabyChanging":false,"hasAccessible":false,"source":"OpenStreetMap","updatedAt":"2026-06-11T02:40:46.199Z","facilityType":"government","facilityLabel":"🏛 公務機關","changingTable":false,"wheelchair":false,"needsAddr":false},{"id":458210050,"name":"臺南市東區裕聖里活動中心","lat":22.9820012,"lng":120.2461379,"address":"臺南市東區裕文路286號","hasBabyChanging":false,"hasAccessible":false,"source":"OpenStreetMap","updatedAt":"2026-06-11T02:40:46.199Z","facilityType":"community","facilityLabel":"🏘️ 活動中心","changingTable":false,"wheelchair":false,"needsAddr":false},{"id":458509048,"name":"台南市環境保護局","lat":22.9845229,"lng":120.2352081,"address":"臺南市","hasBabyChanging":false,"hasAccessible":false,"source":"OpenStreetMap","updatedAt":"2026-06-11T02:40:46.199Z","facilityType":"government","facilityLabel":"🏛 公務機關","changingTable":false,"wheelchair":false,"needsAddr":false},{"id":462941962,"name":"聖汝宮","lat":22.9854776,"lng":120.2472213,"address":null,"hasBabyChanging":false,"hasAccessible":false,"source":"OpenStreetMap","updatedAt":"2026-06-11T02:40:46.199Z","facilityType":"temple","facilityLabel":"🛕 廟宇","changingTable":false,"wheelchair":false,"needsAddr":false},{"id":548697276,"name":"東智里社區發展中心","lat":22.9636113,"lng":120.2290455,"address":null,"hasBabyChanging":false,"hasAccessible":false,"source":"OpenStreetMap","updatedAt":"2026-06-11T02:40:46.199Z","facilityType":"community","facilityLabel":"🏘️ 活動中心","changingTable":false,"wheelchair":false,"needsAddr":false},{"id":555897894,"name":"歷史文物館","lat":22.9999632,"lng":120.2178952,"address":"臺南市","hasBabyChanging":false,"hasAccessible":false,"source":"OpenStreetMap","updatedAt":"2026-06-11T02:40:46.199Z","facilityType":"museum","facilityLabel":"🖼️ 博物館","changingTable":false,"wheelchair":false,"needsAddr":false},{"id":558677792,"name":"台灣中油","lat":22.9979498,"lng":120.2343619,"address":"臺南市東區中華東路一段8號","hasBabyChanging":false,"hasAccessible":false,"source":"OpenStreetMap","updatedAt":"2026-06-11T02:40:46.199Z","facilityType":"fuel","facilityLabel":"⛽ 加油站","changingTable":false,"wheelchair":false,"needsAddr":false},{"id":563175605,"name":"寶雅 台南東寧店","lat":22.9908223,"lng":120.226265,"address":"701臺南市東區東寧路219號","hasBabyChanging":false,"hasAccessible":false,"source":"OpenStreetMap","updatedAt":"2026-06-11T02:40:46.199Z","facilityType":"poya","facilityLabel":"💄 寶雅","changingTable":false,"wheelchair":false,"needsAddr":false},{"id":563665887,"name":"金玄殿","lat":22.9661308,"lng":120.2310102,"address":null,"hasBabyChanging":false,"hasAccessible":false,"source":"OpenStreetMap","updatedAt":"2026-06-11T02:40:46.199Z","facilityType":"temple","facilityLabel":"🛕 廟宇","changingTable":false,"wheelchair":false,"needsAddr":false},{"id":733558093,"name":"慶隆廟","lat":22.9914342,"lng":120.2404887,"address":"臺南市東區裕永路59號","hasBabyChanging":false,"hasAccessible":false,"source":"OpenStreetMap","updatedAt":"2026-06-11T02:40:46.199Z","facilityType":"temple","facilityLabel":"🛕 廟宇","changingTable":false,"wheelchair":false,"needsAddr":false},{"id":737954108,"name":"顯明殿","lat":22.9868028,"lng":120.2329782,"address":null,"hasBabyChanging":false,"hasAccessible":false,"source":"OpenStreetMap","updatedAt":"2026-06-11T02:40:46.199Z","facilityType":"temple","facilityLabel":"🛕 廟宇","changingTable":false,"wheelchair":false,"needsAddr":false},{"id":813023711,"name":"關聖社區活動中心","lat":22.9865461,"lng":120.2432242,"address":"臺南市東區裕孝路118號","hasBabyChanging":false,"hasAccessible":false,"source":"OpenStreetMap","updatedAt":"2026-06-11T02:40:46.199Z","facilityType":"community","facilityLabel":"🏘️ 活動中心","changingTable":false,"wheelchair":false,"needsAddr":false},{"id":851791569,"name":"台亞大同路站","lat":22.9829246,"lng":120.2114378,"address":"701臺南市東區大同路一段257號","hasBabyChanging":false,"hasAccessible":false,"source":"OpenStreetMap","updatedAt":"2026-06-11T02:40:46.199Z","facilityType":"fuel","facilityLabel":"⛽ 加油站","changingTable":false,"wheelchair":false,"needsAddr":false},{"id":851794348,"name":"大同里活動中心","lat":22.9841952,"lng":120.2130551,"address":"臺南市東區府連路182巷29號","hasBabyChanging":false,"hasAccessible":false,"source":"OpenStreetMap","updatedAt":"2026-06-11T02:40:46.199Z","facilityType":"community","facilityLabel":"🏘️ 活動中心","changingTable":false,"wheelchair":false,"needsAddr":false},{"id":881530943,"name":"建築草階","lat":23.0006304,"lng":120.2149085,"address":null,"hasBabyChanging":false,"hasAccessible":false,"source":"OpenStreetMap","updatedAt":"2026-06-11T02:40:46.199Z","facilityType":"arts","facilityLabel":"🎭 藝文場館","changingTable":false,"wheelchair":false,"needsAddr":false},{"id":902369483,"name":"成大里活動中心","lat":22.9961028,"lng":120.2151646,"address":"701臺南市東區育樂街88號","hasBabyChanging":false,"hasAccessible":false,"source":"OpenStreetMap","updatedAt":"2026-06-11T02:40:46.199Z","facilityType":"community","facilityLabel":"🏘️ 活動中心","changingTable":false,"wheelchair":false,"needsAddr":false},{"id":1038720422,"name":"後甲教會","lat":22.9868643,"lng":120.2364518,"address":null,"hasBabyChanging":false,"hasAccessible":false,"source":"OpenStreetMap","updatedAt":"2026-06-11T02:40:46.199Z","facilityType":"temple","facilityLabel":"🛕 廟宇","changingTable":false,"wheelchair":false,"needsAddr":false},{"id":1046870661,"name":"台灣中油 東門路站","lat":22.9864807,"lng":120.2200305,"address":"701臺南市東區東門路二段39號","hasBabyChanging":false,"hasAccessible":false,"source":"OpenStreetMap","updatedAt":"2026-06-11T02:40:46.199Z","facilityType":"fuel","facilityLabel":"⛽ 加油站","changingTable":false,"wheelchair":false,"openingHours":"Mo-Su 07:00-22:00","needsAddr":false},{"id":1066306480,"name":"臺南市政府環保局藏金閣","lat":22.9851857,"lng":120.2194379,"address":null,"hasBabyChanging":false,"hasAccessible":false,"source":"OpenStreetMap","updatedAt":"2026-06-11T02:40:46.199Z","facilityType":"government","facilityLabel":"🏛 公務機關","changingTable":false,"wheelchair":false,"needsAddr":false},{"id":1086212710,"name":"東區區公所","lat":22.9803026,"lng":120.2240582,"address":"臺南市東區崇學路100號","hasBabyChanging":false,"hasAccessible":false,"source":"OpenStreetMap","updatedAt":"2026-06-11T02:40:46.199Z","facilityType":"government","facilityLabel":"🏛 公務機關","changingTable":false,"wheelchair":false,"needsAddr":false},{"id":1086212711,"name":"東區戶政事務所","lat":22.9801531,"lng":120.2241181,"address":null,"hasBabyChanging":false,"hasAccessible":false,"source":"OpenStreetMap","updatedAt":"2026-06-11T02:40:46.199Z","facilityType":"government","facilityLabel":"🏛 公務機關","changingTable":false,"wheelchair":false,"needsAddr":false},{"id":1089855237,"name":"廟宇","lat":22.9743913,"lng":120.2378298,"address":null,"hasBabyChanging":false,"hasAccessible":false,"source":"OpenStreetMap","updatedAt":"2026-06-11T02:40:46.199Z","facilityType":"temple","facilityLabel":"🛕 廟宇","changingTable":false,"wheelchair":false,"needsAddr":true},{"id":1094782690,"name":"圓通寺","lat":22.9895221,"lng":120.2463951,"address":null,"hasBabyChanging":false,"hasAccessible":false,"source":"OpenStreetMap","updatedAt":"2026-06-11T02:40:46.199Z","facilityType":"temple","facilityLabel":"🛕 廟宇","changingTable":false,"wheelchair":false,"needsAddr":false},{"id":1094794406,"name":"加油站","lat":22.9895042,"lng":120.2429873,"address":null,"hasBabyChanging":false,"hasAccessible":false,"source":"OpenStreetMap","updatedAt":"2026-06-11T02:40:46.199Z","facilityType":"fuel","facilityLabel":"⛽ 加油站","changingTable":false,"wheelchair":false,"needsAddr":true},{"id":1094794408,"name":"台灣中油","lat":22.9894302,"lng":120.2429725,"address":null,"hasBabyChanging":false,"hasAccessible":false,"source":"OpenStreetMap","updatedAt":"2026-06-11T02:40:46.199Z","facilityType":"fuel","facilityLabel":"⛽ 加油站","changingTable":false,"wheelchair":false,"needsAddr":false},{"id":1094794415,"name":"廟宇","lat":22.9890092,"lng":120.2434674,"address":null,"hasBabyChanging":false,"hasAccessible":false,"source":"OpenStreetMap","updatedAt":"2026-06-11T02:40:46.199Z","facilityType":"temple","facilityLabel":"🛕 廟宇","changingTable":false,"wheelchair":false,"needsAddr":true},{"id":1094891183,"name":"府東派出所","lat":22.9857938,"lng":120.2431849,"address":null,"hasBabyChanging":false,"hasAccessible":false,"source":"OpenStreetMap","updatedAt":"2026-06-11T02:40:46.199Z","facilityType":"police","facilityLabel":"🚔 派出所","changingTable":false,"wheelchair":false,"needsAddr":false},{"id":1110771895,"name":"台糖加油站","lat":22.9645356,"lng":120.2272262,"address":null,"hasBabyChanging":false,"hasAccessible":false,"source":"OpenStreetMap","updatedAt":"2026-06-11T02:40:46.199Z","facilityType":"fuel","facilityLabel":"⛽ 加油站","changingTable":false,"wheelchair":false,"needsAddr":false},{"id":1156344507,"name":"景點","lat":22.9737123,"lng":120.2220968,"address":null,"hasBabyChanging":false,"hasAccessible":false,"source":"OpenStreetMap","updatedAt":"2026-06-11T02:40:46.199Z","facilityType":"attraction","facilityLabel":"🏞️ 景點","changingTable":false,"wheelchair":false,"needsAddr":true},{"id":1163788783,"name":"校園福音團契 嘉南地區","lat":22.9943515,"lng":120.2178682,"address":null,"hasBabyChanging":false,"hasAccessible":false,"source":"OpenStreetMap","updatedAt":"2026-06-11T02:40:46.199Z","facilityType":"temple","facilityLabel":"🛕 廟宇","changingTable":false,"wheelchair":false,"needsAddr":false},{"id":1194832817,"name":"台灣中油 崇學路站","lat":22.9825098,"lng":120.2260247,"address":"701臺南市東區崇學路228號","hasBabyChanging":false,"hasAccessible":false,"source":"OpenStreetMap","updatedAt":"2026-06-11T02:40:46.199Z","facilityType":"fuel","facilityLabel":"⛽ 加油站","changingTable":false,"wheelchair":false,"openingHours":"Mo-Su 07:00-21:00","needsAddr":false},{"id":1200750646,"name":"麥當勞","lat":22.9757035,"lng":120.2242299,"address":null,"hasBabyChanging":false,"hasAccessible":false,"source":"OpenStreetMap","updatedAt":"2026-06-11T02:40:46.199Z","facilityType":"mcdonalds","facilityLabel":"🍔 麥當勞","changingTable":false,"wheelchair":false,"needsAddr":true},{"id":1224716308,"name":"大東東夜市","lat":22.9824921,"lng":120.2188814,"address":null,"hasBabyChanging":false,"hasAccessible":false,"source":"OpenStreetMap","updatedAt":"2026-06-11T02:40:46.199Z","facilityType":"nightmarket","facilityLabel":"🍢 夜市","changingTable":false,"wheelchair":false,"openingHours":"Mo, Tu, Fr \"晚間營業\"","needsAddr":false},{"id":1382504137,"name":"後甲里活動中心","lat":22.9924016,"lng":120.23677,"address":"701臺南市東區後甲里平實路123號","hasBabyChanging":false,"hasAccessible":false,"source":"OpenStreetMap","updatedAt":"2026-06-11T02:40:46.199Z","facilityType":"community","facilityLabel":"🏘️ 活動中心","changingTable":false,"wheelchair":false,"needsAddr":false},{"id":1389576156,"name":"南紡置地廣場（南紡A2館)","lat":22.9919957,"lng":120.2332855,"address":"臺南市東區東光里1鄰中華東路一段358號","hasBabyChanging":true,"hasAccessible":false,"source":"OpenStreetMap","updatedAt":"2026-06-11T02:40:46.199Z","facilityType":"department","facilityLabel":"🏬 百貨","changingTable":true,"wheelchair":false,"openingHours":"Mo-Su 10:30-22:00","needsAddr":false},{"id":1389576168,"name":"南紡購物中心","lat":22.9906724,"lng":120.233032,"address":"701臺南市東區中華東路一段366號","hasBabyChanging":true,"hasAccessible":false,"source":"OpenStreetMap","updatedAt":"2026-06-11T02:40:46.199Z","facilityType":"department","facilityLabel":"🏬 百貨","changingTable":true,"wheelchair":false,"openingHours":"Mo-Su 11:00-22:00","needsAddr":false},{"id":1419610782,"name":"母佑聖母進教之佑天主堂","lat":22.9887645,"lng":120.2396416,"address":null,"hasBabyChanging":false,"hasAccessible":false,"source":"OpenStreetMap","updatedAt":"2026-06-11T02:40:46.199Z","facilityType":"temple","facilityLabel":"🛕 廟宇","changingTable":false,"wheelchair":false,"needsAddr":false},{"id":1448344696,"name":"主基督榮光教會","lat":22.9783368,"lng":120.2281702,"address":null,"hasBabyChanging":false,"hasAccessible":false,"source":"OpenStreetMap","updatedAt":"2026-06-11T02:40:46.199Z","facilityType":"temple","facilityLabel":"🛕 廟宇","changingTable":false,"wheelchair":false,"needsAddr":false},{"id":1460955884,"name":"東寧派出所","lat":22.9917906,"lng":120.224181,"address":"701台南市東區林森路二段250號","hasBabyChanging":false,"hasAccessible":false,"source":"OpenStreetMap","updatedAt":"2026-06-11T02:40:46.199Z","facilityType":"police","facilityLabel":"🚔 派出所","changingTable":false,"wheelchair":false,"needsAddr":false},{"id":1461456103,"name":"前甲元祐宮","lat":22.9873335,"lng":120.2316902,"address":"台南市東區裕農路446巷","hasBabyChanging":false,"hasAccessible":false,"source":"OpenStreetMap","updatedAt":"2026-06-11T02:40:46.199Z","facilityType":"temple","facilityLabel":"🛕 廟宇","changingTable":false,"wheelchair":false,"needsAddr":false},{"id":1462824734,"name":"公共廁所","lat":22.9923946,"lng":120.2193999,"address":null,"hasBabyChanging":false,"hasAccessible":false,"source":"OpenStreetMap","updatedAt":"2026-06-11T02:40:46.199Z","facilityType":"toilet","facilityLabel":null,"changingTable":false,"wheelchair":false,"needsAddr":true},{"id":1465116799,"name":"廣合堂","lat":22.9952442,"lng":120.2150417,"address":"臺南市東區育樂街117巷3號","hasBabyChanging":false,"hasAccessible":false,"source":"OpenStreetMap","updatedAt":"2026-06-11T02:40:46.199Z","facilityType":"temple","facilityLabel":"🛕 廟宇","changingTable":false,"wheelchair":false,"needsAddr":false},{"id":1472869235,"name":"廟宇","lat":22.999089,"lng":120.2263771,"address":null,"hasBabyChanging":false,"hasAccessible":false,"source":"OpenStreetMap","updatedAt":"2026-06-11T02:40:46.199Z","facilityType":"temple","facilityLabel":"🛕 廟宇","changingTable":false,"wheelchair":false,"needsAddr":true},{"id":1479062231,"name":"星巴克 虎尾寮","lat":22.9896797,"lng":120.2442938,"address":"臺南市東區裕農路930號","hasBabyChanging":false,"hasAccessible":false,"source":"OpenStreetMap","updatedAt":"2026-06-11T02:40:46.199Z","facilityType":"starbucks","facilityLabel":"☕ 星巴克","changingTable":false,"wheelchair":false,"openingHours":"Mo-Su 07:00-22:00","needsAddr":false},{"id":1492227180,"name":"健康關懷站","lat":22.9930447,"lng":120.2247253,"address":null,"hasBabyChanging":false,"hasAccessible":false,"source":"OpenStreetMap","updatedAt":"2026-06-11T02:40:46.199Z","facilityType":"clinic","facilityLabel":"🩺 診所","changingTable":false,"wheelchair":false,"openingHours":"Mo-Fr 09:30-11:30","needsAddr":false},{"id":1492227206,"name":"公共廁所","lat":22.9928461,"lng":120.2244731,"address":null,"hasBabyChanging":false,"hasAccessible":false,"source":"OpenStreetMap","updatedAt":"2026-06-11T02:40:46.199Z","facilityType":"toilet","facilityLabel":null,"changingTable":false,"wheelchair":false,"needsAddr":true},{"id":1498917287,"name":"藝文場館","lat":22.9941308,"lng":120.2364106,"address":null,"hasBabyChanging":false,"hasAccessible":false,"source":"OpenStreetMap","updatedAt":"2026-06-11T02:40:46.199Z","facilityType":"arts","facilityLabel":"🎭 藝文場館","changingTable":false,"wheelchair":false,"needsAddr":true},{"id":1527239970,"name":"富裕里活動中心","lat":22.9834549,"lng":120.2280716,"address":"臺南市東區東門路二段365巷35號","hasBabyChanging":false,"hasAccessible":false,"source":"OpenStreetMap","updatedAt":"2026-06-11T02:40:46.199Z","facilityType":"community","facilityLabel":"🏘️ 活動中心","changingTable":false,"wheelchair":false,"needsAddr":false},{"id":8136906,"name":"公務機關","lat":23.0007544,"lng":120.2141902,"address":null,"hasBabyChanging":false,"hasAccessible":false,"source":"OpenStreetMap","updatedAt":"2026-06-11T02:40:46.199Z","facilityType":"government","facilityLabel":"🏛 公務機關","changingTable":false,"wheelchair":false,"needsAddr":true},{"id":18976645,"name":"台南神學院","lat":22.9897399,"lng":120.2142685,"address":"臺南市東區東門里6鄰東門路一段117號","hasBabyChanging":false,"hasAccessible":false,"source":"OpenStreetMap","updatedAt":"2026-06-11T02:40:46.199Z","facilityType":"university","facilityLabel":"🎓 大專院校","changingTable":false,"wheelchair":false,"needsAddr":false},{"id":19969391,"name":"東寧學生宿舍區","lat":22.9930136,"lng":120.2227097,"address":null,"hasBabyChanging":false,"hasAccessible":false,"source":"OpenStreetMap","updatedAt":"2026-06-11T02:40:46.199Z","facilityType":"university","facilityLabel":"🎓 大專院校","changingTable":false,"wheelchair":false,"needsAddr":false}]}