{"city":"台南市","district":"白河區","category":"toilets","updatedAt":"2026-06-11T02:40:46.199Z","rev":1,"count":143,"items":[{"id":2131991702,"name":"水火同源","lat":23.3222008,"lng":120.4851802,"address":null,"hasBabyChanging":false,"hasAccessible":false,"source":"OpenStreetMap","updatedAt":"2026-06-11T02:40:46.199Z","facilityType":"attraction","facilityLabel":"🏞️ 景點","changingTable":false,"wheelchair":false,"needsAddr":false},{"id":2142281319,"name":"福茂加油站","lat":23.3485146,"lng":120.4476126,"address":null,"hasBabyChanging":false,"hasAccessible":false,"source":"OpenStreetMap","updatedAt":"2026-06-11T02:40:46.199Z","facilityType":"fuel","facilityLabel":"⛽ 加油站","changingTable":false,"wheelchair":false,"needsAddr":false},{"id":2170871625,"name":"公共廁所","lat":23.3389763,"lng":120.5073054,"address":null,"hasBabyChanging":false,"hasAccessible":false,"source":"OpenStreetMap","updatedAt":"2026-06-11T02:40:46.199Z","facilityType":"toilet","facilityLabel":null,"changingTable":false,"wheelchair":false,"needsAddr":true},{"id":2170871628,"name":"關仔嶺觀景台","lat":23.3390391,"lng":120.5071128,"address":null,"hasBabyChanging":false,"hasAccessible":false,"source":"OpenStreetMap","updatedAt":"2026-06-11T02:40:46.199Z","facilityType":"attraction","facilityLabel":"🏞️ 景點","changingTable":false,"wheelchair":false,"needsAddr":false},{"id":2170871682,"name":"公共廁所","lat":23.3409237,"lng":120.5061198,"address":null,"hasBabyChanging":false,"hasAccessible":false,"source":"OpenStreetMap","updatedAt":"2026-06-11T02:40:46.199Z","facilityType":"toilet","facilityLabel":null,"changingTable":false,"wheelchair":false,"needsAddr":true},{"id":2170871733,"name":"景點","lat":23.3421476,"lng":120.5056916,"address":null,"hasBabyChanging":false,"hasAccessible":false,"source":"OpenStreetMap","updatedAt":"2026-06-11T02:40:46.199Z","facilityType":"attraction","facilityLabel":"🏞️ 景點","changingTable":false,"wheelchair":false,"needsAddr":true},{"id":2536763470,"name":"內角派出所","lat":23.3974813,"lng":120.4389634,"address":"臺南市白河區內角里30號","hasBabyChanging":false,"hasAccessible":false,"source":"OpenStreetMap","updatedAt":"2026-06-11T02:40:46.199Z","facilityType":"police","facilityLabel":"🚔 派出所","changingTable":false,"wheelchair":false,"needsAddr":false},{"id":2536765519,"name":"河東派出所","lat":23.3426002,"lng":120.4357936,"address":"臺南市白河區河東里3號","hasBabyChanging":false,"hasAccessible":false,"source":"OpenStreetMap","updatedAt":"2026-06-11T02:40:46.199Z","facilityType":"police","facilityLabel":"🚔 派出所","changingTable":false,"wheelchair":false,"needsAddr":false},{"id":2536766169,"name":"關嶺派出所","lat":23.3395859,"lng":120.5047085,"address":"臺南市白河區關嶺里14號","hasBabyChanging":false,"hasAccessible":false,"source":"OpenStreetMap","updatedAt":"2026-06-11T02:40:46.199Z","facilityType":"police","facilityLabel":"🚔 派出所","changingTable":false,"wheelchair":false,"needsAddr":false},{"id":2803649949,"name":"中油 白河交流道站","lat":23.3451356,"lng":120.428839,"address":"732台南市白河區糞箕湖122之15號","hasBabyChanging":false,"hasAccessible":false,"source":"OpenStreetMap","updatedAt":"2026-06-11T02:40:46.199Z","facilityType":"fuel","facilityLabel":"⛽ 加油站","changingTable":false,"wheelchair":false,"needsAddr":false},{"id":2803767528,"name":"Formosa","lat":23.3561507,"lng":120.4202645,"address":null,"hasBabyChanging":false,"hasAccessible":false,"source":"OpenStreetMap","updatedAt":"2026-06-11T02:40:46.199Z","facilityType":"fuel","facilityLabel":"⛽ 加油站","changingTable":false,"wheelchair":false,"needsAddr":false},{"id":2805229501,"name":"台灣中油","lat":23.3435175,"lng":120.4106337,"address":null,"hasBabyChanging":false,"hasAccessible":false,"source":"OpenStreetMap","updatedAt":"2026-06-11T02:40:46.199Z","facilityType":"fuel","facilityLabel":"⛽ 加油站","changingTable":false,"wheelchair":false,"needsAddr":false},{"id":2893024799,"name":"埤肚仔九曲橋","lat":23.385982,"lng":120.4098559,"address":null,"hasBabyChanging":false,"hasAccessible":false,"source":"OpenStreetMap","updatedAt":"2026-06-11T02:40:46.199Z","facilityType":"attraction","facilityLabel":"🏞️ 景點","changingTable":false,"wheelchair":false,"needsAddr":false},{"id":3243943378,"name":"M-41 坦克","lat":23.3434291,"lng":120.4771132,"address":null,"hasBabyChanging":false,"hasAccessible":false,"source":"OpenStreetMap","updatedAt":"2026-06-11T02:40:46.199Z","facilityType":"attraction","facilityLabel":"🏞️ 景點","changingTable":false,"wheelchair":false,"needsAddr":false},{"id":3327858442,"name":"太城宮","lat":23.3980081,"lng":120.4376963,"address":null,"hasBabyChanging":false,"hasAccessible":false,"source":"OpenStreetMap","updatedAt":"2026-06-11T02:40:46.199Z","facilityType":"temple","facilityLabel":"🛕 廟宇","changingTable":false,"wheelchair":false,"needsAddr":false},{"id":3364999377,"name":"蔗埕觀景平台","lat":23.3814473,"lng":120.4174317,"address":null,"hasBabyChanging":false,"hasAccessible":false,"source":"OpenStreetMap","updatedAt":"2026-06-11T02:40:46.199Z","facilityType":"attraction","facilityLabel":"🏞️ 景點","changingTable":false,"wheelchair":false,"needsAddr":false},{"id":3868890987,"name":"公共廁所","lat":23.3220976,"lng":120.4837248,"address":null,"hasBabyChanging":false,"hasAccessible":false,"source":"OpenStreetMap","updatedAt":"2026-06-11T02:40:46.199Z","facilityType":"toilet","facilityLabel":null,"changingTable":false,"wheelchair":false,"needsAddr":true},{"id":4294756592,"name":"三間厝金安福德宮","lat":23.3634468,"lng":120.4251223,"address":null,"hasBabyChanging":false,"hasAccessible":false,"source":"OpenStreetMap","updatedAt":"2026-06-11T02:40:46.199Z","facilityType":"temple","facilityLabel":"🛕 廟宇","changingTable":false,"wheelchair":false,"needsAddr":false},{"id":4294756595,"name":"仁安宮","lat":23.3677585,"lng":120.437719,"address":null,"hasBabyChanging":false,"hasAccessible":false,"source":"OpenStreetMap","updatedAt":"2026-06-11T02:40:46.199Z","facilityType":"temple","facilityLabel":"🛕 廟宇","changingTable":false,"wheelchair":false,"needsAddr":false},{"id":4294756606,"name":"天靈宮","lat":23.3675659,"lng":120.4517855,"address":null,"hasBabyChanging":false,"hasAccessible":false,"source":"OpenStreetMap","updatedAt":"2026-06-11T02:40:46.199Z","facilityType":"temple","facilityLabel":"🛕 廟宇","changingTable":false,"wheelchair":false,"needsAddr":false},{"id":4294756607,"name":"奉天宮","lat":23.3565439,"lng":120.4201472,"address":null,"hasBabyChanging":false,"hasAccessible":false,"source":"OpenStreetMap","updatedAt":"2026-06-11T02:40:46.199Z","facilityType":"temple","facilityLabel":"🛕 廟宇","changingTable":false,"wheelchair":false,"needsAddr":false},{"id":4294756609,"name":"寶安宮","lat":23.370266,"lng":120.4557201,"address":null,"hasBabyChanging":false,"hasAccessible":false,"source":"OpenStreetMap","updatedAt":"2026-06-11T02:40:46.199Z","facilityType":"temple","facilityLabel":"🛕 廟宇","changingTable":false,"wheelchair":false,"needsAddr":false},{"id":4294756611,"name":"店仔口福安宮","lat":23.3508069,"lng":120.416207,"address":null,"hasBabyChanging":false,"hasAccessible":false,"source":"OpenStreetMap","updatedAt":"2026-06-11T02:40:46.199Z","facilityType":"temple","facilityLabel":"🛕 廟宇","changingTable":false,"wheelchair":false,"needsAddr":false},{"id":4294756612,"name":"心靈平台","lat":23.358184,"lng":120.4676559,"address":null,"hasBabyChanging":false,"hasAccessible":false,"source":"OpenStreetMap","updatedAt":"2026-06-11T02:40:46.199Z","facilityType":"attraction","facilityLabel":"🏞️ 景點","changingTable":false,"wheelchair":false,"needsAddr":false},{"id":4294756614,"name":"承佛寺","lat":23.347,"lng":120.4162405,"address":null,"hasBabyChanging":false,"hasAccessible":false,"source":"OpenStreetMap","updatedAt":"2026-06-11T02:40:46.199Z","facilityType":"temple","facilityLabel":"🛕 廟宇","changingTable":false,"wheelchair":false,"needsAddr":false},{"id":4294756615,"name":"昇安福德宮","lat":23.3663202,"lng":120.4339871,"address":null,"hasBabyChanging":false,"hasAccessible":false,"source":"OpenStreetMap","updatedAt":"2026-06-11T02:40:46.199Z","facilityType":"temple","facilityLabel":"🛕 廟宇","changingTable":false,"wheelchair":false,"needsAddr":false},{"id":4294756617,"name":"林仔內朝天宮","lat":23.367785,"lng":120.4612388,"address":null,"hasBabyChanging":false,"hasAccessible":false,"source":"OpenStreetMap","updatedAt":"2026-06-11T02:40:46.199Z","facilityType":"temple","facilityLabel":"🛕 廟宇","changingTable":false,"wheelchair":false,"needsAddr":false},{"id":4294756618,"name":"林子內教會","lat":23.3663662,"lng":120.4622945,"address":null,"hasBabyChanging":false,"hasAccessible":false,"source":"OpenStreetMap","updatedAt":"2026-06-11T02:40:46.199Z","facilityType":"temple","facilityLabel":"🛕 廟宇","changingTable":false,"wheelchair":false,"needsAddr":false},{"id":4294756623,"name":"玄天上帝廟","lat":23.3671261,"lng":120.4516138,"address":null,"hasBabyChanging":false,"hasAccessible":false,"source":"OpenStreetMap","updatedAt":"2026-06-11T02:40:46.199Z","facilityType":"temple","facilityLabel":"🛕 廟宇","changingTable":false,"wheelchair":false,"needsAddr":false},{"id":4294756624,"name":"玉真宮","lat":23.3805046,"lng":120.4515041,"address":null,"hasBabyChanging":false,"hasAccessible":false,"source":"OpenStreetMap","updatedAt":"2026-06-11T02:40:46.199Z","facilityType":"temple","facilityLabel":"🛕 廟宇","changingTable":false,"wheelchair":false,"needsAddr":false},{"id":4294756630,"name":"福如宮","lat":23.3695539,"lng":120.4554227,"address":null,"hasBabyChanging":false,"hasAccessible":false,"source":"OpenStreetMap","updatedAt":"2026-06-11T02:40:46.199Z","facilityType":"temple","facilityLabel":"🛕 廟宇","changingTable":false,"wheelchair":false,"needsAddr":false},{"id":4294756631,"name":"竹門中妙宮","lat":23.3768368,"lng":120.4479592,"address":null,"hasBabyChanging":false,"hasAccessible":false,"source":"OpenStreetMap","updatedAt":"2026-06-11T02:40:46.199Z","facilityType":"temple","facilityLabel":"🛕 廟宇","changingTable":false,"wheelchair":false,"needsAddr":false},{"id":4294756756,"name":"公共廁所","lat":23.3589569,"lng":120.4671525,"address":null,"hasBabyChanging":false,"hasAccessible":false,"source":"OpenStreetMap","updatedAt":"2026-06-11T02:40:46.199Z","facilityType":"toilet","facilityLabel":null,"changingTable":false,"wheelchair":false,"needsAddr":true},{"id":4294756866,"name":"紅仙水","lat":23.3612337,"lng":120.4689749,"address":null,"hasBabyChanging":false,"hasAccessible":false,"source":"OpenStreetMap","updatedAt":"2026-06-11T02:40:46.199Z","facilityType":"attraction","facilityLabel":"🏞️ 景點","changingTable":false,"wheelchair":false,"needsAddr":false},{"id":4294756867,"name":"紫玄玉殿宮","lat":23.3617797,"lng":120.4636833,"address":null,"hasBabyChanging":false,"hasAccessible":false,"source":"OpenStreetMap","updatedAt":"2026-06-11T02:40:46.199Z","facilityType":"temple","facilityLabel":"🛕 廟宇","changingTable":false,"wheelchair":false,"needsAddr":false},{"id":4294756877,"name":"龍濟宮","lat":23.364333,"lng":120.4274227,"address":null,"hasBabyChanging":false,"hasAccessible":false,"source":"OpenStreetMap","updatedAt":"2026-06-11T02:40:46.199Z","facilityType":"temple","facilityLabel":"🛕 廟宇","changingTable":false,"wheelchair":false,"needsAddr":false},{"id":4524898421,"name":"國聖廟","lat":23.3808173,"lng":120.4393572,"address":"臺南市白河區甘宅里4鄰43號","hasBabyChanging":false,"hasAccessible":false,"source":"OpenStreetMap","updatedAt":"2026-06-11T02:40:46.199Z","facilityType":"temple","facilityLabel":"🛕 廟宇","changingTable":false,"wheelchair":false,"needsAddr":false},{"id":4524898445,"name":"東勇宮","lat":23.3660282,"lng":120.452946,"address":null,"hasBabyChanging":false,"hasAccessible":false,"source":"OpenStreetMap","updatedAt":"2026-06-11T02:40:46.199Z","facilityType":"temple","facilityLabel":"🛕 廟宇","changingTable":false,"wheelchair":false,"needsAddr":false},{"id":4524898446,"name":"十七戶部落活動中心","lat":23.3519629,"lng":120.4639174,"address":null,"hasBabyChanging":false,"hasAccessible":false,"source":"OpenStreetMap","updatedAt":"2026-06-11T02:40:46.199Z","facilityType":"community","facilityLabel":"🏘️ 活動中心","changingTable":false,"wheelchair":false,"needsAddr":false},{"id":4524898447,"name":"東營","lat":23.3522646,"lng":120.4703001,"address":null,"hasBabyChanging":false,"hasAccessible":false,"source":"OpenStreetMap","updatedAt":"2026-06-11T02:40:46.199Z","facilityType":"temple","facilityLabel":"🛕 廟宇","changingTable":false,"wheelchair":false,"needsAddr":false},{"id":4524898449,"name":"方府千歲","lat":23.351964,"lng":120.4638768,"address":null,"hasBabyChanging":false,"hasAccessible":false,"source":"OpenStreetMap","updatedAt":"2026-06-11T02:40:46.199Z","facilityType":"temple","facilityLabel":"🛕 廟宇","changingTable":false,"wheelchair":false,"needsAddr":false},{"id":4524898478,"name":"報恩宮","lat":23.3492058,"lng":120.4487336,"address":null,"hasBabyChanging":false,"hasAccessible":false,"source":"OpenStreetMap","updatedAt":"2026-06-11T02:40:46.199Z","facilityType":"temple","facilityLabel":"🛕 廟宇","changingTable":false,"wheelchair":false,"needsAddr":false},{"id":4524904409,"name":"東營","lat":23.3836791,"lng":120.4387102,"address":null,"hasBabyChanging":false,"hasAccessible":false,"source":"OpenStreetMap","updatedAt":"2026-06-11T02:40:46.199Z","facilityType":"temple","facilityLabel":"🛕 廟宇","changingTable":false,"wheelchair":false,"needsAddr":false},{"id":4524904410,"name":"地基主","lat":23.38922,"lng":120.4340226,"address":null,"hasBabyChanging":false,"hasAccessible":false,"source":"OpenStreetMap","updatedAt":"2026-06-11T02:40:46.199Z","facilityType":"temple","facilityLabel":"🛕 廟宇","changingTable":false,"wheelchair":false,"needsAddr":false},{"id":4634916675,"name":"枕頭山觀景台","lat":23.3287031,"lng":120.4869841,"address":null,"hasBabyChanging":false,"hasAccessible":false,"source":"OpenStreetMap","updatedAt":"2026-06-11T02:40:46.199Z","facilityType":"attraction","facilityLabel":"🏞️ 景點","changingTable":false,"wheelchair":false,"needsAddr":false},{"id":4854838878,"name":"重興宮","lat":23.3476156,"lng":120.3990455,"address":null,"hasBabyChanging":false,"hasAccessible":false,"source":"OpenStreetMap","updatedAt":"2026-06-11T02:40:46.199Z","facilityType":"temple","facilityLabel":"🛕 廟宇","changingTable":false,"wheelchair":false,"needsAddr":false},{"id":4854838917,"name":"藏巖寺","lat":23.3794095,"lng":120.4172878,"address":null,"hasBabyChanging":false,"hasAccessible":false,"source":"OpenStreetMap","updatedAt":"2026-06-11T02:40:46.199Z","facilityType":"temple","facilityLabel":"🛕 廟宇","changingTable":false,"wheelchair":false,"needsAddr":false},{"id":4879923316,"name":"公共廁所","lat":23.3155149,"lng":120.4439933,"address":null,"hasBabyChanging":false,"hasAccessible":false,"source":"OpenStreetMap","updatedAt":"2026-06-11T02:40:46.199Z","facilityType":"toilet","facilityLabel":null,"changingTable":false,"wheelchair":false,"needsAddr":true},{"id":5313429835,"name":"新生診所","lat":23.3494686,"lng":120.415505,"address":null,"hasBabyChanging":false,"hasAccessible":false,"source":"OpenStreetMap","updatedAt":"2026-06-11T02:40:46.199Z","facilityType":"clinic","facilityLabel":"🩺 診所","changingTable":false,"wheelchair":false,"needsAddr":false},{"id":5403363705,"name":"三角潭土地公廟","lat":23.4073323,"lng":120.4138992,"address":null,"hasBabyChanging":false,"hasAccessible":false,"source":"OpenStreetMap","updatedAt":"2026-06-11T02:40:46.199Z","facilityType":"temple","facilityLabel":"🛕 廟宇","changingTable":false,"wheelchair":false,"needsAddr":false},{"id":5465833223,"name":"小南海吊橋","lat":23.3906079,"lng":120.3934808,"address":null,"hasBabyChanging":false,"hasAccessible":false,"source":"OpenStreetMap","updatedAt":"2026-06-11T02:40:46.199Z","facilityType":"attraction","facilityLabel":"🏞️ 景點","changingTable":false,"wheelchair":false,"needsAddr":false},{"id":5466319322,"name":"木棉道","lat":23.3786046,"lng":120.4099419,"address":null,"hasBabyChanging":false,"hasAccessible":false,"source":"OpenStreetMap","updatedAt":"2026-06-11T02:40:46.199Z","facilityType":"attraction","facilityLabel":"🏞️ 景點","changingTable":false,"wheelchair":false,"needsAddr":false},{"id":5643248448,"name":"公共廁所","lat":23.3260854,"lng":120.4813981,"address":null,"hasBabyChanging":false,"hasAccessible":false,"source":"OpenStreetMap","updatedAt":"2026-06-11T02:40:46.199Z","facilityType":"toilet","facilityLabel":null,"changingTable":false,"wheelchair":false,"needsAddr":true},{"id":7007081616,"name":"火王爺廟","lat":23.338336,"lng":120.5047382,"address":null,"hasBabyChanging":false,"hasAccessible":false,"source":"OpenStreetMap","updatedAt":"2026-06-11T02:40:46.199Z","facilityType":"temple","facilityLabel":"🛕 廟宇","changingTable":false,"wheelchair":false,"needsAddr":false},{"id":7161561873,"name":"景點","lat":23.3254107,"lng":120.4801326,"address":null,"hasBabyChanging":false,"hasAccessible":false,"source":"OpenStreetMap","updatedAt":"2026-06-11T02:40:46.199Z","facilityType":"attraction","facilityLabel":"🏞️ 景點","changingTable":false,"wheelchair":false,"needsAddr":true},{"id":9469400014,"name":"飲水思源","lat":23.3187239,"lng":120.4709329,"address":null,"hasBabyChanging":false,"hasAccessible":false,"source":"OpenStreetMap","updatedAt":"2026-06-11T02:40:46.199Z","facilityType":"attraction","facilityLabel":"🏞️ 景點","changingTable":false,"wheelchair":false,"needsAddr":false},{"id":9469400015,"name":"遙望","lat":23.325184,"lng":120.4766208,"address":null,"hasBabyChanging":false,"hasAccessible":false,"source":"OpenStreetMap","updatedAt":"2026-06-11T02:40:46.199Z","facilityType":"attraction","facilityLabel":"🏞️ 景點","changingTable":false,"wheelchair":false,"needsAddr":false},{"id":9469444740,"name":"杭內聖安宮","lat":23.3317834,"lng":120.4645073,"address":null,"hasBabyChanging":false,"hasAccessible":false,"source":"OpenStreetMap","updatedAt":"2026-06-11T02:40:46.199Z","facilityType":"temple","facilityLabel":"🛕 廟宇","changingTable":false,"wheelchair":false,"needsAddr":false},{"id":9671321738,"name":"展望","lat":23.2958327,"lng":120.5260304,"address":null,"hasBabyChanging":false,"hasAccessible":false,"source":"OpenStreetMap","updatedAt":"2026-06-11T02:40:46.199Z","facilityType":"attraction","facilityLabel":"🏞️ 景點","changingTable":false,"wheelchair":false,"needsAddr":false},{"id":9671321765,"name":"跋死馬崁","lat":23.2917617,"lng":120.5249617,"address":null,"hasBabyChanging":false,"hasAccessible":false,"source":"OpenStreetMap","updatedAt":"2026-06-11T02:40:46.199Z","facilityType":"attraction","facilityLabel":"🏞️ 景點","changingTable":false,"wheelchair":false,"needsAddr":false},{"id":9752021381,"name":"南邑城隍廟","lat":23.3521129,"lng":120.4134184,"address":"732台南市白河區三民路435號","hasBabyChanging":false,"hasAccessible":false,"source":"OpenStreetMap","updatedAt":"2026-06-11T02:40:46.199Z","facilityType":"temple","facilityLabel":"🛕 廟宇","changingTable":false,"wheelchair":false,"needsAddr":false},{"id":10836520576,"name":"北由火山碧雲寺路","lat":23.3127084,"lng":120.4625675,"address":null,"hasBabyChanging":false,"hasAccessible":false,"source":"OpenStreetMap","updatedAt":"2026-06-11T02:40:46.199Z","facilityType":"attraction","facilityLabel":"🏞️ 景點","changingTable":false,"wheelchair":false,"needsAddr":false},{"id":10888988927,"name":"火山大仙寺","lat":23.3394956,"lng":120.4741834,"address":null,"hasBabyChanging":false,"hasAccessible":false,"source":"OpenStreetMap","updatedAt":"2026-06-11T02:40:46.199Z","facilityType":"temple","facilityLabel":"🛕 廟宇","changingTable":false,"wheelchair":false,"needsAddr":false},{"id":10968787505,"name":"公共廁所","lat":23.3994353,"lng":120.4035674,"address":null,"hasBabyChanging":false,"hasAccessible":false,"source":"OpenStreetMap","updatedAt":"2026-06-11T02:40:46.199Z","facilityType":"toilet","facilityLabel":null,"changingTable":false,"wheelchair":false,"needsAddr":true},{"id":11210503580,"name":"寶雅 白河中山店","lat":23.3479002,"lng":120.4139757,"address":"臺南市白河區永安里1鄰中山路1之4號","hasBabyChanging":false,"hasAccessible":false,"source":"OpenStreetMap","updatedAt":"2026-06-11T02:40:46.199Z","facilityType":"poya","facilityLabel":"💄 寶雅","changingTable":false,"wheelchair":false,"needsAddr":false},{"id":11238535982,"name":"指示牌 (←新好漢坡,老街.天梯.舊好漢坡↓)","lat":23.339443,"lng":120.5043501,"address":null,"hasBabyChanging":false,"hasAccessible":false,"source":"OpenStreetMap","updatedAt":"2026-06-11T02:40:46.199Z","facilityType":"oldstreet","facilityLabel":"🏮 老街","changingTable":false,"wheelchair":false,"needsAddr":false},{"id":11958735648,"name":"跌死馬崁銘牌","lat":23.2916361,"lng":120.5244831,"address":null,"hasBabyChanging":false,"hasAccessible":false,"source":"OpenStreetMap","updatedAt":"2026-06-11T02:40:46.199Z","facilityType":"attraction","facilityLabel":"🏞️ 景點","changingTable":false,"wheelchair":false,"needsAddr":false},{"id":202502364,"name":"國道公路警察局第八公路警察白河分隊","lat":23.3302956,"lng":120.4314481,"address":null,"hasBabyChanging":false,"hasAccessible":false,"source":"OpenStreetMap","updatedAt":"2026-06-11T02:40:46.199Z","facilityType":"police","facilityLabel":"🚔 派出所","changingTable":false,"wheelchair":false,"needsAddr":false},{"id":202502366,"name":"高速公路局南區養護工程分局白河工務段","lat":23.3296418,"lng":120.4332232,"address":null,"hasBabyChanging":false,"hasAccessible":false,"source":"OpenStreetMap","updatedAt":"2026-06-11T02:40:46.199Z","facilityType":"government","facilityLabel":"🏛 公務機關","changingTable":false,"wheelchair":false,"needsAddr":false},{"id":202548481,"name":"火山碧雲寺","lat":23.3252968,"lng":120.481016,"address":null,"hasBabyChanging":false,"hasAccessible":false,"source":"OpenStreetMap","updatedAt":"2026-06-11T02:40:46.199Z","facilityType":"temple","facilityLabel":"🛕 廟宇","changingTable":false,"wheelchair":false,"needsAddr":false},{"id":202656908,"name":"廟宇","lat":23.3499534,"lng":120.4182335,"address":null,"hasBabyChanging":false,"hasAccessible":false,"source":"OpenStreetMap","updatedAt":"2026-06-11T02:40:46.199Z","facilityType":"temple","facilityLabel":"🛕 廟宇","changingTable":false,"wheelchair":false,"needsAddr":true},{"id":202656909,"name":"臨水宮","lat":23.3505121,"lng":120.4250077,"address":null,"hasBabyChanging":false,"hasAccessible":false,"source":"OpenStreetMap","updatedAt":"2026-06-11T02:40:46.199Z","facilityType":"temple","facilityLabel":"🛕 廟宇","changingTable":false,"wheelchair":false,"needsAddr":false},{"id":202918255,"name":"廟宇","lat":23.4008832,"lng":120.4347745,"address":null,"hasBabyChanging":false,"hasAccessible":false,"source":"OpenStreetMap","updatedAt":"2026-06-11T02:40:46.199Z","facilityType":"temple","facilityLabel":"🛕 廟宇","changingTable":false,"wheelchair":false,"needsAddr":true},{"id":203112831,"name":"小南海普陀寺","lat":23.3904518,"lng":120.3941444,"address":"臺南市白河區廣安里枋子林37-1號","hasBabyChanging":false,"hasAccessible":false,"source":"OpenStreetMap","updatedAt":"2026-06-11T02:40:46.199Z","facilityType":"temple","facilityLabel":"🛕 廟宇","changingTable":false,"wheelchair":false,"needsAddr":false},{"id":203232280,"name":"廟宇","lat":23.3446892,"lng":120.4238773,"address":null,"hasBabyChanging":false,"hasAccessible":false,"source":"OpenStreetMap","updatedAt":"2026-06-11T02:40:46.199Z","facilityType":"temple","facilityLabel":"🛕 廟宇","changingTable":false,"wheelchair":false,"needsAddr":true},{"id":203250836,"name":"華嚴寺","lat":23.3477377,"lng":120.4030937,"address":null,"hasBabyChanging":false,"hasAccessible":false,"source":"OpenStreetMap","updatedAt":"2026-06-11T02:40:46.199Z","facilityType":"temple","facilityLabel":"🛕 廟宇","changingTable":false,"wheelchair":false,"needsAddr":false},{"id":203250840,"name":"關帝廟","lat":23.3472472,"lng":120.4089412,"address":"臺南市白河區永安里10鄰新厝子70之24號","hasBabyChanging":false,"hasAccessible":false,"source":"OpenStreetMap","updatedAt":"2026-06-11T02:40:46.199Z","facilityType":"temple","facilityLabel":"🛕 廟宇","changingTable":false,"wheelchair":false,"needsAddr":false},{"id":203250841,"name":"善主公廟","lat":23.3784648,"lng":120.431574,"address":"臺南市白河區竹門里9鄰番子園28之6號","hasBabyChanging":false,"hasAccessible":false,"source":"OpenStreetMap","updatedAt":"2026-06-11T02:40:46.199Z","facilityType":"temple","facilityLabel":"🛕 廟宇","changingTable":false,"wheelchair":false,"needsAddr":false},{"id":206651496,"name":"廟宇","lat":23.3496555,"lng":120.4725728,"address":null,"hasBabyChanging":false,"hasAccessible":false,"source":"OpenStreetMap","updatedAt":"2026-06-11T02:40:46.199Z","facilityType":"temple","facilityLabel":"🛕 廟宇","changingTable":false,"wheelchair":false,"needsAddr":true},{"id":206787087,"name":"大仙寺商店區","lat":23.340946,"lng":120.4729702,"address":null,"hasBabyChanging":true,"hasAccessible":false,"source":"OpenStreetMap","updatedAt":"2026-06-11T02:40:46.199Z","facilityType":"department","facilityLabel":"🏬 百貨","changingTable":true,"wheelchair":false,"needsAddr":false},{"id":206787592,"name":"台灣電影文化城","lat":23.3151088,"lng":120.444845,"address":null,"hasBabyChanging":false,"hasAccessible":false,"source":"OpenStreetMap","updatedAt":"2026-06-11T02:40:46.199Z","facilityType":"theme_park","facilityLabel":"🎡 遊樂園","changingTable":false,"wheelchair":false,"needsAddr":false},{"id":206975884,"name":"紅葉公園","lat":23.3422959,"lng":120.5057951,"address":null,"hasBabyChanging":false,"hasAccessible":false,"source":"OpenStreetMap","updatedAt":"2026-06-11T02:40:46.199Z","facilityType":"park","facilityLabel":"🌳 公園","changingTable":false,"wheelchair":false,"needsAddr":false},{"id":208009929,"name":"仙祖廟","lat":23.3241528,"lng":120.5127796,"address":null,"hasBabyChanging":false,"hasAccessible":false,"source":"OpenStreetMap","updatedAt":"2026-06-11T02:40:46.199Z","facilityType":"temple","facilityLabel":"🛕 廟宇","changingTable":false,"wheelchair":false,"needsAddr":false},{"id":210003786,"name":"崁頂福安宮","lat":23.2973695,"lng":120.5029238,"address":"732臺南市白河區南寮111號","hasBabyChanging":false,"hasAccessible":false,"source":"OpenStreetMap","updatedAt":"2026-06-11T02:40:46.199Z","facilityType":"temple","facilityLabel":"🛕 廟宇","changingTable":false,"wheelchair":false,"needsAddr":false},{"id":285363891,"name":"玉豐派出所","lat":23.3788079,"lng":120.4166043,"address":null,"hasBabyChanging":false,"hasAccessible":false,"source":"OpenStreetMap","updatedAt":"2026-06-11T02:40:46.199Z","facilityType":"police","facilityLabel":"🚔 派出所","changingTable":false,"wheelchair":false,"needsAddr":false},{"id":285628090,"name":"廟宇","lat":23.376457,"lng":120.4153708,"address":null,"hasBabyChanging":false,"hasAccessible":false,"source":"OpenStreetMap","updatedAt":"2026-06-11T02:40:46.199Z","facilityType":"temple","facilityLabel":"🛕 廟宇","changingTable":false,"wheelchair":false,"needsAddr":true},{"id":285628110,"name":"廟宇","lat":23.3893393,"lng":120.4036655,"address":null,"hasBabyChanging":false,"hasAccessible":false,"source":"OpenStreetMap","updatedAt":"2026-06-11T02:40:46.199Z","facilityType":"temple","facilityLabel":"🛕 廟宇","changingTable":false,"wheelchair":false,"needsAddr":true},{"id":285628403,"name":"白河鎮蓮花","lat":23.3624724,"lng":120.4129386,"address":null,"hasBabyChanging":false,"hasAccessible":false,"source":"OpenStreetMap","updatedAt":"2026-06-11T02:40:46.199Z","facilityType":"attraction","facilityLabel":"🏞️ 景點","changingTable":false,"wheelchair":false,"needsAddr":false},{"id":285628930,"name":"茂勝休閒生態教育農場","lat":23.365835,"lng":120.4128515,"address":null,"hasBabyChanging":false,"hasAccessible":false,"source":"OpenStreetMap","updatedAt":"2026-06-11T02:40:46.199Z","facilityType":"attraction","facilityLabel":"🏞️ 景點","changingTable":false,"wheelchair":false,"needsAddr":false},{"id":296781281,"name":"永安里活動中心","lat":23.3529156,"lng":120.4122578,"address":"臺南市白河區永安里3鄰大德街1號","hasBabyChanging":false,"hasAccessible":false,"source":"OpenStreetMap","updatedAt":"2026-06-11T02:40:46.199Z","facilityType":"community","facilityLabel":"🏘️ 活動中心","changingTable":false,"wheelchair":false,"needsAddr":false},{"id":296781283,"name":"台灣中油","lat":23.3557501,"lng":120.4121774,"address":"732台南市白河區富民路769號","hasBabyChanging":false,"hasAccessible":false,"source":"OpenStreetMap","updatedAt":"2026-06-11T02:40:46.199Z","facilityType":"fuel","facilityLabel":"⛽ 加油站","changingTable":false,"wheelchair":false,"needsAddr":false},{"id":296781608,"name":"白河蓮花產業文化資訊館","lat":23.3808559,"lng":120.4163856,"address":null,"hasBabyChanging":false,"hasAccessible":false,"source":"OpenStreetMap","updatedAt":"2026-06-11T02:40:46.199Z","facilityType":"attraction","facilityLabel":"🏞️ 景點","changingTable":false,"wheelchair":false,"needsAddr":false},{"id":296781978,"name":"白河區公所","lat":23.3512234,"lng":120.4156845,"address":"臺南市白河區三民路381號","hasBabyChanging":false,"hasAccessible":false,"source":"OpenStreetMap","updatedAt":"2026-06-11T02:40:46.199Z","facilityType":"government","facilityLabel":"🏛 公務機關","changingTable":false,"wheelchair":false,"needsAddr":false},{"id":296781979,"name":"白河分局","lat":23.3508963,"lng":120.416614,"address":"732台南市白河區中山路128號","hasBabyChanging":false,"hasAccessible":false,"source":"OpenStreetMap","updatedAt":"2026-06-11T02:40:46.199Z","facilityType":"police","facilityLabel":"🚔 派出所","changingTable":false,"wheelchair":false,"needsAddr":false},{"id":296781980,"name":"白河區戶政事務所","lat":23.3509526,"lng":120.4167968,"address":"73256臺南市白河區中山路128號","hasBabyChanging":false,"hasAccessible":false,"source":"OpenStreetMap","updatedAt":"2026-06-11T02:40:46.199Z","facilityType":"government","facilityLabel":"🏛 公務機關","changingTable":false,"wheelchair":false,"openingHours":"Mo-Fr 08:00-17:30","needsAddr":false},{"id":296782337,"name":"白河地政事務所","lat":23.3528,"lng":120.41284,"address":"723台南市白河區國泰路317號","hasBabyChanging":false,"hasAccessible":false,"source":"OpenStreetMap","updatedAt":"2026-06-11T02:40:46.199Z","facilityType":"government","facilityLabel":"🏛 公務機關","changingTable":false,"wheelchair":false,"needsAddr":false},{"id":296782434,"name":"白河區衛生所","lat":23.35202,"lng":120.4157558,"address":"73242台南市白河區國光路5號","hasBabyChanging":false,"hasAccessible":false,"source":"OpenStreetMap","updatedAt":"2026-06-11T02:40:46.199Z","facilityType":"clinic","facilityLabel":"🩺 診所","changingTable":false,"wheelchair":false,"needsAddr":false},{"id":296788730,"name":"診所","lat":23.3499242,"lng":120.4135296,"address":null,"hasBabyChanging":false,"hasAccessible":false,"source":"OpenStreetMap","updatedAt":"2026-06-11T02:40:46.199Z","facilityType":"clinic","facilityLabel":"🩺 診所","changingTable":false,"wheelchair":false,"needsAddr":true},{"id":298486219,"name":"台灣基督長老教會白河教會","lat":23.3512449,"lng":120.4166778,"address":null,"hasBabyChanging":false,"hasAccessible":false,"source":"OpenStreetMap","updatedAt":"2026-06-11T02:40:46.199Z","facilityType":"temple","facilityLabel":"🛕 廟宇","changingTable":false,"wheelchair":false,"needsAddr":false},{"id":298810480,"name":"廟宇","lat":23.3795817,"lng":120.4189568,"address":null,"hasBabyChanging":false,"hasAccessible":false,"source":"OpenStreetMap","updatedAt":"2026-06-11T02:40:46.199Z","facilityType":"temple","facilityLabel":"🛕 廟宇","changingTable":false,"wheelchair":false,"needsAddr":true},{"id":298811183,"name":"診所","lat":23.3772623,"lng":120.4171702,"address":null,"hasBabyChanging":false,"hasAccessible":false,"source":"OpenStreetMap","updatedAt":"2026-06-11T02:40:46.199Z","facilityType":"clinic","facilityLabel":"🩺 診所","changingTable":false,"wheelchair":false,"needsAddr":true},{"id":324477152,"name":"白河夜市","lat":23.3510396,"lng":120.4124896,"address":null,"hasBabyChanging":false,"hasAccessible":false,"source":"OpenStreetMap","updatedAt":"2026-06-11T02:40:46.199Z","facilityType":"nightmarket","facilityLabel":"🍢 夜市","changingTable":false,"wheelchair":false,"openingHours":"Su 17:30-21:30","needsAddr":false},{"id":329389189,"name":"廟宇","lat":23.3866268,"lng":120.4132514,"address":null,"hasBabyChanging":false,"hasAccessible":false,"source":"OpenStreetMap","updatedAt":"2026-06-11T02:40:46.199Z","facilityType":"temple","facilityLabel":"🛕 廟宇","changingTable":false,"wheelchair":false,"needsAddr":true},{"id":329407759,"name":"廟宇","lat":23.386317,"lng":120.4171729,"address":null,"hasBabyChanging":false,"hasAccessible":false,"source":"OpenStreetMap","updatedAt":"2026-06-11T02:40:46.199Z","facilityType":"temple","facilityLabel":"🛕 廟宇","changingTable":false,"wheelchair":false,"needsAddr":true},{"id":329407760,"name":"公共廁所","lat":23.3864138,"lng":120.4177774,"address":null,"hasBabyChanging":false,"hasAccessible":false,"source":"OpenStreetMap","updatedAt":"2026-06-11T02:40:46.199Z","facilityType":"toilet","facilityLabel":null,"changingTable":false,"wheelchair":false,"needsAddr":true},{"id":329600311,"name":"廟宇","lat":23.3817199,"lng":120.4244528,"address":null,"hasBabyChanging":false,"hasAccessible":false,"source":"OpenStreetMap","updatedAt":"2026-06-11T02:40:46.199Z","facilityType":"temple","facilityLabel":"🛕 廟宇","changingTable":false,"wheelchair":false,"needsAddr":true},{"id":329823930,"name":"舉人公廟","lat":23.3492398,"lng":120.4023864,"address":null,"hasBabyChanging":false,"hasAccessible":false,"source":"OpenStreetMap","updatedAt":"2026-06-11T02:40:46.199Z","facilityType":"temple","facilityLabel":"🛕 廟宇","changingTable":false,"wheelchair":false,"needsAddr":false},{"id":383604630,"name":"關子嶺老街","lat":23.3386515,"lng":120.5053932,"address":null,"hasBabyChanging":false,"hasAccessible":false,"source":"OpenStreetMap","updatedAt":"2026-06-11T02:40:46.199Z","facilityType":"oldstreet","facilityLabel":"🏮 老街","changingTable":false,"wheelchair":false,"needsAddr":false},{"id":493584099,"name":"台灣中油 白河站","lat":23.3492831,"lng":120.4075002,"address":null,"hasBabyChanging":false,"hasAccessible":false,"source":"OpenStreetMap","updatedAt":"2026-06-11T02:40:46.199Z","facilityType":"fuel","facilityLabel":"⛽ 加油站","changingTable":false,"wheelchair":false,"needsAddr":false},{"id":550074831,"name":"竹門派出所","lat":23.3762392,"lng":120.4449011,"address":"臺南市白河區竹門里125號","hasBabyChanging":false,"hasAccessible":false,"source":"OpenStreetMap","updatedAt":"2026-06-11T02:40:46.199Z","facilityType":"government","facilityLabel":"🏛 公務機關","changingTable":false,"wheelchair":false,"needsAddr":false},{"id":554822842,"name":"白河轉運站","lat":23.3473872,"lng":120.4134227,"address":"732台南市白河區中山路1號","hasBabyChanging":false,"hasAccessible":false,"source":"OpenStreetMap","updatedAt":"2026-06-11T02:40:46.199Z","facilityType":"bus","facilityLabel":"🚌 客運站","changingTable":false,"wheelchair":false,"needsAddr":false},{"id":581554674,"name":"公共廁所","lat":23.3407271,"lng":120.4732222,"address":null,"hasBabyChanging":false,"hasAccessible":false,"source":"OpenStreetMap","updatedAt":"2026-06-11T02:40:46.199Z","facilityType":"toilet","facilityLabel":null,"changingTable":false,"wheelchair":false,"needsAddr":true},{"id":581558656,"name":"公共廁所","lat":23.3393392,"lng":120.4736534,"address":null,"hasBabyChanging":false,"hasAccessible":false,"source":"OpenStreetMap","updatedAt":"2026-06-11T02:40:46.199Z","facilityType":"toilet","facilityLabel":null,"changingTable":false,"wheelchair":false,"needsAddr":true},{"id":581591583,"name":"公共廁所","lat":23.340062,"lng":120.4724166,"address":null,"hasBabyChanging":false,"hasAccessible":false,"source":"OpenStreetMap","updatedAt":"2026-06-11T02:40:46.199Z","facilityType":"toilet","facilityLabel":null,"changingTable":false,"wheelchair":false,"needsAddr":true},{"id":582412689,"name":"公共廁所","lat":23.3384889,"lng":120.4742991,"address":null,"hasBabyChanging":false,"hasAccessible":false,"source":"OpenStreetMap","updatedAt":"2026-06-11T02:40:46.199Z","facilityType":"toilet","facilityLabel":null,"changingTable":false,"wheelchair":false,"needsAddr":true},{"id":582417508,"name":"公共廁所","lat":23.3397087,"lng":120.475572,"address":null,"hasBabyChanging":false,"hasAccessible":false,"source":"OpenStreetMap","updatedAt":"2026-06-11T02:40:46.199Z","facilityType":"toilet","facilityLabel":null,"changingTable":false,"wheelchair":false,"needsAddr":true},{"id":668612517,"name":"白河天主堂","lat":23.3472598,"lng":120.4154961,"address":null,"hasBabyChanging":false,"hasAccessible":false,"source":"OpenStreetMap","updatedAt":"2026-06-11T02:40:46.199Z","facilityType":"temple","facilityLabel":"🛕 廟宇","changingTable":false,"wheelchair":false,"needsAddr":false},{"id":715313751,"name":"成正廟茄正公","lat":23.3916673,"lng":120.4327186,"address":null,"hasBabyChanging":false,"hasAccessible":false,"source":"OpenStreetMap","updatedAt":"2026-06-11T02:40:46.199Z","facilityType":"temple","facilityLabel":"🛕 廟宇","changingTable":false,"wheelchair":false,"needsAddr":false},{"id":715313764,"name":"彭祖廟","lat":23.3781317,"lng":120.4136116,"address":null,"hasBabyChanging":false,"hasAccessible":false,"source":"OpenStreetMap","updatedAt":"2026-06-11T02:40:46.199Z","facilityType":"temple","facilityLabel":"🛕 廟宇","changingTable":false,"wheelchair":false,"needsAddr":false},{"id":715313767,"name":"一貫道","lat":23.3669955,"lng":120.4634075,"address":null,"hasBabyChanging":false,"hasAccessible":false,"source":"OpenStreetMap","updatedAt":"2026-06-11T02:40:46.199Z","facilityType":"temple","facilityLabel":"🛕 廟宇","changingTable":false,"wheelchair":false,"needsAddr":false},{"id":715313769,"name":"社區生活館","lat":23.3663847,"lng":120.4622874,"address":null,"hasBabyChanging":false,"hasAccessible":false,"source":"OpenStreetMap","updatedAt":"2026-06-11T02:40:46.199Z","facilityType":"community","facilityLabel":"🏘️ 活動中心","changingTable":false,"wheelchair":false,"needsAddr":false},{"id":788725028,"name":"大林社區活動中心","lat":23.3360229,"lng":120.4412206,"address":"臺南市白河區檨子林20之16號","hasBabyChanging":false,"hasAccessible":false,"source":"OpenStreetMap","updatedAt":"2026-06-11T02:40:46.199Z","facilityType":"community","facilityLabel":"🏘️ 活動中心","changingTable":false,"wheelchair":false,"needsAddr":false},{"id":789117379,"name":"仙草社區活動中心","lat":23.345227,"lng":120.4733864,"address":"臺南市白河區仙草埔7之5號","hasBabyChanging":false,"hasAccessible":false,"source":"OpenStreetMap","updatedAt":"2026-06-11T02:40:46.199Z","facilityType":"community","facilityLabel":"🏘️ 活動中心","changingTable":false,"wheelchair":false,"needsAddr":false},{"id":914946822,"name":"小南海風景區","lat":23.3874728,"lng":120.3925502,"address":null,"hasBabyChanging":false,"hasAccessible":false,"source":"OpenStreetMap","updatedAt":"2026-06-11T02:40:46.199Z","facilityType":"attraction","facilityLabel":"🏞️ 景點","changingTable":false,"wheelchair":false,"needsAddr":false},{"id":992074613,"name":"公共廁所","lat":23.3183933,"lng":120.5095965,"address":null,"hasBabyChanging":false,"hasAccessible":false,"source":"OpenStreetMap","updatedAt":"2026-06-11T02:40:46.199Z","facilityType":"toilet","facilityLabel":null,"changingTable":false,"wheelchair":false,"needsAddr":true},{"id":998974784,"name":"神寶宮","lat":23.3920081,"lng":120.3983411,"address":null,"hasBabyChanging":false,"hasAccessible":false,"source":"OpenStreetMap","updatedAt":"2026-06-11T02:40:46.199Z","facilityType":"temple","facilityLabel":"🛕 廟宇","changingTable":false,"wheelchair":false,"needsAddr":false},{"id":1052311645,"name":"境安壇","lat":23.3185975,"lng":120.5097043,"address":null,"hasBabyChanging":false,"hasAccessible":false,"source":"OpenStreetMap","updatedAt":"2026-06-11T02:40:46.199Z","facilityType":"temple","facilityLabel":"🛕 廟宇","changingTable":false,"wheelchair":false,"needsAddr":false},{"id":1052399466,"name":"台灣木材故事館","lat":23.3370731,"lng":120.5035648,"address":"台南市白河區關子嶺30號","hasBabyChanging":false,"hasAccessible":false,"source":"OpenStreetMap","updatedAt":"2026-06-11T02:40:46.199Z","facilityType":"museum","facilityLabel":"🖼️ 博物館","changingTable":false,"wheelchair":false,"openingHours":"Tu-Su 09:30-16:00","needsAddr":false},{"id":1052399467,"name":"嘉義分署關子嶺工作站","lat":23.3372222,"lng":120.5034083,"address":"台南市白河區關子嶺31號","hasBabyChanging":false,"hasAccessible":false,"source":"OpenStreetMap","updatedAt":"2026-06-11T02:40:46.199Z","facilityType":"government","facilityLabel":"🏛 公務機關","changingTable":false,"wheelchair":false,"needsAddr":false},{"id":1082649046,"name":"三間厝全安宮","lat":23.3646392,"lng":120.4295965,"address":"臺南市白河區","hasBabyChanging":false,"hasAccessible":false,"source":"OpenStreetMap","updatedAt":"2026-06-11T02:40:46.199Z","facilityType":"temple","facilityLabel":"🛕 廟宇","changingTable":false,"wheelchair":false,"needsAddr":false},{"id":1136108018,"name":"台灣中油","lat":23.3453408,"lng":120.4120035,"address":null,"hasBabyChanging":false,"hasAccessible":false,"source":"OpenStreetMap","updatedAt":"2026-06-11T02:40:46.199Z","facilityType":"fuel","facilityLabel":"⛽ 加油站","changingTable":false,"wheelchair":false,"needsAddr":false},{"id":1160852405,"name":"六重溪公廨 (祖厝, 太祖五姐妹)","lat":23.3129087,"lng":120.4625688,"address":null,"hasBabyChanging":false,"hasAccessible":false,"source":"OpenStreetMap","updatedAt":"2026-06-11T02:40:46.199Z","facilityType":"temple","facilityLabel":"🛕 廟宇","changingTable":false,"wheelchair":false,"needsAddr":false},{"id":1165019766,"name":"公共廁所","lat":23.313024,"lng":120.4627334,"address":null,"hasBabyChanging":false,"hasAccessible":false,"source":"OpenStreetMap","updatedAt":"2026-06-11T02:40:46.199Z","facilityType":"toilet","facilityLabel":null,"changingTable":false,"wheelchair":false,"needsAddr":true},{"id":1210085183,"name":"臺南市白河區庄內外角里聯合活動中心","lat":23.3553776,"lng":120.4198391,"address":"臺南市白河區庄內里7鄰裕農路310號","hasBabyChanging":false,"hasAccessible":false,"source":"OpenStreetMap","updatedAt":"2026-06-11T02:40:46.199Z","facilityType":"community","facilityLabel":"🏘️ 活動中心","changingTable":false,"wheelchair":false,"needsAddr":false},{"id":1286205870,"name":"善音寺","lat":23.3261968,"lng":120.4872029,"address":null,"hasBabyChanging":false,"hasAccessible":false,"source":"OpenStreetMap","updatedAt":"2026-06-11T02:40:46.199Z","facilityType":"temple","facilityLabel":"🛕 廟宇","changingTable":false,"wheelchair":false,"needsAddr":false},{"id":1339380680,"name":"白河里活動中心","lat":23.3461835,"lng":120.4170949,"address":"臺南市白河區白河里2鄰康樂路2之18號","hasBabyChanging":false,"hasAccessible":false,"source":"OpenStreetMap","updatedAt":"2026-06-11T02:40:46.199Z","facilityType":"community","facilityLabel":"🏘️ 活動中心","changingTable":false,"wheelchair":false,"needsAddr":false},{"id":1355322484,"name":"廣澤尊王宮","lat":23.3774418,"lng":120.4384151,"address":"臺南市白河區竹門里7鄰竹圍子10號","hasBabyChanging":false,"hasAccessible":false,"source":"OpenStreetMap","updatedAt":"2026-06-11T02:40:46.199Z","facilityType":"temple","facilityLabel":"🛕 廟宇","changingTable":false,"wheelchair":false,"needsAddr":false},{"id":1355368255,"name":"張慶芳紀念圖書館","lat":23.3534391,"lng":120.4143347,"address":"732臺南市白河區新興路573號","hasBabyChanging":false,"hasAccessible":false,"source":"OpenStreetMap","updatedAt":"2026-06-11T02:40:46.199Z","facilityType":"library","facilityLabel":"📚 圖書館","changingTable":false,"wheelchair":false,"openingHours":"08:00-17:00","needsAddr":false},{"id":1435010220,"name":"險潭公廨","lat":23.3546056,"lng":120.4898686,"address":"臺南市白河區仙草里13鄰白水溪47之7號","hasBabyChanging":false,"hasAccessible":false,"source":"OpenStreetMap","updatedAt":"2026-06-11T02:40:46.199Z","facilityType":"temple","facilityLabel":"🛕 廟宇","changingTable":false,"wheelchair":false,"needsAddr":false},{"id":1511823459,"name":"活動中心","lat":23.3771121,"lng":120.4443349,"address":null,"hasBabyChanging":false,"hasAccessible":false,"source":"OpenStreetMap","updatedAt":"2026-06-11T02:40:46.199Z","facilityType":"community","facilityLabel":"🏘️ 活動中心","changingTable":false,"wheelchair":false,"needsAddr":true},{"id":1527240010,"name":"廟宇","lat":23.3432884,"lng":120.4360376,"address":null,"hasBabyChanging":false,"hasAccessible":false,"source":"OpenStreetMap","updatedAt":"2026-06-11T02:40:46.199Z","facilityType":"temple","facilityLabel":"🛕 廟宇","changingTable":false,"wheelchair":false,"needsAddr":true},{"id":1527240011,"name":"河東農村社區活動中心","lat":23.3433175,"lng":120.4358864,"address":"臺南市白河區糞箕湖80之19號","hasBabyChanging":false,"hasAccessible":false,"source":"OpenStreetMap","updatedAt":"2026-06-11T02:40:46.199Z","facilityType":"community","facilityLabel":"🏘️ 活動中心","changingTable":false,"wheelchair":false,"needsAddr":false},{"id":1527240134,"name":"仙草派出所","lat":23.3454102,"lng":120.4732342,"address":"臺南市白河區仙草里仙草7之1號","hasBabyChanging":false,"hasAccessible":false,"source":"OpenStreetMap","updatedAt":"2026-06-11T02:40:46.199Z","facilityType":"police","facilityLabel":"🚔 派出所","changingTable":false,"wheelchair":false,"needsAddr":false}]}