{"city":"台南市","district":"麻豆區","category":"toilets","updatedAt":"2026-06-11T02:40:46.199Z","rev":1,"count":120,"items":[{"id":1444705988,"name":"廟宇","lat":23.1788601,"lng":120.248784,"address":null,"hasBabyChanging":false,"hasAccessible":false,"source":"OpenStreetMap","updatedAt":"2026-06-11T02:40:46.199Z","facilityType":"temple","facilityLabel":"🛕 廟宇","changingTable":false,"wheelchair":false,"needsAddr":true},{"id":1489390790,"name":"麥當勞 台南麻豆餐廳","lat":23.1837925,"lng":120.2456115,"address":"721臺南市麻豆區中山路84號","hasBabyChanging":false,"hasAccessible":false,"source":"OpenStreetMap","updatedAt":"2026-06-11T02:40:46.199Z","facilityType":"mcdonalds","facilityLabel":"🍔 麥當勞","changingTable":false,"wheelchair":false,"needsAddr":false},{"id":1490293324,"name":"台灣中油","lat":23.1835658,"lng":120.247447,"address":"721臺南市麻豆區中山路13號","hasBabyChanging":false,"hasAccessible":false,"source":"OpenStreetMap","updatedAt":"2026-06-11T02:40:46.199Z","facilityType":"fuel","facilityLabel":"⛽ 加油站","changingTable":false,"wheelchair":false,"needsAddr":false},{"id":1490293326,"name":"公共廁所","lat":23.1764108,"lng":120.2466932,"address":null,"hasBabyChanging":false,"hasAccessible":false,"source":"OpenStreetMap","updatedAt":"2026-06-11T02:40:46.199Z","facilityType":"toilet","facilityLabel":null,"changingTable":false,"wheelchair":false,"needsAddr":true},{"id":1491156694,"name":"麻豆戲院","lat":23.1835652,"lng":120.2512148,"address":null,"hasBabyChanging":false,"hasAccessible":false,"source":"OpenStreetMap","updatedAt":"2026-06-11T02:40:46.199Z","facilityType":"cinema","facilityLabel":"🎬 電影院","changingTable":false,"wheelchair":false,"needsAddr":false},{"id":1496716671,"name":"台糖加油站 文正店","lat":23.1891391,"lng":120.268805,"address":null,"hasBabyChanging":false,"hasAccessible":false,"source":"OpenStreetMap","updatedAt":"2026-06-11T02:40:46.199Z","facilityType":"fuel","facilityLabel":"⛽ 加油站","changingTable":false,"wheelchair":false,"needsAddr":false},{"id":1497630295,"name":"廟宇","lat":23.1844301,"lng":120.2429388,"address":null,"hasBabyChanging":false,"hasAccessible":false,"source":"OpenStreetMap","updatedAt":"2026-06-11T02:40:46.199Z","facilityType":"temple","facilityLabel":"🛕 廟宇","changingTable":false,"wheelchair":false,"needsAddr":true},{"id":1498398319,"name":"公共廁所","lat":23.1907092,"lng":120.2203327,"address":null,"hasBabyChanging":false,"hasAccessible":false,"source":"OpenStreetMap","updatedAt":"2026-06-11T02:40:46.199Z","facilityType":"toilet","facilityLabel":null,"changingTable":false,"wheelchair":false,"needsAddr":true},{"id":1498398417,"name":"派出所","lat":23.1914291,"lng":120.2276068,"address":null,"hasBabyChanging":false,"hasAccessible":false,"source":"OpenStreetMap","updatedAt":"2026-06-11T02:40:46.199Z","facilityType":"police","facilityLabel":"🚔 派出所","changingTable":false,"wheelchair":false,"needsAddr":true},{"id":1502703361,"name":"北極殿","lat":23.1619607,"lng":120.2470276,"address":null,"hasBabyChanging":false,"hasAccessible":false,"source":"OpenStreetMap","updatedAt":"2026-06-11T02:40:46.199Z","facilityType":"temple","facilityLabel":"🛕 廟宇","changingTable":false,"wheelchair":false,"needsAddr":false},{"id":1506625797,"name":"廟宇","lat":23.193037,"lng":120.2097199,"address":null,"hasBabyChanging":false,"hasAccessible":false,"source":"OpenStreetMap","updatedAt":"2026-06-11T02:40:46.199Z","facilityType":"temple","facilityLabel":"🛕 廟宇","changingTable":false,"wheelchair":false,"needsAddr":true},{"id":1508490365,"name":"公共廁所","lat":23.2212825,"lng":120.2221022,"address":null,"hasBabyChanging":false,"hasAccessible":false,"source":"OpenStreetMap","updatedAt":"2026-06-11T02:40:46.199Z","facilityType":"toilet","facilityLabel":null,"changingTable":false,"wheelchair":false,"needsAddr":true},{"id":1509009491,"name":"廟宇","lat":23.1599,"lng":120.2422595,"address":null,"hasBabyChanging":false,"hasAccessible":false,"source":"OpenStreetMap","updatedAt":"2026-06-11T02:40:46.199Z","facilityType":"temple","facilityLabel":"🛕 廟宇","changingTable":false,"wheelchair":false,"needsAddr":true},{"id":1512687997,"name":"護安宮","lat":23.1895519,"lng":120.281997,"address":null,"hasBabyChanging":false,"hasAccessible":false,"source":"OpenStreetMap","updatedAt":"2026-06-11T02:40:46.199Z","facilityType":"temple","facilityLabel":"🛕 廟宇","changingTable":false,"wheelchair":false,"needsAddr":false},{"id":1573735730,"name":"昭清中醫診所","lat":23.1836261,"lng":120.2468459,"address":null,"hasBabyChanging":false,"hasAccessible":false,"source":"OpenStreetMap","updatedAt":"2026-06-11T02:40:46.199Z","facilityType":"clinic","facilityLabel":"🩺 診所","changingTable":false,"wheelchair":false,"needsAddr":false},{"id":1591336765,"name":"福安宮","lat":23.1984686,"lng":120.2113985,"address":null,"hasBabyChanging":false,"hasAccessible":false,"source":"OpenStreetMap","updatedAt":"2026-06-11T02:40:46.199Z","facilityType":"temple","facilityLabel":"🛕 廟宇","changingTable":false,"wheelchair":false,"needsAddr":false},{"id":1664195808,"name":"診所","lat":23.1843547,"lng":120.244587,"address":null,"hasBabyChanging":false,"hasAccessible":false,"source":"OpenStreetMap","updatedAt":"2026-06-11T02:40:46.199Z","facilityType":"clinic","facilityLabel":"🩺 診所","changingTable":false,"wheelchair":false,"needsAddr":true},{"id":1849668317,"name":"金山岩","lat":23.1708506,"lng":120.2346613,"address":null,"hasBabyChanging":false,"hasAccessible":false,"source":"OpenStreetMap","updatedAt":"2026-06-11T02:40:46.199Z","facilityType":"temple","facilityLabel":"🛕 廟宇","changingTable":false,"wheelchair":false,"needsAddr":false},{"id":1918665182,"name":"廟宇","lat":23.1971534,"lng":120.2519679,"address":null,"hasBabyChanging":false,"hasAccessible":false,"source":"OpenStreetMap","updatedAt":"2026-06-11T02:40:46.199Z","facilityType":"temple","facilityLabel":"🛕 廟宇","changingTable":false,"wheelchair":false,"needsAddr":true},{"id":1919124441,"name":"信安宮","lat":23.1974523,"lng":120.2114932,"address":null,"hasBabyChanging":false,"hasAccessible":false,"source":"OpenStreetMap","updatedAt":"2026-06-11T02:40:46.199Z","facilityType":"temple","facilityLabel":"🛕 廟宇","changingTable":false,"wheelchair":false,"needsAddr":false},{"id":1919124446,"name":"大山宮","lat":23.1943073,"lng":120.2219193,"address":null,"hasBabyChanging":false,"hasAccessible":false,"source":"OpenStreetMap","updatedAt":"2026-06-11T02:40:46.199Z","facilityType":"temple","facilityLabel":"🛕 廟宇","changingTable":false,"wheelchair":false,"needsAddr":false},{"id":1919124467,"name":"石安宮","lat":23.1971597,"lng":120.2204359,"address":null,"hasBabyChanging":false,"hasAccessible":false,"source":"OpenStreetMap","updatedAt":"2026-06-11T02:40:46.199Z","facilityType":"temple","facilityLabel":"🛕 廟宇","changingTable":false,"wheelchair":false,"needsAddr":false},{"id":1919124473,"name":"謝正宮","lat":23.197399,"lng":120.1991627,"address":null,"hasBabyChanging":false,"hasAccessible":false,"source":"OpenStreetMap","updatedAt":"2026-06-11T02:40:46.199Z","facilityType":"temple","facilityLabel":"🛕 廟宇","changingTable":false,"wheelchair":false,"needsAddr":false},{"id":1919124479,"name":"陳府元帥","lat":23.189795,"lng":120.2143098,"address":null,"hasBabyChanging":false,"hasAccessible":false,"source":"OpenStreetMap","updatedAt":"2026-06-11T02:40:46.199Z","facilityType":"temple","facilityLabel":"🛕 廟宇","changingTable":false,"wheelchair":false,"needsAddr":false},{"id":1926645018,"name":"麻豆區區民代表","lat":23.1828103,"lng":120.2484062,"address":null,"hasBabyChanging":false,"hasAccessible":false,"source":"OpenStreetMap","updatedAt":"2026-06-11T02:40:46.199Z","facilityType":"community","facilityLabel":"🏘️ 活動中心","changingTable":false,"wheelchair":false,"needsAddr":false},{"id":2491648438,"name":"柳府千歲","lat":23.1544212,"lng":120.2424245,"address":null,"hasBabyChanging":false,"hasAccessible":false,"source":"OpenStreetMap","updatedAt":"2026-06-11T02:40:46.199Z","facilityType":"temple","facilityLabel":"🛕 廟宇","changingTable":false,"wheelchair":false,"needsAddr":false},{"id":2505617348,"name":"黃府千歲","lat":23.1658151,"lng":120.2454514,"address":null,"hasBabyChanging":false,"hasAccessible":false,"source":"OpenStreetMap","updatedAt":"2026-06-11T02:40:46.199Z","facilityType":"temple","facilityLabel":"🛕 廟宇","changingTable":false,"wheelchair":false,"needsAddr":false},{"id":2536765853,"name":"總爺派出所","lat":23.1839534,"lng":120.2670754,"address":"臺南市麻豆區南勢里南勢93號","hasBabyChanging":false,"hasAccessible":false,"source":"OpenStreetMap","updatedAt":"2026-06-11T02:40:46.199Z","facilityType":"police","facilityLabel":"🚔 派出所","changingTable":false,"wheelchair":false,"needsAddr":false},{"id":3199920616,"name":"德昌中醫聯合診所","lat":23.1842144,"lng":120.2457965,"address":null,"hasBabyChanging":false,"hasAccessible":false,"source":"OpenStreetMap","updatedAt":"2026-06-11T02:40:46.199Z","facilityType":"clinic","facilityLabel":"🩺 診所","changingTable":false,"wheelchair":false,"needsAddr":false},{"id":4825530162,"name":"SL348蒸汽機車頭","lat":23.1841957,"lng":120.2683388,"address":null,"hasBabyChanging":false,"hasAccessible":false,"source":"OpenStreetMap","updatedAt":"2026-06-11T02:40:46.199Z","facilityType":"attraction","facilityLabel":"🏞️ 景點","changingTable":false,"wheelchair":false,"fee":"no","openingHours":"24/7","needsAddr":false},{"id":8069247574,"name":"台灣中油","lat":23.1792262,"lng":120.2289462,"address":null,"hasBabyChanging":false,"hasAccessible":false,"source":"OpenStreetMap","updatedAt":"2026-06-11T02:40:46.199Z","facilityType":"fuel","facilityLabel":"⛽ 加油站","changingTable":false,"wheelchair":false,"needsAddr":false},{"id":8069247580,"name":"東龍診所","lat":23.1769886,"lng":120.2471021,"address":null,"hasBabyChanging":false,"hasAccessible":false,"source":"OpenStreetMap","updatedAt":"2026-06-11T02:40:46.199Z","facilityType":"clinic","facilityLabel":"🩺 診所","changingTable":false,"wheelchair":false,"needsAddr":false},{"id":8070370611,"name":"台亞加油站","lat":23.1838962,"lng":120.2381328,"address":null,"hasBabyChanging":false,"hasAccessible":false,"source":"OpenStreetMap","updatedAt":"2026-06-11T02:40:46.199Z","facilityType":"fuel","facilityLabel":"⛽ 加油站","changingTable":false,"wheelchair":false,"needsAddr":false},{"id":8070370612,"name":"台亞加油站","lat":23.1783028,"lng":120.2249444,"address":null,"hasBabyChanging":false,"hasAccessible":false,"source":"OpenStreetMap","updatedAt":"2026-06-11T02:40:46.199Z","facilityType":"fuel","facilityLabel":"⛽ 加油站","changingTable":false,"wheelchair":false,"needsAddr":false},{"id":8070370613,"name":"台亞加油站","lat":23.178648,"lng":120.2288175,"address":null,"hasBabyChanging":false,"hasAccessible":false,"source":"OpenStreetMap","updatedAt":"2026-06-11T02:40:46.199Z","facilityType":"fuel","facilityLabel":"⛽ 加油站","changingTable":false,"wheelchair":false,"needsAddr":false},{"id":10539905087,"name":"公共廁所","lat":23.1862051,"lng":120.2679859,"address":null,"hasBabyChanging":false,"hasAccessible":false,"source":"OpenStreetMap","updatedAt":"2026-06-11T02:40:46.199Z","facilityType":"toilet","facilityLabel":null,"changingTable":false,"wheelchair":false,"needsAddr":true},{"id":10539905113,"name":"公共廁所","lat":23.1902649,"lng":120.2687917,"address":null,"hasBabyChanging":false,"hasAccessible":false,"source":"OpenStreetMap","updatedAt":"2026-06-11T02:40:46.199Z","facilityType":"toilet","facilityLabel":null,"changingTable":false,"wheelchair":false,"needsAddr":true},{"id":10720617440,"name":"大台南公車故事館","lat":23.1852464,"lng":120.2391472,"address":null,"hasBabyChanging":false,"hasAccessible":false,"source":"OpenStreetMap","updatedAt":"2026-06-11T02:40:46.199Z","facilityType":"museum","facilityLabel":"🖼️ 博物館","changingTable":false,"wheelchair":false,"needsAddr":false},{"id":11032149408,"name":"星巴克 台南麻豆門市","lat":23.1876947,"lng":120.2514398,"address":"臺南市麻豆區中正路139號","hasBabyChanging":false,"hasAccessible":false,"source":"OpenStreetMap","updatedAt":"2026-06-11T02:40:46.199Z","facilityType":"starbucks","facilityLabel":"☕ 星巴克","changingTable":false,"wheelchair":false,"openingHours":"Mo-Su 07:00-21:00","needsAddr":false},{"id":11059311537,"name":"麻豆區衛生所 501327002","lat":23.18229,"lng":120.2482,"address":null,"hasBabyChanging":false,"hasAccessible":false,"source":"OpenStreetMap","updatedAt":"2026-06-11T02:40:46.199Z","facilityType":"clinic","facilityLabel":"🩺 診所","changingTable":false,"wheelchair":false,"fee":"yes","openingHours":"24/7","needsAddr":false},{"id":13626278441,"name":"公共廁所","lat":23.1898726,"lng":120.2599522,"address":null,"hasBabyChanging":false,"hasAccessible":false,"source":"OpenStreetMap","updatedAt":"2026-06-11T02:40:46.199Z","facilityType":"toilet","facilityLabel":null,"changingTable":false,"wheelchair":false,"fee":"no","needsAddr":true},{"id":13666913641,"name":"十八地獄","lat":23.1904167,"lng":120.2595773,"address":null,"hasBabyChanging":false,"hasAccessible":false,"source":"OpenStreetMap","updatedAt":"2026-06-11T02:40:46.199Z","facilityType":"attraction","facilityLabel":"🏞️ 景點","changingTable":false,"wheelchair":false,"needsAddr":false},{"id":13666913664,"name":"天堂","lat":23.1898015,"lng":120.25952,"address":null,"hasBabyChanging":false,"hasAccessible":false,"source":"OpenStreetMap","updatedAt":"2026-06-11T02:40:46.199Z","facilityType":"attraction","facilityLabel":"🏞️ 景點","changingTable":false,"wheelchair":false,"needsAddr":false},{"id":13685690950,"name":"公共廁所","lat":23.1864722,"lng":120.2699535,"address":null,"hasBabyChanging":false,"hasAccessible":false,"source":"OpenStreetMap","updatedAt":"2026-06-11T02:40:46.199Z","facilityType":"toilet","facilityLabel":null,"changingTable":false,"wheelchair":false,"needsAddr":true},{"id":135635441,"name":"台灣中油","lat":23.1764162,"lng":120.246585,"address":null,"hasBabyChanging":false,"hasAccessible":false,"source":"OpenStreetMap","updatedAt":"2026-06-11T02:40:46.199Z","facilityType":"fuel","facilityLabel":"⛽ 加油站","changingTable":false,"wheelchair":false,"needsAddr":false},{"id":135644850,"name":"廟宇","lat":23.1833715,"lng":120.2469023,"address":null,"hasBabyChanging":false,"hasAccessible":false,"source":"OpenStreetMap","updatedAt":"2026-06-11T02:40:46.199Z","facilityType":"temple","facilityLabel":"🛕 廟宇","changingTable":false,"wheelchair":false,"needsAddr":true},{"id":135659977,"name":"北極殿(上帝廟)","lat":23.1843164,"lng":120.2496312,"address":null,"hasBabyChanging":false,"hasAccessible":false,"source":"OpenStreetMap","updatedAt":"2026-06-11T02:40:46.199Z","facilityType":"temple","facilityLabel":"🛕 廟宇","changingTable":false,"wheelchair":false,"needsAddr":false},{"id":135791331,"name":"文昌祠","lat":23.1867807,"lng":120.2549875,"address":null,"hasBabyChanging":false,"hasAccessible":false,"source":"OpenStreetMap","updatedAt":"2026-06-11T02:40:46.199Z","facilityType":"temple","facilityLabel":"🛕 廟宇","changingTable":false,"wheelchair":false,"needsAddr":false},{"id":136456039,"name":"曾文農工","lat":23.1892252,"lng":120.2630999,"address":"臺南市麻豆區南勢里10鄰南勢1號","hasBabyChanging":false,"hasAccessible":false,"source":"OpenStreetMap","updatedAt":"2026-06-11T02:40:46.199Z","facilityType":"university","facilityLabel":"🎓 大專院校","changingTable":false,"wheelchair":false,"needsAddr":false},{"id":136978170,"name":"地藏庵","lat":23.1585561,"lng":120.2492232,"address":null,"hasBabyChanging":false,"hasAccessible":false,"source":"OpenStreetMap","updatedAt":"2026-06-11T02:40:46.199Z","facilityType":"temple","facilityLabel":"🛕 廟宇","changingTable":false,"wheelchair":false,"needsAddr":false},{"id":137304872,"name":"真理大學台南校區","lat":23.2177447,"lng":120.2253795,"address":"臺南市麻豆區北勢里10鄰北勢寮68號之11","hasBabyChanging":false,"hasAccessible":false,"source":"OpenStreetMap","updatedAt":"2026-06-11T02:40:46.199Z","facilityType":"university","facilityLabel":"🎓 大專院校","changingTable":false,"wheelchair":false,"needsAddr":false},{"id":137369365,"name":"麻豆區公所","lat":23.1848571,"lng":120.2584987,"address":null,"hasBabyChanging":false,"hasAccessible":false,"source":"OpenStreetMap","updatedAt":"2026-06-11T02:40:46.199Z","facilityType":"government","facilityLabel":"🏛 公務機關","changingTable":false,"wheelchair":false,"needsAddr":false},{"id":137381069,"name":"油車里活動中心","lat":23.1879244,"lng":120.2431712,"address":null,"hasBabyChanging":false,"hasAccessible":false,"source":"OpenStreetMap","updatedAt":"2026-06-11T02:40:46.199Z","facilityType":"community","facilityLabel":"🏘️ 活動中心","changingTable":false,"wheelchair":false,"needsAddr":false},{"id":137943461,"name":"麻豆代天府","lat":23.1902117,"lng":120.2601945,"address":"臺南市麻豆區南勢里8鄰関帝庙60號","hasBabyChanging":false,"hasAccessible":false,"source":"OpenStreetMap","updatedAt":"2026-06-11T02:40:46.199Z","facilityType":"temple","facilityLabel":"🛕 廟宇","changingTable":false,"wheelchair":false,"needsAddr":false},{"id":138300157,"name":"淩宵寶殿","lat":23.190353,"lng":120.25534,"address":null,"hasBabyChanging":false,"hasAccessible":false,"source":"OpenStreetMap","updatedAt":"2026-06-11T02:40:46.199Z","facilityType":"temple","facilityLabel":"🛕 廟宇","changingTable":false,"wheelchair":false,"needsAddr":false},{"id":181494716,"name":"麻豆鱷魚大王","lat":23.1896043,"lng":120.2354615,"address":null,"hasBabyChanging":false,"hasAccessible":false,"source":"OpenStreetMap","updatedAt":"2026-06-11T02:40:46.199Z","facilityType":"attraction","facilityLabel":"🏞️ 景點","changingTable":false,"wheelchair":false,"needsAddr":false},{"id":241084322,"name":"太子宮","lat":23.1616247,"lng":120.2445912,"address":"臺南市麻豆區安業272-3號","hasBabyChanging":false,"hasAccessible":false,"source":"OpenStreetMap","updatedAt":"2026-06-11T02:40:46.199Z","facilityType":"temple","facilityLabel":"🛕 廟宇","changingTable":false,"wheelchair":false,"needsAddr":false},{"id":241084353,"name":"安業派出所","lat":23.159325,"lng":120.2461335,"address":"臺南市麻豆區安業里安業112號","hasBabyChanging":false,"hasAccessible":false,"source":"OpenStreetMap","updatedAt":"2026-06-11T02:40:46.199Z","facilityType":"police","facilityLabel":"🚔 派出所","changingTable":false,"wheelchair":false,"needsAddr":false},{"id":241532427,"name":"紀安宮","lat":23.1488199,"lng":120.2373099,"address":null,"hasBabyChanging":false,"hasAccessible":false,"source":"OpenStreetMap","updatedAt":"2026-06-11T02:40:46.199Z","facilityType":"temple","facilityLabel":"🛕 廟宇","changingTable":false,"wheelchair":false,"needsAddr":false},{"id":241557939,"name":"中安宮","lat":23.1599851,"lng":120.2432578,"address":null,"hasBabyChanging":false,"hasAccessible":false,"source":"OpenStreetMap","updatedAt":"2026-06-11T02:40:46.199Z","facilityType":"temple","facilityLabel":"🛕 廟宇","changingTable":false,"wheelchair":false,"needsAddr":false},{"id":241557942,"name":"東安宮","lat":23.1595401,"lng":120.2417769,"address":null,"hasBabyChanging":false,"hasAccessible":false,"source":"OpenStreetMap","updatedAt":"2026-06-11T02:40:46.199Z","facilityType":"temple","facilityLabel":"🛕 廟宇","changingTable":false,"wheelchair":false,"needsAddr":false},{"id":241600940,"name":"良皇宮","lat":23.1806773,"lng":120.2441616,"address":null,"hasBabyChanging":false,"hasAccessible":false,"source":"OpenStreetMap","updatedAt":"2026-06-11T02:40:46.199Z","facilityType":"temple","facilityLabel":"🛕 廟宇","changingTable":false,"wheelchair":false,"needsAddr":false},{"id":242142690,"name":"麻豆圖書館","lat":23.1828706,"lng":120.2485194,"address":null,"hasBabyChanging":false,"hasAccessible":false,"source":"OpenStreetMap","updatedAt":"2026-06-11T02:40:46.199Z","facilityType":"library","facilityLabel":"📚 圖書館","changingTable":false,"wheelchair":false,"needsAddr":false},{"id":242142693,"name":"麻豆分局","lat":23.1827132,"lng":120.2477043,"address":null,"hasBabyChanging":false,"hasAccessible":false,"source":"OpenStreetMap","updatedAt":"2026-06-11T02:40:46.199Z","facilityType":"government","facilityLabel":"🏛 公務機關","changingTable":false,"wheelchair":false,"needsAddr":false},{"id":242679103,"name":"保安宮","lat":23.1838165,"lng":120.2490696,"address":null,"hasBabyChanging":false,"hasAccessible":false,"source":"OpenStreetMap","updatedAt":"2026-06-11T02:40:46.199Z","facilityType":"temple","facilityLabel":"🛕 廟宇","changingTable":false,"wheelchair":false,"needsAddr":false},{"id":242679104,"name":"平安宮(三角仔廟)","lat":23.1864848,"lng":120.2482332,"address":null,"hasBabyChanging":false,"hasAccessible":false,"source":"OpenStreetMap","updatedAt":"2026-06-11T02:40:46.199Z","facilityType":"temple","facilityLabel":"🛕 廟宇","changingTable":false,"wheelchair":false,"needsAddr":false},{"id":242679105,"name":"聖王宮","lat":23.1863659,"lng":120.2462456,"address":null,"hasBabyChanging":false,"hasAccessible":false,"source":"OpenStreetMap","updatedAt":"2026-06-11T02:40:46.199Z","facilityType":"temple","facilityLabel":"🛕 廟宇","changingTable":false,"wheelchair":false,"needsAddr":false},{"id":242679106,"name":"護濟宮(媽祖宮)","lat":23.184723,"lng":120.2461048,"address":null,"hasBabyChanging":false,"hasAccessible":false,"source":"OpenStreetMap","updatedAt":"2026-06-11T02:40:46.199Z","facilityType":"temple","facilityLabel":"🛕 廟宇","changingTable":false,"wheelchair":false,"needsAddr":false},{"id":242826806,"name":"三娘廟","lat":23.1869374,"lng":120.25569,"address":null,"hasBabyChanging":false,"hasAccessible":false,"source":"OpenStreetMap","updatedAt":"2026-06-11T02:40:46.199Z","facilityType":"temple","facilityLabel":"🛕 廟宇","changingTable":false,"wheelchair":false,"needsAddr":false},{"id":242826808,"name":"天后宮","lat":23.1841621,"lng":120.2565242,"address":null,"hasBabyChanging":false,"hasAccessible":false,"source":"OpenStreetMap","updatedAt":"2026-06-11T02:40:46.199Z","facilityType":"temple","facilityLabel":"🛕 廟宇","changingTable":false,"wheelchair":false,"needsAddr":false},{"id":242826809,"name":"慧光佛堂","lat":23.1815252,"lng":120.2495222,"address":null,"hasBabyChanging":false,"hasAccessible":false,"source":"OpenStreetMap","updatedAt":"2026-06-11T02:40:46.199Z","facilityType":"temple","facilityLabel":"🛕 廟宇","changingTable":false,"wheelchair":false,"needsAddr":false},{"id":242826810,"name":"文衡殿(關帝廟)","lat":23.1904317,"lng":120.2556092,"address":null,"hasBabyChanging":false,"hasAccessible":false,"source":"OpenStreetMap","updatedAt":"2026-06-11T02:40:46.199Z","facilityType":"temple","facilityLabel":"🛕 廟宇","changingTable":false,"wheelchair":false,"needsAddr":false},{"id":242826811,"name":"永淨寺","lat":23.190738,"lng":120.256962,"address":null,"hasBabyChanging":false,"hasAccessible":false,"source":"OpenStreetMap","updatedAt":"2026-06-11T02:40:46.199Z","facilityType":"temple","facilityLabel":"🛕 廟宇","changingTable":false,"wheelchair":false,"needsAddr":false},{"id":242826813,"name":"順天宮","lat":23.1798521,"lng":120.251832,"address":null,"hasBabyChanging":false,"hasAccessible":false,"source":"OpenStreetMap","updatedAt":"2026-06-11T02:40:46.199Z","facilityType":"temple","facilityLabel":"🛕 廟宇","changingTable":false,"wheelchair":false,"needsAddr":false},{"id":242857030,"name":"太子宮","lat":23.1906063,"lng":120.2405121,"address":null,"hasBabyChanging":false,"hasAccessible":false,"source":"OpenStreetMap","updatedAt":"2026-06-11T02:40:46.199Z","facilityType":"temple","facilityLabel":"🛕 廟宇","changingTable":false,"wheelchair":false,"needsAddr":false},{"id":242857031,"name":"永安宮","lat":23.1980089,"lng":120.2502278,"address":null,"hasBabyChanging":false,"hasAccessible":false,"source":"OpenStreetMap","updatedAt":"2026-06-11T02:40:46.199Z","facilityType":"temple","facilityLabel":"🛕 廟宇","changingTable":false,"wheelchair":false,"needsAddr":false},{"id":242857033,"name":"龍隱寺","lat":23.1953954,"lng":120.2487156,"address":null,"hasBabyChanging":false,"hasAccessible":false,"source":"OpenStreetMap","updatedAt":"2026-06-11T02:40:46.199Z","facilityType":"temple","facilityLabel":"🛕 廟宇","changingTable":false,"wheelchair":false,"needsAddr":false},{"id":242912331,"name":"保濟宮","lat":23.1971987,"lng":120.2520623,"address":null,"hasBabyChanging":false,"hasAccessible":false,"source":"OpenStreetMap","updatedAt":"2026-06-11T02:40:46.199Z","facilityType":"temple","facilityLabel":"🛕 廟宇","changingTable":false,"wheelchair":false,"needsAddr":false},{"id":242912333,"name":"通天寶殿","lat":23.1939055,"lng":120.2524739,"address":null,"hasBabyChanging":false,"hasAccessible":false,"source":"OpenStreetMap","updatedAt":"2026-06-11T02:40:46.199Z","facilityType":"temple","facilityLabel":"🛕 廟宇","changingTable":false,"wheelchair":false,"needsAddr":false},{"id":242997745,"name":"三洽宮","lat":23.2103199,"lng":120.2390998,"address":null,"hasBabyChanging":false,"hasAccessible":false,"source":"OpenStreetMap","updatedAt":"2026-06-11T02:40:46.199Z","facilityType":"temple","facilityLabel":"🛕 廟宇","changingTable":false,"wheelchair":false,"needsAddr":false},{"id":242997747,"name":"玉清廟","lat":23.2056763,"lng":120.2431262,"address":null,"hasBabyChanging":false,"hasAccessible":false,"source":"OpenStreetMap","updatedAt":"2026-06-11T02:40:46.199Z","facilityType":"temple","facilityLabel":"🛕 廟宇","changingTable":false,"wheelchair":false,"needsAddr":false},{"id":243128359,"name":"保安宮雨","lat":23.1806943,"lng":120.2686979,"address":null,"hasBabyChanging":false,"hasAccessible":false,"source":"OpenStreetMap","updatedAt":"2026-06-11T02:40:46.199Z","facilityType":"temple","facilityLabel":"🛕 廟宇","changingTable":false,"wheelchair":false,"needsAddr":false},{"id":243128360,"name":"慈孝宮","lat":23.1690157,"lng":120.2539471,"address":null,"hasBabyChanging":false,"hasAccessible":false,"source":"OpenStreetMap","updatedAt":"2026-06-11T02:40:46.199Z","facilityType":"temple","facilityLabel":"🛕 廟宇","changingTable":false,"wheelchair":false,"needsAddr":false},{"id":243128361,"name":"正安宮","lat":23.1646546,"lng":120.2460302,"address":null,"hasBabyChanging":false,"hasAccessible":false,"source":"OpenStreetMap","updatedAt":"2026-06-11T02:40:46.199Z","facilityType":"temple","facilityLabel":"🛕 廟宇","changingTable":false,"wheelchair":false,"needsAddr":false},{"id":243128362,"name":"清水殿","lat":23.1717849,"lng":120.2522462,"address":null,"hasBabyChanging":false,"hasAccessible":false,"source":"OpenStreetMap","updatedAt":"2026-06-11T02:40:46.199Z","facilityType":"temple","facilityLabel":"🛕 廟宇","changingTable":false,"wheelchair":false,"needsAddr":false},{"id":243283985,"name":"東獄大帝","lat":23.1864245,"lng":120.2842107,"address":null,"hasBabyChanging":false,"hasAccessible":false,"source":"OpenStreetMap","updatedAt":"2026-06-11T02:40:46.199Z","facilityType":"temple","facilityLabel":"🛕 廟宇","changingTable":false,"wheelchair":false,"needsAddr":false},{"id":243858870,"name":"普天宮","lat":23.1923361,"lng":120.2317609,"address":null,"hasBabyChanging":false,"hasAccessible":false,"source":"OpenStreetMap","updatedAt":"2026-06-11T02:40:46.199Z","facilityType":"temple","facilityLabel":"🛕 廟宇","changingTable":false,"wheelchair":false,"needsAddr":false},{"id":243858871,"name":"普庵寺","lat":23.193962,"lng":120.2312642,"address":null,"hasBabyChanging":false,"hasAccessible":false,"source":"OpenStreetMap","updatedAt":"2026-06-11T02:40:46.199Z","facilityType":"temple","facilityLabel":"🛕 廟宇","changingTable":false,"wheelchair":false,"needsAddr":false},{"id":243905014,"name":"永安宮","lat":23.1960557,"lng":120.2282016,"address":null,"hasBabyChanging":false,"hasAccessible":false,"source":"OpenStreetMap","updatedAt":"2026-06-11T02:40:46.199Z","facilityType":"temple","facilityLabel":"🛕 廟宇","changingTable":false,"wheelchair":false,"needsAddr":false},{"id":244197285,"name":"保聖宮","lat":23.1851215,"lng":120.2342662,"address":null,"hasBabyChanging":false,"hasAccessible":false,"source":"OpenStreetMap","updatedAt":"2026-06-11T02:40:46.199Z","facilityType":"temple","facilityLabel":"🛕 廟宇","changingTable":false,"wheelchair":false,"needsAddr":false},{"id":330899815,"name":"保安宮","lat":23.1862559,"lng":120.2618506,"address":null,"hasBabyChanging":false,"hasAccessible":false,"source":"OpenStreetMap","updatedAt":"2026-06-11T02:40:46.199Z","facilityType":"temple","facilityLabel":"🛕 廟宇","changingTable":false,"wheelchair":false,"needsAddr":false},{"id":369329314,"name":"麻豆轉運站","lat":23.1853253,"lng":120.2391241,"address":"臺南市麻豆區麻佳路一段80號","hasBabyChanging":false,"hasAccessible":false,"source":"OpenStreetMap","updatedAt":"2026-06-11T02:40:46.199Z","facilityType":"bus","facilityLabel":"🚌 客運站","changingTable":false,"wheelchair":false,"needsAddr":false},{"id":490367901,"name":"紅樓","lat":23.1845743,"lng":120.2684952,"address":null,"hasBabyChanging":false,"hasAccessible":false,"source":"OpenStreetMap","updatedAt":"2026-06-11T02:40:46.199Z","facilityType":"museum","facilityLabel":"🖼️ 博物館","changingTable":false,"wheelchair":false,"openingHours":"We-Su 09:00-17:00","needsAddr":false},{"id":490367903,"name":"公共廁所","lat":23.1849492,"lng":120.2687893,"address":null,"hasBabyChanging":true,"hasAccessible":true,"source":"OpenStreetMap","updatedAt":"2026-06-11T02:40:46.199Z","facilityType":"toilet","facilityLabel":null,"changingTable":true,"wheelchair":true,"fee":"no","needsAddr":true},{"id":490367905,"name":"顏水龍紀念館","lat":23.1849016,"lng":120.2686111,"address":null,"hasBabyChanging":false,"hasAccessible":false,"source":"OpenStreetMap","updatedAt":"2026-06-11T02:40:46.199Z","facilityType":"museum","facilityLabel":"🖼️ 博物館","changingTable":false,"wheelchair":false,"openingHours":"We-Su 09:30-16:30","needsAddr":false},{"id":490367906,"name":"觀景台","lat":23.1849087,"lng":120.26851,"address":null,"hasBabyChanging":false,"hasAccessible":false,"source":"OpenStreetMap","updatedAt":"2026-06-11T02:40:46.199Z","facilityType":"attraction","facilityLabel":"🏞️ 景點","changingTable":false,"wheelchair":false,"needsAddr":false},{"id":490367907,"name":"招待所","lat":23.1848026,"lng":120.2679009,"address":null,"hasBabyChanging":false,"hasAccessible":false,"source":"OpenStreetMap","updatedAt":"2026-06-11T02:40:46.199Z","facilityType":"museum","facilityLabel":"🖼️ 博物館","changingTable":false,"wheelchair":false,"openingHours":"We-Su 09:00-17:00","needsAddr":false},{"id":490391102,"name":"倒風內海故事館","lat":23.190217,"lng":120.2688201,"address":null,"hasBabyChanging":false,"hasAccessible":false,"source":"OpenStreetMap","updatedAt":"2026-06-11T02:40:46.199Z","facilityType":"museum","facilityLabel":"🖼️ 博物館","changingTable":false,"wheelchair":false,"needsAddr":false},{"id":492745140,"name":"公共廁所","lat":23.1898528,"lng":120.2706878,"address":null,"hasBabyChanging":false,"hasAccessible":false,"source":"OpenStreetMap","updatedAt":"2026-06-11T02:40:46.199Z","facilityType":"toilet","facilityLabel":null,"changingTable":false,"wheelchair":false,"needsAddr":true},{"id":495080635,"name":"糖學埕 (前總爺國小)","lat":23.1865377,"lng":120.2698576,"address":null,"hasBabyChanging":false,"hasAccessible":false,"source":"OpenStreetMap","updatedAt":"2026-06-11T02:40:46.199Z","facilityType":"government","facilityLabel":"🏛 公務機關","changingTable":false,"wheelchair":false,"needsAddr":false},{"id":537974037,"name":"台南市麻豆地政事務所","lat":23.1816348,"lng":120.2476796,"address":"721台南市麻豆區興國路26號","hasBabyChanging":false,"hasAccessible":false,"source":"OpenStreetMap","updatedAt":"2026-06-11T02:40:46.199Z","facilityType":"government","facilityLabel":"🏛 公務機關","changingTable":false,"wheelchair":false,"needsAddr":false},{"id":598921335,"name":"曾文神社遺址","lat":23.1896024,"lng":120.2650515,"address":null,"hasBabyChanging":false,"hasAccessible":false,"source":"OpenStreetMap","updatedAt":"2026-06-11T02:40:46.199Z","facilityType":"temple","facilityLabel":"🛕 廟宇","changingTable":false,"wheelchair":false,"needsAddr":false},{"id":742493845,"name":"圖書館大樓","lat":23.2169766,"lng":120.2240844,"address":null,"hasBabyChanging":false,"hasAccessible":false,"source":"OpenStreetMap","updatedAt":"2026-06-11T02:40:46.199Z","facilityType":"library","facilityLabel":"📚 圖書館","changingTable":false,"wheelchair":false,"needsAddr":false},{"id":783519247,"name":"麻豆夜市","lat":23.1843721,"lng":120.245765,"address":null,"hasBabyChanging":false,"hasAccessible":false,"source":"OpenStreetMap","updatedAt":"2026-06-11T02:40:46.199Z","facilityType":"nightmarket","facilityLabel":"🍢 夜市","changingTable":false,"wheelchair":false,"needsAddr":false},{"id":896973477,"name":"麻豆新樓醫院","lat":23.179752,"lng":120.2332881,"address":"臺南市麻豆區埤頭里11鄰麻佳路一段207號","hasBabyChanging":false,"hasAccessible":false,"source":"OpenStreetMap","updatedAt":"2026-06-11T02:40:46.199Z","facilityType":"hospital","facilityLabel":"🏥 醫院","changingTable":false,"wheelchair":false,"needsAddr":false},{"id":1130934826,"name":"水堀頭龍鳳閣","lat":23.1903609,"lng":120.2717519,"address":null,"hasBabyChanging":false,"hasAccessible":false,"source":"OpenStreetMap","updatedAt":"2026-06-11T02:40:46.199Z","facilityType":"temple","facilityLabel":"🛕 廟宇","changingTable":false,"wheelchair":false,"needsAddr":false},{"id":1131058831,"name":"萬仙復興堂","lat":23.1902519,"lng":120.2717303,"address":null,"hasBabyChanging":false,"hasAccessible":false,"source":"OpenStreetMap","updatedAt":"2026-06-11T02:40:46.199Z","facilityType":"temple","facilityLabel":"🛕 廟宇","changingTable":false,"wheelchair":false,"needsAddr":false},{"id":1330086210,"name":"謝安里中民里活動中心","lat":23.1489278,"lng":120.2383338,"address":null,"hasBabyChanging":false,"hasAccessible":false,"source":"OpenStreetMap","updatedAt":"2026-06-11T02:40:46.199Z","facilityType":"community","facilityLabel":"🏘️ 活動中心","changingTable":false,"wheelchair":false,"needsAddr":false},{"id":1330934612,"name":"中興、興農里活動中心","lat":23.1808343,"lng":120.244546,"address":null,"hasBabyChanging":false,"hasAccessible":false,"source":"OpenStreetMap","updatedAt":"2026-06-11T02:40:46.199Z","facilityType":"community","facilityLabel":"🏘️ 活動中心","changingTable":false,"wheelchair":false,"needsAddr":false},{"id":1434793688,"name":"溫朱宮","lat":23.189606,"lng":120.2508486,"address":null,"hasBabyChanging":false,"hasAccessible":false,"source":"OpenStreetMap","updatedAt":"2026-06-11T02:40:46.199Z","facilityType":"temple","facilityLabel":"🛕 廟宇","changingTable":false,"wheelchair":false,"needsAddr":false},{"id":1434793689,"name":"仁厚宮","lat":23.1905809,"lng":120.2443593,"address":"臺南市麻豆區油車里7鄰油車47號","hasBabyChanging":false,"hasAccessible":false,"source":"OpenStreetMap","updatedAt":"2026-06-11T02:40:46.199Z","facilityType":"temple","facilityLabel":"🛕 廟宇","changingTable":false,"wheelchair":false,"needsAddr":false},{"id":1434793690,"name":"觀音寺","lat":23.1898828,"lng":120.2415505,"address":null,"hasBabyChanging":false,"hasAccessible":false,"source":"OpenStreetMap","updatedAt":"2026-06-11T02:40:46.199Z","facilityType":"temple","facilityLabel":"🛕 廟宇","changingTable":false,"wheelchair":false,"needsAddr":false},{"id":1434793691,"name":"三元宮(尪祖廟)","lat":23.1898843,"lng":120.2457883,"address":"臺南市麻豆區北勢里5鄰尫祖庙41號","hasBabyChanging":false,"hasAccessible":false,"source":"OpenStreetMap","updatedAt":"2026-06-11T02:40:46.199Z","facilityType":"temple","facilityLabel":"🛕 廟宇","changingTable":false,"wheelchair":false,"needsAddr":false},{"id":1491181652,"name":"觀音寶殿","lat":23.1897554,"lng":120.2608154,"address":null,"hasBabyChanging":false,"hasAccessible":false,"source":"OpenStreetMap","updatedAt":"2026-06-11T02:40:46.199Z","facilityType":"temple","facilityLabel":"🛕 廟宇","changingTable":false,"wheelchair":false,"needsAddr":false},{"id":1491231695,"name":"文夏故事館","lat":23.1847973,"lng":120.2673272,"address":null,"hasBabyChanging":false,"hasAccessible":false,"source":"OpenStreetMap","updatedAt":"2026-06-11T02:40:46.199Z","facilityType":"museum","facilityLabel":"🖼️ 博物館","changingTable":false,"wheelchair":false,"openingHours":"We-Su 09:00-17:00","needsAddr":false},{"id":1492035150,"name":"小舞台","lat":23.1849813,"lng":120.2685585,"address":null,"hasBabyChanging":false,"hasAccessible":false,"source":"OpenStreetMap","updatedAt":"2026-06-11T02:40:46.199Z","facilityType":"arts","facilityLabel":"🎭 藝文場館","changingTable":false,"wheelchair":false,"needsAddr":false},{"id":1504544139,"name":"龍泉巖","lat":23.1783171,"lng":120.2569443,"address":null,"hasBabyChanging":false,"hasAccessible":false,"source":"OpenStreetMap","updatedAt":"2026-06-11T02:40:46.199Z","facilityType":"temple","facilityLabel":"🛕 廟宇","changingTable":false,"wheelchair":false,"needsAddr":false},{"id":1527240110,"name":"潮音寺","lat":23.2043378,"lng":120.2039963,"address":"臺南市麻豆區港尾里6鄰港子尾17號","hasBabyChanging":false,"hasAccessible":false,"source":"OpenStreetMap","updatedAt":"2026-06-11T02:40:46.199Z","facilityType":"temple","facilityLabel":"🛕 廟宇","changingTable":false,"wheelchair":false,"needsAddr":false},{"id":1527240111,"name":"港尾社區活動中心","lat":23.2045156,"lng":120.2035973,"address":"臺南市麻豆區港子尾48之2號","hasBabyChanging":false,"hasAccessible":false,"source":"OpenStreetMap","updatedAt":"2026-06-11T02:40:46.199Z","facilityType":"community","facilityLabel":"🏘️ 活動中心","changingTable":false,"wheelchair":false,"needsAddr":false},{"id":20828485,"name":"海埔池王府","lat":23.2036239,"lng":120.2119705,"address":"臺南市麻豆區海埔80-1號","hasBabyChanging":false,"hasAccessible":false,"source":"OpenStreetMap","updatedAt":"2026-06-11T02:40:46.199Z","facilityType":"temple","facilityLabel":"🛕 廟宇","changingTable":false,"wheelchair":false,"needsAddr":false}]}