{"city":"台東縣","district":"卑南鄉","category":"family","updatedAt":"2026-06-16T15:54:24.202Z","rev":24,"count":34,"items":[{"id":995092692,"name":"原生植物園","lat":22.8531215,"lng":121.104379,"address":null,"hasBabyChanging":false,"hasAccessible":false,"source":"OpenStreetMap","updatedAt":"2026-06-16T15:54:24.202Z","facilityType":"science","facilityLabel":"🔬 博物館","phone":null,"website":null,"wheelchair":false,"paid":null,"needsAddr":true},{"id":253540623,"name":"初鹿牧場","lat":22.8637209,"lng":121.10923745,"address":"台東縣卑南鄉明峰村1號","hasBabyChanging":false,"hasAccessible":false,"source":"OpenStreetMap","updatedAt":"2026-06-16T15:54:24.202Z","facilityType":"farm","facilityLabel":"🌾 農場","phone":null,"website":"https://www.chuluranch.com.tw/","wheelchair":false,"paid":true,"needsAddr":false},{"id":3904005745,"name":"杉原海岸","lat":22.8328711,"lng":121.1857663,"address":null,"hasBabyChanging":false,"hasAccessible":false,"source":"OpenStreetMap","updatedAt":"2026-06-16T15:54:24.202Z","facilityType":"tourist_attraction","facilityLabel":"🧭 旅遊景點","phone":null,"website":null,"wheelchair":false,"paid":null,"needsAddr":true},{"id":3945277477,"name":"知本林道瀑布","lat":22.7047114,"lng":121.014408,"address":null,"hasBabyChanging":false,"hasAccessible":false,"source":"OpenStreetMap","updatedAt":"2026-06-16T15:54:24.202Z","facilityType":"tourist_attraction","facilityLabel":"🧭 旅遊景點","phone":null,"website":null,"wheelchair":false,"paid":null,"needsAddr":true},{"id":4260141003,"name":"利吉月世界","lat":22.8145115,"lng":121.1386923,"address":null,"hasBabyChanging":false,"hasAccessible":false,"source":"OpenStreetMap","updatedAt":"2026-06-16T15:54:24.202Z","facilityType":"tourist_attraction","facilityLabel":"🧭 旅遊景點","phone":null,"website":null,"wheelchair":false,"paid":null,"needsAddr":true},{"id":4846780721,"name":"遠眺都蘭山","lat":22.8168914,"lng":121.1187477,"address":null,"hasBabyChanging":false,"hasAccessible":false,"source":"OpenStreetMap","updatedAt":"2026-06-16T15:54:24.202Z","facilityType":"tourist_attraction","facilityLabel":"🧭 旅遊景點","phone":null,"website":null,"wheelchair":false,"paid":null,"needsAddr":true},{"id":4846780821,"name":"觀景亭","lat":22.8181002,"lng":121.1162448,"address":null,"hasBabyChanging":false,"hasAccessible":false,"source":"OpenStreetMap","updatedAt":"2026-06-16T15:54:24.202Z","facilityType":"tourist_attraction","facilityLabel":"🧭 旅遊景點","phone":null,"website":null,"wheelchair":false,"paid":null,"needsAddr":true},{"id":4886939416,"name":"水池營地","lat":22.6961032,"lng":120.9436626,"address":null,"hasBabyChanging":false,"hasAccessible":false,"source":"OpenStreetMap","updatedAt":"2026-06-16T15:54:24.202Z","facilityType":"spot","facilityLabel":"📍 親子景點","phone":null,"website":null,"wheelchair":false,"paid":null,"needsAddr":true},{"id":4886939891,"name":"獵寮","lat":22.6891583,"lng":120.9502977,"address":null,"hasBabyChanging":false,"hasAccessible":false,"source":"OpenStreetMap","updatedAt":"2026-06-16T15:54:24.202Z","facilityType":"spot","facilityLabel":"📍 親子景點","phone":null,"website":null,"wheelchair":false,"paid":null,"needsAddr":true},{"id":4886939916,"name":"獵寮","lat":22.6954487,"lng":120.9338358,"address":null,"hasBabyChanging":false,"hasAccessible":false,"source":"OpenStreetMap","updatedAt":"2026-06-16T15:54:24.202Z","facilityType":"spot","facilityLabel":"📍 親子景點","phone":null,"website":null,"wheelchair":false,"paid":null,"needsAddr":true},{"id":5250280024,"name":"campground","lat":22.6958124,"lng":121.0198268,"address":null,"hasBabyChanging":false,"hasAccessible":false,"source":"OpenStreetMap","updatedAt":"2026-06-16T15:54:24.202Z","facilityType":"spot","facilityLabel":"📍 親子景點","phone":null,"website":null,"wheelchair":false,"paid":null,"needsAddr":true},{"id":6102803085,"name":"小黃山觀景","lat":22.8332576,"lng":121.1332841,"address":null,"hasBabyChanging":false,"hasAccessible":false,"source":"OpenStreetMap","updatedAt":"2026-06-16T15:54:24.202Z","facilityType":"tourist_attraction","facilityLabel":"🧭 旅遊景點","phone":null,"website":null,"wheelchair":false,"paid":null,"needsAddr":true},{"id":6797072074,"name":"利吉惡地地質公園","lat":22.8157769,"lng":121.1386067,"address":null,"hasBabyChanging":false,"hasAccessible":false,"source":"OpenStreetMap","updatedAt":"2026-06-16T15:54:24.202Z","facilityType":"tourist_attraction","facilityLabel":"🧭 旅遊景點","phone":null,"website":null,"wheelchair":false,"paid":null,"needsAddr":true},{"id":10112820917,"name":"好漢坡0k+750","lat":22.6872082,"lng":120.9857788,"address":null,"hasBabyChanging":false,"hasAccessible":false,"source":"OpenStreetMap","updatedAt":"2026-06-16T15:54:24.202Z","facilityType":"tourist_attraction","facilityLabel":"🧭 旅遊景點","phone":null,"website":null,"wheelchair":false,"paid":null,"needsAddr":true},{"id":10635390705,"name":"金谷農莊民宿露營區","lat":22.8553691,"lng":121.1501332,"address":null,"hasBabyChanging":false,"hasAccessible":false,"source":"OpenStreetMap","updatedAt":"2026-06-16T15:54:24.202Z","facilityType":"spot","facilityLabel":"📍 親子景點","phone":"08 922 0044","website":null,"wheelchair":false,"paid":null,"needsAddr":true},{"id":216984701,"name":"杉原灣","lat":22.82858425,"lng":121.18886334999999,"address":null,"hasBabyChanging":false,"hasAccessible":false,"source":"OpenStreetMap","updatedAt":"2026-06-16T15:54:24.202Z","facilityType":"beach","facilityLabel":"🏖 沙灘","phone":null,"website":null,"wheelchair":false,"paid":null,"needsAddr":true},{"id":253336242,"name":"卑南文化公園","lat":22.79500835,"lng":121.11659595,"address":null,"hasBabyChanging":false,"hasAccessible":false,"source":"OpenStreetMap","updatedAt":"2026-06-16T15:54:24.202Z","facilityType":"park","facilityLabel":"🌳 超大型公園","phone":null,"website":null,"wheelchair":false,"paid":null,"needsAddr":true},{"id":256525588,"name":"卑南大圳親水公園","lat":22.80494135,"lng":121.13140870000001,"address":null,"hasBabyChanging":false,"hasAccessible":false,"source":"OpenStreetMap","updatedAt":"2026-06-16T15:54:24.202Z","facilityType":"water","facilityLabel":"💧 戲水親水","phone":null,"website":null,"wheelchair":false,"paid":null,"needsAddr":true},{"id":310823561,"name":"知本自然教育中心","lat":22.6868524,"lng":120.9921849,"address":null,"hasBabyChanging":false,"hasAccessible":false,"source":"OpenStreetMap","updatedAt":"2026-06-16T15:54:24.202Z","facilityType":"eco_center","facilityLabel":"🌱 生態館","phone":null,"website":null,"wheelchair":false,"paid":null,"needsAddr":true},{"id":310823562,"name":"知本森林國家遊樂區遊客中心","lat":22.687277950000002,"lng":120.99126775,"address":null,"hasBabyChanging":false,"hasAccessible":true,"source":"OpenStreetMap","updatedAt":"2026-06-16T15:54:24.202Z","facilityType":"visitor_center","facilityLabel":"🛎 旅客中心","phone":null,"website":null,"wheelchair":true,"paid":null,"needsAddr":true},{"id":387064536,"name":"杉原海水浴場","lat":22.8312313,"lng":121.1855338,"address":null,"hasBabyChanging":false,"hasAccessible":false,"source":"OpenStreetMap","updatedAt":"2026-06-16T15:54:24.202Z","facilityType":"water","facilityLabel":"💧 戲水親水","phone":null,"website":null,"wheelchair":false,"paid":null,"needsAddr":true},{"id":477684821,"name":"溫泉休憩小棧","lat":22.68865395,"lng":120.9917899,"address":null,"hasBabyChanging":false,"hasAccessible":false,"source":"OpenStreetMap","updatedAt":"2026-06-16T15:54:24.202Z","facilityType":"tourist_attraction","facilityLabel":"🧭 旅遊景點","phone":null,"website":null,"wheelchair":false,"paid":null,"needsAddr":true},{"id":477684822,"name":"野營活動場","lat":22.690294,"lng":120.9914648,"address":null,"hasBabyChanging":false,"hasAccessible":false,"source":"OpenStreetMap","updatedAt":"2026-06-16T15:54:24.202Z","facilityType":"spot","facilityLabel":"📍 親子景點","phone":null,"website":null,"wheelchair":false,"paid":null,"needsAddr":true},{"id":477684828,"name":"知本森林遊樂區","lat":22.6896097,"lng":120.98774795,"address":"台東縣卑南鄉龍泉路290號","hasBabyChanging":false,"hasAccessible":false,"source":"OpenStreetMap","updatedAt":"2026-06-16T15:54:24.202Z","facilityType":"theme_park","facilityLabel":"🎡 遊樂場","phone":null,"website":null,"wheelchair":false,"paid":null,"needsAddr":false},{"id":520236308,"name":"服務處","lat":22.86520335,"lng":121.1088753,"address":null,"hasBabyChanging":false,"hasAccessible":false,"source":"OpenStreetMap","updatedAt":"2026-06-16T15:54:24.202Z","facilityType":"visitor_center","facilityLabel":"🛎 旅客中心","phone":null,"website":null,"wheelchair":false,"paid":null,"needsAddr":true},{"id":520252803,"name":"DIY創意工坊","lat":22.86486905,"lng":121.10964390000001,"address":null,"hasBabyChanging":false,"hasAccessible":false,"source":"OpenStreetMap","updatedAt":"2026-06-16T15:54:24.202Z","facilityType":"diy","facilityLabel":"🧶 DIY手作","phone":null,"website":null,"wheelchair":false,"paid":null,"needsAddr":true},{"id":723348897,"name":"卑南遊客中心","lat":22.801423900000003,"lng":121.09473125,"address":"台東縣卑南鄉賓朗路286號","hasBabyChanging":false,"hasAccessible":false,"source":"OpenStreetMap","updatedAt":"2026-06-16T15:54:24.202Z","facilityType":"visitor_center","facilityLabel":"🛎 旅客中心","phone":null,"website":null,"wheelchair":false,"paid":null,"needsAddr":false},{"id":724749205,"name":"富源觀景平台","lat":22.828058300000002,"lng":121.152351,"address":null,"hasBabyChanging":false,"hasAccessible":false,"source":"OpenStreetMap","updatedAt":"2026-06-16T15:54:24.202Z","facilityType":"park","facilityLabel":"🌳 小型公園","phone":null,"website":null,"wheelchair":false,"paid":null,"needsAddr":true},{"id":1189293057,"name":"遊客中心-森林浴步道捷徑","lat":22.6868116,"lng":120.9908938,"address":null,"hasBabyChanging":false,"hasAccessible":false,"source":"OpenStreetMap","updatedAt":"2026-06-16T15:54:24.202Z","facilityType":"visitor_center","facilityLabel":"🛎 旅客中心","phone":null,"website":null,"wheelchair":false,"paid":null,"needsAddr":true},{"id":1445990527,"name":"知本圳親水公園","lat":22.694938999999998,"lng":121.0180845,"address":null,"hasBabyChanging":false,"hasAccessible":false,"source":"OpenStreetMap","updatedAt":"2026-06-16T15:54:24.202Z","facilityType":"water","facilityLabel":"💧 戲水親水","phone":null,"website":null,"wheelchair":false,"paid":null,"needsAddr":true},{"id":7001875,"name":"大武山自然保留區","lat":22.6080799,"lng":120.85724995000001,"address":null,"hasBabyChanging":false,"hasAccessible":false,"source":"OpenStreetMap","updatedAt":"2026-06-16T15:54:24.202Z","facilityType":"spot","facilityLabel":"📍 親子景點","phone":null,"website":"https://conservation.forest.gov.tw/0000122","wheelchair":false,"paid":null,"needsAddr":true},{"id":7011235,"name":"知本國家森林遊樂區","lat":22.69731795,"lng":120.98334605,"address":null,"hasBabyChanging":false,"hasAccessible":false,"source":"OpenStreetMap","updatedAt":"2026-06-16T15:54:24.202Z","facilityType":"spot","facilityLabel":"📍 親子景點","phone":null,"website":"https://recreation.forest.gov.tw/RA/RA_1_1.aspx?RA_ID=0700001","wheelchair":false,"paid":null,"needsAddr":true},{"id":7022687,"name":"利嘉野生動物重要棲息環境","lat":22.81594355,"lng":121.01163355,"address":null,"hasBabyChanging":false,"hasAccessible":false,"source":"OpenStreetMap","updatedAt":"2026-06-16T15:54:24.202Z","facilityType":"spot","facilityLabel":"📍 親子景點","phone":null,"website":"https://conservation.forest.gov.tw/0000174","wheelchair":false,"paid":null,"needsAddr":true},{"id":7033434,"name":"雙鬼湖野生動物重要棲息環境","lat":22.796579649999998,"lng":120.850848,"address":null,"hasBabyChanging":false,"hasAccessible":false,"source":"OpenStreetMap","updatedAt":"2026-06-16T15:54:24.202Z","facilityType":"spot","facilityLabel":"📍 親子景點","phone":null,"website":"https://conservation.forest.gov.tw/0000173","wheelchair":false,"paid":null,"needsAddr":true}]}