{"city":"台東縣","district":"太麻里鄉","category":"family","updatedAt":"2026-06-16T15:54:24.202Z","rev":24,"count":12,"items":[{"id":4758035428,"name":"老尪婆民宿","lat":22.6907816,"lng":121.0473366,"address":"963台東縣太麻里鄉美和86-37號","hasBabyChanging":false,"hasAccessible":false,"source":"OpenStreetMap","updatedAt":"2026-06-16T15:54:24.202Z","facilityType":"spot","facilityLabel":"📍 親子景點","phone":"+886 938 695 089","website":"https://www.facebook.com/TaiDongXianTaiMaLiXiang/","wheelchair":false,"paid":null,"needsAddr":false},{"id":6796632272,"name":"舊多良車站與太平洋賞景點","lat":22.5075353,"lng":120.9588991,"address":null,"hasBabyChanging":false,"hasAccessible":false,"source":"OpenStreetMap","updatedAt":"2026-06-16T15:54:24.202Z","facilityType":"tourist_attraction","facilityLabel":"🧭 旅遊景點","phone":null,"website":null,"wheelchair":false,"paid":null,"needsAddr":true},{"id":10920208641,"name":"櫻木花道平交道 (台灣灌籃高手場景)","lat":22.621523,"lng":121.0066311,"address":null,"hasBabyChanging":false,"hasAccessible":false,"source":"OpenStreetMap","updatedAt":"2026-06-16T15:54:24.202Z","facilityType":"tourist_attraction","facilityLabel":"🧭 旅遊景點","phone":null,"website":null,"wheelchair":false,"paid":null,"needsAddr":true},{"id":11268480969,"name":"金崙海灘","lat":22.5307537,"lng":120.969267,"address":null,"hasBabyChanging":false,"hasAccessible":false,"source":"OpenStreetMap","updatedAt":"2026-06-16T15:54:24.202Z","facilityType":"beach","facilityLabel":"🏖 沙灘","phone":null,"website":null,"wheelchair":false,"paid":null,"needsAddr":true},{"id":11346437347,"name":"鳥瞰金崙","lat":22.5186581,"lng":120.9544754,"address":null,"hasBabyChanging":false,"hasAccessible":false,"source":"OpenStreetMap","updatedAt":"2026-06-16T15:54:24.202Z","facilityType":"tourist_attraction","facilityLabel":"🧭 旅遊景點","phone":null,"website":null,"wheelchair":false,"paid":null,"needsAddr":true},{"id":11346437357,"name":"金崙觀景平台","lat":22.5348755,"lng":120.9679111,"address":null,"hasBabyChanging":false,"hasAccessible":false,"source":"OpenStreetMap","updatedAt":"2026-06-16T15:54:24.202Z","facilityType":"tourist_attraction","facilityLabel":"🧭 旅遊景點","phone":null,"website":null,"wheelchair":false,"paid":null,"needsAddr":true},{"id":11346437358,"name":"華源海灣觀景點","lat":22.6477057,"lng":121.0152021,"address":null,"hasBabyChanging":false,"hasAccessible":false,"source":"OpenStreetMap","updatedAt":"2026-06-16T15:54:24.202Z","facilityType":"tourist_attraction","facilityLabel":"🧭 旅遊景點","phone":null,"website":null,"wheelchair":false,"paid":null,"needsAddr":true},{"id":12198795419,"name":"白玉瀑布","lat":22.6873367,"lng":121.017127,"address":null,"hasBabyChanging":false,"hasAccessible":false,"source":"OpenStreetMap","updatedAt":"2026-06-16T15:54:24.202Z","facilityType":"tourist_attraction","facilityLabel":"🧭 旅遊景點","phone":null,"website":null,"wheelchair":false,"paid":null,"needsAddr":true},{"id":263305558,"name":"知本親水公園","lat":22.6935617,"lng":121.01564214999999,"address":null,"hasBabyChanging":false,"hasAccessible":false,"source":"OpenStreetMap","updatedAt":"2026-06-16T15:54:24.202Z","facilityType":"water","facilityLabel":"💧 戲水親水","phone":null,"website":null,"wheelchair":false,"paid":null,"needsAddr":true},{"id":264550679,"name":"三和海濱公園","lat":22.6698971,"lng":121.0366822,"address":null,"hasBabyChanging":false,"hasAccessible":false,"source":"OpenStreetMap","updatedAt":"2026-06-16T15:54:24.202Z","facilityType":"park","facilityLabel":"🌳 中型公園","phone":null,"website":null,"wheelchair":false,"paid":null,"needsAddr":true},{"id":428463315,"name":"大武山生態教育館","lat":22.530306,"lng":120.9394416,"address":null,"hasBabyChanging":false,"hasAccessible":false,"source":"OpenStreetMap","updatedAt":"2026-06-16T15:54:24.202Z","facilityType":"eco_center","facilityLabel":"🌱 生態館","phone":null,"website":null,"wheelchair":false,"paid":null,"needsAddr":true},{"id":7011235,"name":"知本國家森林遊樂區","lat":22.69731795,"lng":120.98334605,"address":null,"hasBabyChanging":false,"hasAccessible":false,"source":"OpenStreetMap","updatedAt":"2026-06-16T15:54:24.202Z","facilityType":"spot","facilityLabel":"📍 親子景點","phone":null,"website":"https://recreation.forest.gov.tw/RA/RA_1_1.aspx?RA_ID=0700001","wheelchair":false,"paid":null,"needsAddr":true}]}