{"city":"台東縣","district":"東河鄉","category":"family","updatedAt":"2026-06-11T08:39:29.880Z","rev":14,"count":17,"items":[{"id":3507003237,"name":"牧場","lat":23.010288,"lng":121.269243,"address":null,"hasBabyChanging":false,"hasAccessible":false,"source":"OpenStreetMap","updatedAt":"2026-06-11T08:39:29.880Z","facilityType":"farm","facilityLabel":"🌾 休閒農場","phone":null,"website":null,"wheelchair":false,"paid":null,"needsAddr":true},{"id":6380328385,"name":"警察局露營區","lat":22.8760917,"lng":121.2291129,"address":null,"hasBabyChanging":false,"hasAccessible":false,"source":"OpenStreetMap","updatedAt":"2026-06-11T08:39:29.880Z","facilityType":"camp","facilityLabel":"⛺ 露營休閒","phone":null,"website":null,"wheelchair":false,"paid":false,"needsAddr":true},{"id":6908005085,"name":"心路旅程露營棧","lat":22.8835489,"lng":121.2348608,"address":null,"hasBabyChanging":false,"hasAccessible":false,"source":"OpenStreetMap","updatedAt":"2026-06-11T08:39:29.880Z","facilityType":"camp","facilityLabel":"⛺ 露營休閒","phone":"+886 953 133 206","website":null,"wheelchair":false,"paid":null,"needsAddr":true},{"id":311137048,"name":"都蘭新東糖廠","lat":22.872314799999998,"lng":121.22578125,"address":null,"hasBabyChanging":false,"hasAccessible":false,"source":"OpenStreetMap","updatedAt":"2026-06-11T08:39:29.880Z","facilityType":"theme_park","facilityLabel":"🎡 遊樂園","phone":null,"website":null,"wheelchair":false,"paid":null,"needsAddr":true},{"id":312870212,"name":"牧場大橋","lat":23.001781,"lng":121.28365455,"address":null,"hasBabyChanging":false,"hasAccessible":false,"source":"OpenStreetMap","updatedAt":"2026-06-11T08:39:29.880Z","facilityType":"farm","facilityLabel":"🌾 休閒農場","phone":null,"website":null,"wheelchair":false,"paid":null,"needsAddr":true},{"id":387270655,"name":"渚橋休息區","lat":22.86126755,"lng":121.203641,"address":null,"hasBabyChanging":false,"hasAccessible":false,"source":"OpenStreetMap","updatedAt":"2026-06-11T08:39:29.880Z","facilityType":"park","facilityLabel":"🌳 小型公園","phone":null,"website":null,"wheelchair":false,"paid":null,"needsAddr":true},{"id":387272633,"name":"加母子灣休憩區","lat":22.863717049999998,"lng":121.20632595000001,"address":null,"hasBabyChanging":false,"hasAccessible":false,"source":"OpenStreetMap","updatedAt":"2026-06-11T08:39:29.880Z","facilityType":"park","facilityLabel":"🌳 小型公園","phone":null,"website":null,"wheelchair":false,"paid":null,"needsAddr":true},{"id":387273408,"name":"郡界休憩區","lat":22.85737305,"lng":121.1986297,"address":null,"hasBabyChanging":false,"hasAccessible":false,"source":"OpenStreetMap","updatedAt":"2026-06-11T08:39:29.880Z","facilityType":"park","facilityLabel":"🌳 小型公園","phone":null,"website":null,"wheelchair":false,"paid":null,"needsAddr":true},{"id":387274255,"name":"水往上流遊憩區","lat":22.86814885,"lng":121.21882825,"address":null,"hasBabyChanging":false,"hasAccessible":false,"source":"OpenStreetMap","updatedAt":"2026-06-11T08:39:29.880Z","facilityType":"park","facilityLabel":"🌳 小型公園","phone":null,"website":null,"wheelchair":false,"paid":null,"needsAddr":true},{"id":387287265,"name":"金樽遊憩區","lat":22.94571535,"lng":121.2800403,"address":null,"hasBabyChanging":false,"hasAccessible":false,"source":"OpenStreetMap","updatedAt":"2026-06-11T08:39:29.880Z","facilityType":"park","facilityLabel":"🌳 中型公園","phone":null,"website":null,"wheelchair":false,"paid":null,"needsAddr":true},{"id":387287268,"name":"金樽沙灘","lat":22.941217549999998,"lng":121.28272824999999,"address":null,"hasBabyChanging":false,"hasAccessible":false,"source":"OpenStreetMap","updatedAt":"2026-06-11T08:39:29.880Z","facilityType":"water","facilityLabel":"💧 戲水親水","phone":null,"website":null,"wheelchair":false,"paid":null,"needsAddr":true},{"id":388178508,"name":"新橋休息區","lat":22.865840050000003,"lng":121.21453020000001,"address":null,"hasBabyChanging":false,"hasAccessible":false,"source":"OpenStreetMap","updatedAt":"2026-06-11T08:39:29.880Z","facilityType":"park","facilityLabel":"🌳 小型公園","phone":null,"website":null,"wheelchair":false,"paid":null,"needsAddr":true},{"id":388178590,"name":"東河橋遊憩區","lat":22.9760387,"lng":121.3052211,"address":null,"hasBabyChanging":false,"hasAccessible":false,"source":"OpenStreetMap","updatedAt":"2026-06-11T08:39:29.880Z","facilityType":"park","facilityLabel":"🌳 小型公園","phone":null,"website":null,"wheelchair":false,"paid":null,"needsAddr":true},{"id":388179082,"name":"登仙橋遊憩區","lat":22.9888797,"lng":121.29506305000001,"address":null,"hasBabyChanging":false,"hasAccessible":false,"source":"OpenStreetMap","updatedAt":"2026-06-11T08:39:29.880Z","facilityType":"park","facilityLabel":"🌳 小型公園","phone":null,"website":null,"wheelchair":false,"paid":null,"needsAddr":true},{"id":864687660,"name":"牧場三號橋","lat":23.01345625,"lng":121.2673547,"address":null,"hasBabyChanging":false,"hasAccessible":false,"source":"OpenStreetMap","updatedAt":"2026-06-11T08:39:29.880Z","facilityType":"farm","facilityLabel":"🌾 休閒農場","phone":null,"website":null,"wheelchair":false,"paid":null,"needsAddr":true},{"id":864687695,"name":"牧場二號橋","lat":23.0090556,"lng":121.27107294999999,"address":null,"hasBabyChanging":false,"hasAccessible":false,"source":"OpenStreetMap","updatedAt":"2026-06-11T08:39:29.880Z","facilityType":"farm","facilityLabel":"🌾 休閒農場","phone":null,"website":null,"wheelchair":false,"paid":null,"needsAddr":true},{"id":864687706,"name":"牧場四號橋","lat":23.0177567,"lng":121.26074105000001,"address":null,"hasBabyChanging":false,"hasAccessible":false,"source":"OpenStreetMap","updatedAt":"2026-06-11T08:39:29.880Z","facilityType":"farm","facilityLabel":"🌾 休閒農場","phone":null,"website":null,"wheelchair":false,"paid":null,"needsAddr":true}]}