{"city":"台東縣","district":"綠島鄉","category":"family","updatedAt":"2026-06-11T08:39:29.880Z","rev":14,"count":9,"items":[{"id":374283591,"name":"大白沙","lat":22.637972750000003,"lng":121.49374424999999,"address":null,"hasBabyChanging":false,"hasAccessible":false,"source":"OpenStreetMap","updatedAt":"2026-06-11T08:39:29.880Z","facilityType":"water","facilityLabel":"💧 戲水親水","phone":null,"website":null,"wheelchair":false,"paid":null,"needsAddr":true},{"id":416842200,"name":"沙灘","lat":22.639188750000002,"lng":121.50371695000001,"address":null,"hasBabyChanging":false,"hasAccessible":false,"source":"OpenStreetMap","updatedAt":"2026-06-11T08:39:29.880Z","facilityType":"water","facilityLabel":"💧 戲水親水","phone":null,"website":null,"wheelchair":false,"paid":null,"needsAddr":true},{"id":430278800,"name":"沙灘","lat":22.6773705,"lng":121.50557705,"address":null,"hasBabyChanging":false,"hasAccessible":false,"source":"OpenStreetMap","updatedAt":"2026-06-11T08:39:29.880Z","facilityType":"water","facilityLabel":"💧 戲水親水","phone":null,"website":null,"wheelchair":false,"paid":null,"needsAddr":true},{"id":430280349,"name":"沙灘","lat":22.65372125,"lng":121.47459144999999,"address":null,"hasBabyChanging":false,"hasAccessible":false,"source":"OpenStreetMap","updatedAt":"2026-06-11T08:39:29.880Z","facilityType":"water","facilityLabel":"💧 戲水親水","phone":null,"website":null,"wheelchair":false,"paid":null,"needsAddr":true},{"id":430380240,"name":"紫坪營地","lat":22.637250950000002,"lng":121.49773075,"address":null,"hasBabyChanging":false,"hasAccessible":false,"source":"OpenStreetMap","updatedAt":"2026-06-11T08:39:29.880Z","facilityType":"camp","facilityLabel":"⛺ 露營休閒","phone":null,"website":null,"wheelchair":false,"paid":null,"needsAddr":true},{"id":430404152,"name":"綠島人權紀念公園","lat":22.675407649999997,"lng":121.4944442,"address":null,"hasBabyChanging":false,"hasAccessible":false,"source":"OpenStreetMap","updatedAt":"2026-06-11T08:39:29.880Z","facilityType":"park","facilityLabel":"🌳 小型公園","phone":null,"website":null,"wheelchair":false,"paid":null,"needsAddr":true},{"id":430596852,"name":"沙灘","lat":22.673925699999998,"lng":121.50893504999999,"address":null,"hasBabyChanging":false,"hasAccessible":false,"source":"OpenStreetMap","updatedAt":"2026-06-11T08:39:29.880Z","facilityType":"water","facilityLabel":"💧 戲水親水","phone":null,"website":null,"wheelchair":false,"paid":null,"needsAddr":true},{"id":430596855,"name":"沙灘","lat":22.6564686,"lng":121.50652055,"address":null,"hasBabyChanging":false,"hasAccessible":false,"source":"OpenStreetMap","updatedAt":"2026-06-11T08:39:29.880Z","facilityType":"water","facilityLabel":"💧 戲水親水","phone":null,"website":null,"wheelchair":false,"paid":null,"needsAddr":true},{"id":430619092,"name":"沙灘","lat":22.635114700000003,"lng":121.50364415,"address":null,"hasBabyChanging":false,"hasAccessible":false,"source":"OpenStreetMap","updatedAt":"2026-06-11T08:39:29.880Z","facilityType":"water","facilityLabel":"💧 戲水親水","phone":null,"website":null,"wheelchair":false,"paid":null,"needsAddr":true}]}