{"city":"台東縣","district":"達仁鄉","category":"family","updatedAt":"2026-06-16T15:54:24.202Z","rev":24,"count":15,"items":[{"id":4225051094,"name":"百蝶樹谷","lat":22.3721631,"lng":120.8512233,"address":null,"hasBabyChanging":false,"hasAccessible":false,"source":"OpenStreetMap","updatedAt":"2026-06-16T15:54:24.202Z","facilityType":"spot","facilityLabel":"📍 親子景點","phone":null,"website":null,"wheelchair":false,"paid":null,"needsAddr":true},{"id":10110469117,"name":"0k+200","lat":22.2692257,"lng":120.8868076,"address":null,"hasBabyChanging":false,"hasAccessible":false,"source":"OpenStreetMap","updatedAt":"2026-06-16T15:54:24.202Z","facilityType":"tourist_attraction","facilityLabel":"🧭 旅遊景點","phone":null,"website":null,"wheelchair":false,"paid":null,"needsAddr":true},{"id":10110472017,"name":"楓溪口山，海拔198，三等三山角點","lat":22.2687696,"lng":120.8865692,"address":null,"hasBabyChanging":false,"hasAccessible":false,"source":"OpenStreetMap","updatedAt":"2026-06-16T15:54:24.202Z","facilityType":"tourist_attraction","facilityLabel":"🧭 旅遊景點","phone":null,"website":null,"wheelchair":false,"paid":null,"needsAddr":true},{"id":10110494117,"name":"木棧橋","lat":22.2692925,"lng":120.8875179,"address":null,"hasBabyChanging":false,"hasAccessible":false,"source":"OpenStreetMap","updatedAt":"2026-06-16T15:54:24.202Z","facilityType":"tourist_attraction","facilityLabel":"🧭 旅遊景點","phone":null,"website":null,"wheelchair":false,"paid":null,"needsAddr":true},{"id":10188084421,"name":"喜樂泉瀑布","lat":22.3036717,"lng":120.8531968,"address":null,"hasBabyChanging":false,"hasAccessible":false,"source":"OpenStreetMap","updatedAt":"2026-06-16T15:54:24.202Z","facilityType":"tourist_attraction","facilityLabel":"🧭 旅遊景點","phone":null,"website":null,"wheelchair":false,"paid":null,"needsAddr":true},{"id":11268393569,"name":"阿塱壹裝置藝術（遇見）","lat":22.2472956,"lng":120.8947989,"address":null,"hasBabyChanging":false,"hasAccessible":false,"source":"OpenStreetMap","updatedAt":"2026-06-16T15:54:24.202Z","facilityType":"tourist_attraction","facilityLabel":"🧭 旅遊景點","phone":null,"website":null,"wheelchair":false,"paid":null,"needsAddr":true},{"id":620338539,"name":"大武臺灣油杉自然保護區","lat":22.3570934,"lng":120.7901578,"address":null,"hasBabyChanging":false,"hasAccessible":false,"source":"OpenStreetMap","updatedAt":"2026-06-16T15:54:24.202Z","facilityType":"spot","facilityLabel":"📍 親子景點","phone":null,"website":"https://conservation.forest.gov.tw/0000195","wheelchair":false,"paid":null,"needsAddr":true},{"id":756933303,"name":"梅園","lat":22.31904605,"lng":120.85736295000001,"address":null,"hasBabyChanging":false,"hasAccessible":false,"source":"OpenStreetMap","updatedAt":"2026-06-16T15:54:24.202Z","facilityType":"park","facilityLabel":"🌳 中型公園","phone":null,"website":null,"wheelchair":false,"paid":null,"needsAddr":true},{"id":758308900,"name":"南田公園","lat":22.2807933,"lng":120.8899726,"address":null,"hasBabyChanging":false,"hasAccessible":false,"source":"OpenStreetMap","updatedAt":"2026-06-16T15:54:24.202Z","facilityType":"park","facilityLabel":"🌳 中型公園","phone":null,"website":null,"wheelchair":false,"paid":null,"needsAddr":true},{"id":6999368,"name":"大武事業區台灣穗花杉自然保留區","lat":22.3997611,"lng":120.76216355,"address":null,"hasBabyChanging":false,"hasAccessible":false,"source":"OpenStreetMap","updatedAt":"2026-06-16T15:54:24.202Z","facilityType":"spot","facilityLabel":"📍 親子景點","phone":null,"website":"https://conservation.forest.gov.tw/0000123","wheelchair":false,"paid":null,"needsAddr":true},{"id":7001409,"name":"旭海-觀音鼻自然保留區","lat":22.22673285,"lng":120.8830294,"address":null,"hasBabyChanging":false,"hasAccessible":false,"source":"OpenStreetMap","updatedAt":"2026-06-16T15:54:24.202Z","facilityType":"spot","facilityLabel":"📍 親子景點","phone":null,"website":"http://www.esst.com.tw/syuhai/;http://conservation.forest.gov.tw/0000129","wheelchair":false,"paid":null,"needsAddr":true},{"id":7001875,"name":"大武山自然保留區","lat":22.6080799,"lng":120.85724995000001,"address":null,"hasBabyChanging":false,"hasAccessible":false,"source":"OpenStreetMap","updatedAt":"2026-06-16T15:54:24.202Z","facilityType":"spot","facilityLabel":"📍 親子景點","phone":null,"website":"https://conservation.forest.gov.tw/0000122","wheelchair":false,"paid":null,"needsAddr":true},{"id":7011234,"name":"雙流國家森林遊樂區","lat":22.226828349999998,"lng":120.82639945,"address":null,"hasBabyChanging":false,"hasAccessible":false,"source":"OpenStreetMap","updatedAt":"2026-06-16T15:54:24.202Z","facilityType":"spot","facilityLabel":"📍 親子景點","phone":null,"website":"https://recreation.forest.gov.tw/RA/RA_1_1.aspx?RA_ID=0600003","wheelchair":false,"paid":null,"needsAddr":true},{"id":7020948,"name":"茶茶牙賴山野生動物重要棲息環境","lat":22.33501265,"lng":120.7698737,"address":null,"hasBabyChanging":false,"hasAccessible":false,"source":"OpenStreetMap","updatedAt":"2026-06-16T15:54:24.202Z","facilityType":"spot","facilityLabel":"📍 親子景點","phone":null,"website":"https://conservation.forest.gov.tw/0000172","wheelchair":false,"paid":null,"needsAddr":true},{"id":7021024,"name":"浸水營野生動物重要棲息環境","lat":22.4196246,"lng":120.76214145,"address":null,"hasBabyChanging":false,"hasAccessible":false,"source":"OpenStreetMap","updatedAt":"2026-06-16T15:54:24.202Z","facilityType":"spot","facilityLabel":"📍 親子景點","phone":null,"website":"https://conservation.forest.gov.tw/0000171","wheelchair":false,"paid":null,"needsAddr":true}]}