{"city":"高雄市","district":"旗津區","category":"family","updatedAt":"2026-06-11T02:40:46.199Z","rev":14,"count":11,"items":[{"id":1591208487,"name":"旗津貝殼博物館","lat":22.6014143,"lng":120.2741805,"address":"805高雄市旗津區旗津三路887號","hasBabyChanging":false,"hasAccessible":false,"source":"OpenStreetMap","updatedAt":"2026-06-11T02:40:46.199Z","facilityType":"science","facilityLabel":"🔬 科學館","phone":"+886 7 571 8920","website":null,"wheelchair":false,"paid":null,"needsAddr":false},{"id":2222413904,"name":"旗津道沙灘酒店","lat":22.6103501,"lng":120.2682328,"address":"高雄市旗津區慈愛里11鄰旗津三路1050號","hasBabyChanging":false,"hasAccessible":false,"source":"OpenStreetMap","updatedAt":"2026-06-11T02:40:46.199Z","facilityType":"water","facilityLabel":"💧 戲水親水","phone":"0952387018","website":"https://www.inyounghotel.com.tw/","wheelchair":false,"paid":null,"needsAddr":false},{"id":8882051706,"name":"旗津海水浴場","lat":22.61079,"lng":120.26758,"address":null,"hasBabyChanging":false,"hasAccessible":false,"source":"OpenStreetMap","updatedAt":"2026-06-11T02:40:46.199Z","facilityType":"water","facilityLabel":"💧 戲水親水","phone":null,"website":null,"wheelchair":false,"paid":true,"needsAddr":true},{"id":114253298,"name":"旗津燈塔","lat":22.6153184,"lng":120.26488845,"address":null,"hasBabyChanging":false,"hasAccessible":false,"source":"OpenStreetMap","updatedAt":"2026-06-11T02:40:46.199Z","facilityType":"park","facilityLabel":"🌳 小型公園","phone":null,"website":null,"wheelchair":false,"paid":null,"needsAddr":true},{"id":145773874,"name":"勞動女性紀念公園","lat":22.59452485,"lng":120.28107415,"address":null,"hasBabyChanging":false,"hasAccessible":false,"source":"OpenStreetMap","updatedAt":"2026-06-11T02:40:46.199Z","facilityType":"park","facilityLabel":"🌳 中型公園","phone":null,"website":null,"wheelchair":false,"paid":null,"needsAddr":true},{"id":145773967,"name":"旗津海水浴場","lat":22.60706285,"lng":120.26869505,"address":null,"hasBabyChanging":false,"hasAccessible":false,"source":"OpenStreetMap","updatedAt":"2026-06-11T02:40:46.199Z","facilityType":"water","facilityLabel":"💧 戲水親水","phone":null,"website":null,"wheelchair":false,"paid":null,"needsAddr":true},{"id":208697685,"name":"旗津六號公園","lat":22.579902150000002,"lng":120.29214415,"address":null,"hasBabyChanging":false,"hasAccessible":false,"source":"OpenStreetMap","updatedAt":"2026-06-11T02:40:46.199Z","facilityType":"park","facilityLabel":"🌳 中型公園","phone":null,"website":null,"wheelchair":false,"paid":null,"needsAddr":true},{"id":310229847,"name":"旗津海岸公園","lat":22.60183205,"lng":120.27387545,"address":null,"hasBabyChanging":false,"hasAccessible":false,"source":"OpenStreetMap","updatedAt":"2026-06-11T02:40:46.199Z","facilityType":"park","facilityLabel":"🌳 中型公園","phone":null,"website":null,"wheelchair":false,"paid":null,"needsAddr":true},{"id":460767959,"name":"旗津風車公園","lat":22.5881966,"lng":120.28435780000001,"address":null,"hasBabyChanging":false,"hasAccessible":false,"source":"OpenStreetMap","updatedAt":"2026-06-11T02:40:46.199Z","facilityType":"park","facilityLabel":"🌳 小型公園","phone":null,"website":null,"wheelchair":false,"paid":null,"needsAddr":true},{"id":779098313,"name":"戰爭和平紀念公園","lat":22.593039599999997,"lng":120.28128145,"address":null,"hasBabyChanging":false,"hasAccessible":false,"source":"OpenStreetMap","updatedAt":"2026-06-11T02:40:46.199Z","facilityType":"park","facilityLabel":"🌳 大型公園","phone":null,"website":null,"wheelchair":false,"paid":null,"needsAddr":true},{"id":1096197421,"name":"高字塔文化藝術園","lat":22.55405595,"lng":120.3150981,"address":null,"hasBabyChanging":false,"hasAccessible":false,"source":"OpenStreetMap","updatedAt":"2026-06-11T02:40:46.199Z","facilityType":"park","facilityLabel":"🌳 小型公園","phone":null,"website":null,"wheelchair":false,"paid":null,"needsAddr":true}]}