{"city":"高雄市","district":"鼓山區","category":"family","updatedAt":"2026-06-11T02:40:46.199Z","rev":14,"count":52,"items":[{"id":4161415931,"name":"美術館加盟店","lat":22.6605007,"lng":120.2920825,"address":null,"hasBabyChanging":false,"hasAccessible":false,"source":"OpenStreetMap","updatedAt":"2026-06-11T02:40:46.199Z","facilityType":"culture","facilityLabel":"🖼️ 美術館","phone":null,"website":null,"wheelchair":false,"paid":null,"needsAddr":true},{"id":7095333950,"name":"DIY碳烤","lat":22.6182441,"lng":120.26638,"address":null,"hasBabyChanging":false,"hasAccessible":false,"source":"OpenStreetMap","updatedAt":"2026-06-11T02:40:46.199Z","facilityType":"diy","facilityLabel":"🧶 手作DIY","phone":null,"website":null,"wheelchair":false,"paid":null,"needsAddr":true},{"id":8270288613,"name":"哈瑪星鐵道文化園區(臨海新路)","lat":22.62034,"lng":120.27711,"address":null,"hasBabyChanging":false,"hasAccessible":false,"source":"OpenStreetMap","updatedAt":"2026-06-11T02:40:46.199Z","facilityType":"railway","facilityLabel":"🚂 鐵道交通","phone":null,"website":null,"wheelchair":false,"paid":true,"needsAddr":true},{"id":8270288625,"name":"台鐵美術館車站","lat":22.65204,"lng":120.28111,"address":null,"hasBabyChanging":false,"hasAccessible":false,"source":"OpenStreetMap","updatedAt":"2026-06-11T02:40:46.199Z","facilityType":"culture","facilityLabel":"🖼️ 美術館","phone":null,"website":null,"wheelchair":false,"paid":true,"needsAddr":true},{"id":9232484100,"name":"小自然海岸","lat":22.6351532,"lng":120.257436,"address":null,"hasBabyChanging":false,"hasAccessible":false,"source":"OpenStreetMap","updatedAt":"2026-06-11T02:40:46.199Z","facilityType":"water","facilityLabel":"💧 戲水親水","phone":null,"website":null,"wheelchair":false,"paid":null,"needsAddr":true},{"id":23508653,"name":"美術館路","lat":22.6546532,"lng":120.29352005000001,"address":null,"hasBabyChanging":false,"hasAccessible":false,"source":"OpenStreetMap","updatedAt":"2026-06-11T02:40:46.199Z","facilityType":"culture","facilityLabel":"🖼️ 美術館","phone":null,"website":null,"wheelchair":false,"paid":null,"needsAddr":true},{"id":33407989,"name":"內惟公園","lat":22.657351,"lng":120.2782754,"address":null,"hasBabyChanging":false,"hasAccessible":false,"source":"OpenStreetMap","updatedAt":"2026-06-11T02:40:46.199Z","facilityType":"park","facilityLabel":"🌳 中型公園","phone":null,"website":null,"wheelchair":false,"paid":null,"needsAddr":true},{"id":35164003,"name":"凹子底森林公園","lat":22.65950575,"lng":120.29861385000001,"address":null,"hasBabyChanging":false,"hasAccessible":false,"source":"OpenStreetMap","updatedAt":"2026-06-11T02:40:46.199Z","facilityType":"park","facilityLabel":"🌳 大型公園","phone":null,"website":null,"wheelchair":false,"paid":null,"needsAddr":true},{"id":87243043,"name":"高雄市立美術館","lat":22.656514,"lng":120.28620295,"address":"80460高雄市鼓山區美術館路80號","hasBabyChanging":false,"hasAccessible":true,"source":"OpenStreetMap","updatedAt":"2026-06-11T02:40:46.199Z","facilityType":"culture","facilityLabel":"🖼️ 美術館","phone":null,"website":null,"wheelchair":true,"paid":true,"needsAddr":false},{"id":93837449,"name":"內惟埤文化園區","lat":22.658660400000002,"lng":120.2851529,"address":null,"hasBabyChanging":false,"hasAccessible":false,"source":"OpenStreetMap","updatedAt":"2026-06-11T02:40:46.199Z","facilityType":"park","facilityLabel":"🌳 超大型公園","phone":null,"website":null,"wheelchair":false,"paid":null,"needsAddr":true},{"id":112469030,"name":"三民親子公園","lat":22.6511281,"lng":120.29782435000001,"address":null,"hasBabyChanging":false,"hasAccessible":false,"source":"OpenStreetMap","updatedAt":"2026-06-11T02:40:46.199Z","facilityType":"park","facilityLabel":"🌳 大型公園","phone":null,"website":null,"wheelchair":false,"paid":null,"needsAddr":true},{"id":112664176,"name":"民強公園","lat":22.6521665,"lng":120.28017775000001,"address":null,"hasBabyChanging":false,"hasAccessible":false,"source":"OpenStreetMap","updatedAt":"2026-06-11T02:40:46.199Z","facilityType":"park","facilityLabel":"🌳 中型公園","phone":null,"website":null,"wheelchair":false,"paid":null,"needsAddr":true},{"id":112769718,"name":"內惟路435巷","lat":22.66379575,"lng":120.2807177,"address":null,"hasBabyChanging":false,"hasAccessible":false,"source":"OpenStreetMap","updatedAt":"2026-06-11T02:40:46.199Z","facilityType":"culture","facilityLabel":"🎨 文化","phone":null,"website":null,"wheelchair":false,"paid":null,"needsAddr":true},{"id":115597281,"name":"柴山滯洪池公園","lat":22.645994950000002,"lng":120.2756947,"address":null,"hasBabyChanging":false,"hasAccessible":false,"source":"OpenStreetMap","updatedAt":"2026-06-11T02:40:46.199Z","facilityType":"park","facilityLabel":"🌳 大型公園","phone":null,"website":null,"wheelchair":false,"paid":null,"needsAddr":true},{"id":115597309,"name":"厚生兒童遊戲場","lat":22.645983049999998,"lng":120.27872375,"address":null,"hasBabyChanging":false,"hasAccessible":false,"source":"OpenStreetMap","updatedAt":"2026-06-11T02:40:46.199Z","facilityType":"park","facilityLabel":"🌳 小型公園","phone":null,"website":null,"wheelchair":false,"paid":null,"needsAddr":true},{"id":184383629,"name":"美術館路","lat":22.654834,"lng":120.28508665,"address":null,"hasBabyChanging":false,"hasAccessible":false,"source":"OpenStreetMap","updatedAt":"2026-06-11T02:40:46.199Z","facilityType":"culture","facilityLabel":"🖼️ 美術館","phone":null,"website":null,"wheelchair":false,"paid":null,"needsAddr":true},{"id":204056225,"name":"西子灣沙灘會館","lat":22.62480515,"lng":120.26458735,"address":null,"hasBabyChanging":false,"hasAccessible":false,"source":"OpenStreetMap","updatedAt":"2026-06-11T02:40:46.199Z","facilityType":"water","facilityLabel":"💧 戲水親水","phone":null,"website":null,"wheelchair":false,"paid":null,"needsAddr":true},{"id":205060861,"name":"哨船頭公園","lat":22.61847145,"lng":120.26921815,"address":null,"hasBabyChanging":false,"hasAccessible":false,"source":"OpenStreetMap","updatedAt":"2026-06-11T02:40:46.199Z","facilityType":"park","facilityLabel":"🌳 小型公園","phone":null,"website":null,"wheelchair":false,"paid":null,"needsAddr":true},{"id":215570998,"name":"雄峰公園","lat":22.66755475,"lng":120.2837778,"address":null,"hasBabyChanging":false,"hasAccessible":false,"source":"OpenStreetMap","updatedAt":"2026-06-11T02:40:46.199Z","facilityType":"park","facilityLabel":"🌳 中型公園","phone":null,"website":null,"wheelchair":false,"paid":null,"needsAddr":true},{"id":230282252,"name":"高雄市壽山動物園","lat":22.63554685,"lng":120.27476845,"address":"80444高雄市鼓山區萬壽路350號","hasBabyChanging":false,"hasAccessible":false,"source":"OpenStreetMap","updatedAt":"2026-06-11T02:40:46.199Z","facilityType":"zoo","facilityLabel":"🦁 動物園","phone":null,"website":"https://zoo.kcg.gov.tw","wheelchair":false,"paid":true,"needsAddr":false},{"id":236847606,"name":"華榮公園","lat":22.664202000000003,"lng":120.2964841,"address":null,"hasBabyChanging":false,"hasAccessible":false,"source":"OpenStreetMap","updatedAt":"2026-06-11T02:40:46.199Z","facilityType":"park","facilityLabel":"🌳 小型公園","phone":null,"website":null,"wheelchair":false,"paid":null,"needsAddr":true},{"id":244507790,"name":"美術館路","lat":22.65469585,"lng":120.29097005,"address":null,"hasBabyChanging":false,"hasAccessible":false,"source":"OpenStreetMap","updatedAt":"2026-06-11T02:40:46.199Z","facilityType":"culture","facilityLabel":"🖼️ 美術館","phone":null,"website":null,"wheelchair":false,"paid":null,"needsAddr":true},{"id":284792075,"name":"野餐公園","lat":22.65452545,"lng":120.28760815,"address":null,"hasBabyChanging":false,"hasAccessible":false,"source":"OpenStreetMap","updatedAt":"2026-06-11T02:40:46.199Z","facilityType":"park","facilityLabel":"🌳 小型公園","phone":null,"website":null,"wheelchair":false,"paid":null,"needsAddr":true},{"id":296977688,"name":"美術館路","lat":22.65481285,"lng":120.2881499,"address":null,"hasBabyChanging":false,"hasAccessible":false,"source":"OpenStreetMap","updatedAt":"2026-06-11T02:40:46.199Z","facilityType":"culture","facilityLabel":"🖼️ 美術館","phone":null,"website":null,"wheelchair":false,"paid":null,"needsAddr":true},{"id":312069083,"name":"凹仔底森林公園管理中心","lat":22.65902235,"lng":120.2983387,"address":null,"hasBabyChanging":false,"hasAccessible":false,"source":"OpenStreetMap","updatedAt":"2026-06-11T02:40:46.199Z","facilityType":"park","facilityLabel":"🌳 小型公園","phone":null,"website":null,"wheelchair":false,"paid":null,"needsAddr":true},{"id":374653583,"name":"市立兒童美術館","lat":22.65790995,"lng":120.2830227,"address":null,"hasBabyChanging":false,"hasAccessible":false,"source":"OpenStreetMap","updatedAt":"2026-06-11T02:40:46.199Z","facilityType":"culture","facilityLabel":"🖼️ 美術館","phone":null,"website":null,"wheelchair":false,"paid":false,"needsAddr":true},{"id":398907235,"name":"兒童牧場","lat":22.6365286,"lng":120.27581075,"address":null,"hasBabyChanging":false,"hasAccessible":false,"source":"OpenStreetMap","updatedAt":"2026-06-11T02:40:46.199Z","facilityType":"farm","facilityLabel":"🌾 休閒農場","phone":null,"website":null,"wheelchair":false,"paid":null,"needsAddr":true},{"id":398920287,"name":"親水廣場","lat":22.63464205,"lng":120.27475635,"address":null,"hasBabyChanging":false,"hasAccessible":false,"source":"OpenStreetMap","updatedAt":"2026-06-11T02:40:46.199Z","facilityType":"water","facilityLabel":"💧 戲水親水","phone":null,"website":null,"wheelchair":false,"paid":null,"needsAddr":true},{"id":447994147,"name":"涼涼海之濱","lat":22.61939055,"lng":120.27222505,"address":null,"hasBabyChanging":false,"hasAccessible":false,"source":"OpenStreetMap","updatedAt":"2026-06-11T02:40:46.199Z","facilityType":"park","facilityLabel":"🌳 小型公園","phone":null,"website":null,"wheelchair":false,"paid":null,"needsAddr":true},{"id":556031317,"name":"四海之家歷史建築紀念公園","lat":22.62333565,"lng":120.27202975,"address":null,"hasBabyChanging":false,"hasAccessible":false,"source":"OpenStreetMap","updatedAt":"2026-06-11T02:40:46.199Z","facilityType":"park","facilityLabel":"🌳 小型公園","phone":null,"website":null,"wheelchair":false,"paid":null,"needsAddr":true},{"id":607189241,"name":"秀拉兒童遊戲場(鉛筆公園)","lat":22.660339049999997,"lng":120.28901225,"address":null,"hasBabyChanging":false,"hasAccessible":false,"source":"OpenStreetMap","updatedAt":"2026-06-11T02:40:46.199Z","facilityType":"park","facilityLabel":"🌳 小型公園","phone":null,"website":null,"wheelchair":false,"paid":null,"needsAddr":true},{"id":613366771,"name":"標本博物館","lat":22.63450445,"lng":120.27566775,"address":null,"hasBabyChanging":false,"hasAccessible":false,"source":"OpenStreetMap","updatedAt":"2026-06-11T02:40:46.199Z","facilityType":"science","facilityLabel":"🔬 科學館","phone":null,"website":null,"wheelchair":false,"paid":null,"needsAddr":true},{"id":777949236,"name":"多功能公園","lat":22.663407,"lng":120.27928754999999,"address":null,"hasBabyChanging":false,"hasAccessible":false,"source":"OpenStreetMap","updatedAt":"2026-06-11T02:40:46.199Z","facilityType":"park","facilityLabel":"🌳 小型公園","phone":null,"website":null,"wheelchair":false,"paid":null,"needsAddr":true},{"id":779098277,"name":"內惟埤公園","lat":22.662554200000002,"lng":120.2835303,"address":null,"hasBabyChanging":false,"hasAccessible":false,"source":"OpenStreetMap","updatedAt":"2026-06-11T02:40:46.199Z","facilityType":"park","facilityLabel":"🌳 小型公園","phone":null,"website":null,"wheelchair":false,"paid":null,"needsAddr":true},{"id":779098286,"name":"正德里柴山園","lat":22.64887245,"lng":120.2756947,"address":null,"hasBabyChanging":false,"hasAccessible":false,"source":"OpenStreetMap","updatedAt":"2026-06-11T02:40:46.199Z","facilityType":"park","facilityLabel":"🌳 小型公園","phone":null,"website":null,"wheelchair":false,"paid":null,"needsAddr":true},{"id":779579558,"name":"青海公園","lat":22.6509268,"lng":120.2833837,"address":null,"hasBabyChanging":false,"hasAccessible":false,"source":"OpenStreetMap","updatedAt":"2026-06-11T02:40:46.199Z","facilityType":"park","facilityLabel":"🌳 小型公園","phone":null,"website":null,"wheelchair":false,"paid":null,"needsAddr":true},{"id":844334132,"name":"美術館情人草原","lat":22.6593996,"lng":120.28450335,"address":null,"hasBabyChanging":false,"hasAccessible":false,"source":"OpenStreetMap","updatedAt":"2026-06-11T02:40:46.199Z","facilityType":"culture","facilityLabel":"🖼️ 美術館","phone":null,"website":null,"wheelchair":false,"paid":null,"needsAddr":true},{"id":909287104,"name":"鐵路地下化左營園道","lat":22.669803950000002,"lng":120.29014839999999,"address":null,"hasBabyChanging":false,"hasAccessible":false,"source":"OpenStreetMap","updatedAt":"2026-06-11T02:40:46.199Z","facilityType":"park","facilityLabel":"🌳 中型公園","phone":null,"website":null,"wheelchair":false,"paid":null,"needsAddr":true},{"id":919610653,"name":"鐵路地下化左營園道","lat":22.67329515,"lng":120.29323930000001,"address":null,"hasBabyChanging":false,"hasAccessible":false,"source":"OpenStreetMap","updatedAt":"2026-06-11T02:40:46.199Z","facilityType":"park","facilityLabel":"🌳 中型公園","phone":null,"website":null,"wheelchair":false,"paid":null,"needsAddr":true},{"id":973524778,"name":"美術館路","lat":22.654656000000003,"lng":120.29194435,"address":null,"hasBabyChanging":false,"hasAccessible":false,"source":"OpenStreetMap","updatedAt":"2026-06-11T02:40:46.199Z","facilityType":"culture","facilityLabel":"🖼️ 美術館","phone":null,"website":null,"wheelchair":false,"paid":null,"needsAddr":true},{"id":1056803942,"name":"臺鐵美術館站","lat":22.65213285,"lng":120.28170159999999,"address":null,"hasBabyChanging":false,"hasAccessible":false,"source":"OpenStreetMap","updatedAt":"2026-06-11T02:40:46.199Z","facilityType":"culture","facilityLabel":"🖼️ 美術館","phone":null,"website":null,"wheelchair":false,"paid":null,"needsAddr":true},{"id":1118897582,"name":"綠川里公園","lat":22.6368181,"lng":120.2840501,"address":null,"hasBabyChanging":false,"hasAccessible":false,"source":"OpenStreetMap","updatedAt":"2026-06-11T02:40:46.199Z","facilityType":"park","facilityLabel":"🌳 小型公園","phone":null,"website":null,"wheelchair":false,"paid":null,"needsAddr":true},{"id":1159447844,"name":"金馬賓館當代美術館","lat":22.6277642,"lng":120.27886000000001,"address":"804高雄市鼓山區鼓山一路111號","hasBabyChanging":false,"hasAccessible":false,"source":"OpenStreetMap","updatedAt":"2026-06-11T02:40:46.199Z","facilityType":"culture","facilityLabel":"🖼️ 美術館","phone":null,"website":"https://www.alien.com.tw/","wheelchair":false,"paid":null,"needsAddr":false},{"id":1248239051,"name":"哈瑪星台灣鐵道館","lat":22.620849049999997,"lng":120.2784254,"address":null,"hasBabyChanging":false,"hasAccessible":false,"source":"OpenStreetMap","updatedAt":"2026-06-11T02:40:46.199Z","facilityType":"railway","facilityLabel":"🚂 鐵道交通","phone":null,"website":null,"wheelchair":false,"paid":true,"needsAddr":true},{"id":6650289,"name":"打狗鐵道公園","lat":22.62261555,"lng":120.27643040000001,"address":null,"hasBabyChanging":false,"hasAccessible":false,"source":"OpenStreetMap","updatedAt":"2026-06-11T02:40:46.199Z","facilityType":"railway","facilityLabel":"🚂 鐵道交通","phone":null,"website":null,"wheelchair":false,"paid":null,"needsAddr":true},{"id":6786961,"name":"打狗英國領事館文化園區","lat":22.618292150000002,"lng":120.26707975,"address":"高雄市鼓山區蓮海路20號","hasBabyChanging":false,"hasAccessible":false,"source":"OpenStreetMap","updatedAt":"2026-06-11T02:40:46.199Z","facilityType":"theme_park","facilityLabel":"🎡 遊樂園","phone":"+886 7 525 0100","website":"https://britishconsulate.kcg.gov.tw/","wheelchair":false,"paid":null,"needsAddr":false},{"id":8208715,"name":"高雄市忠烈祠","lat":22.62601715,"lng":120.27397085,"address":null,"hasBabyChanging":false,"hasAccessible":false,"source":"OpenStreetMap","updatedAt":"2026-06-11T02:40:46.199Z","facilityType":"park","facilityLabel":"🌳 中型公園","phone":null,"website":null,"wheelchair":false,"paid":null,"needsAddr":true},{"id":8209408,"name":"西子灣沙灘","lat":22.6319486,"lng":120.26051925,"address":null,"hasBabyChanging":false,"hasAccessible":false,"source":"OpenStreetMap","updatedAt":"2026-06-11T02:40:46.199Z","facilityType":"water","facilityLabel":"💧 戲水親水","phone":null,"website":null,"wheelchair":false,"paid":null,"needsAddr":true},{"id":8209409,"name":"西子灣海水浴場","lat":22.62588025,"lng":120.2628023,"address":null,"hasBabyChanging":false,"hasAccessible":false,"source":"OpenStreetMap","updatedAt":"2026-06-11T02:40:46.199Z","facilityType":"water","facilityLabel":"💧 戲水親水","phone":null,"website":null,"wheelchair":false,"paid":null,"needsAddr":true},{"id":8385980,"name":"凹子底森林公園","lat":22.65877935,"lng":120.3015049,"address":null,"hasBabyChanging":false,"hasAccessible":false,"source":"OpenStreetMap","updatedAt":"2026-06-11T02:40:46.199Z","facilityType":"park","facilityLabel":"🌳 大型公園","phone":null,"website":null,"wheelchair":false,"paid":null,"needsAddr":true},{"id":8385990,"name":"明誠公園","lat":22.6651373,"lng":120.30281414999999,"address":null,"hasBabyChanging":false,"hasAccessible":false,"source":"OpenStreetMap","updatedAt":"2026-06-11T02:40:46.199Z","facilityType":"park","facilityLabel":"🌳 小型公園","phone":null,"website":null,"wheelchair":false,"paid":null,"needsAddr":true},{"id":17922107,"name":"高港水花園","lat":22.61788525,"lng":120.2796051,"address":null,"hasBabyChanging":false,"hasAccessible":false,"source":"OpenStreetMap","updatedAt":"2026-06-11T02:40:46.199Z","facilityType":"park","facilityLabel":"🌳 大型公園","phone":null,"website":null,"wheelchair":false,"paid":null,"needsAddr":true}]}