{"city":"苗栗縣","district":"苑裡鎮","category":"family","updatedAt":"2026-06-16T15:54:24.202Z","rev":24,"count":21,"items":[{"id":3656277435,"name":"苑裡老街(天下路老街)","lat":24.4443343,"lng":120.6535592,"address":null,"hasBabyChanging":false,"hasAccessible":false,"source":"OpenStreetMap","updatedAt":"2026-06-16T15:54:24.202Z","facilityType":"tourist_attraction","facilityLabel":"🧭 旅遊景點","phone":null,"website":null,"wheelchair":false,"paid":null,"needsAddr":true},{"id":9229363493,"name":"大山母梅花鹿場","lat":24.4344283,"lng":120.6841663,"address":null,"hasBabyChanging":false,"hasAccessible":false,"source":"OpenStreetMap","updatedAt":"2026-06-16T15:54:24.202Z","facilityType":"spot","facilityLabel":"📍 親子景點","phone":null,"website":null,"wheelchair":false,"paid":null,"needsAddr":true},{"id":200020994,"name":"蘭草文化館","lat":24.414488050000003,"lng":120.6854209,"address":null,"hasBabyChanging":false,"hasAccessible":false,"source":"OpenStreetMap","updatedAt":"2026-06-16T15:54:24.202Z","facilityType":"science","facilityLabel":"🔬 博物館","phone":null,"website":null,"wheelchair":false,"paid":null,"needsAddr":true},{"id":331488285,"name":"小塊藺草田與步道入口","lat":24.41430955,"lng":120.6909299,"address":null,"hasBabyChanging":false,"hasAccessible":false,"source":"OpenStreetMap","updatedAt":"2026-06-16T15:54:24.202Z","facilityType":"park","facilityLabel":"🌳 小型公園","phone":null,"website":null,"wheelchair":false,"paid":null,"needsAddr":true},{"id":331489522,"name":"山腳公園","lat":24.4167744,"lng":120.68796624999999,"address":null,"hasBabyChanging":false,"hasAccessible":false,"source":"OpenStreetMap","updatedAt":"2026-06-16T15:54:24.202Z","facilityType":"park","facilityLabel":"🌳 小型公園","phone":null,"website":null,"wheelchair":false,"paid":null,"needsAddr":true},{"id":449497364,"name":"苑裡港濱海公園","lat":24.459537249999997,"lng":120.64784175,"address":null,"hasBabyChanging":false,"hasAccessible":false,"source":"OpenStreetMap","updatedAt":"2026-06-16T15:54:24.202Z","facilityType":"park","facilityLabel":"🌳 中型公園","phone":null,"website":null,"wheelchair":false,"paid":null,"needsAddr":true},{"id":571274520,"name":"社苓公園","lat":24.3986343,"lng":120.6749405,"address":null,"hasBabyChanging":false,"hasAccessible":false,"source":"OpenStreetMap","updatedAt":"2026-06-16T15:54:24.202Z","facilityType":"park","facilityLabel":"🌳 小型公園","phone":null,"website":null,"wheelchair":false,"paid":null,"needsAddr":true},{"id":571278152,"name":"苑裡鎮地標社苓重劃公園","lat":24.404839250000002,"lng":120.6722474,"address":"358苗栗縣苑裡鎮中正里119號","hasBabyChanging":false,"hasAccessible":false,"source":"OpenStreetMap","updatedAt":"2026-06-16T15:54:24.202Z","facilityType":"tourist_attraction","facilityLabel":"🧭 旅遊景點","phone":null,"website":null,"wheelchair":false,"paid":null,"needsAddr":false},{"id":571436176,"name":"李家花園","lat":24.3977817,"lng":120.6768282,"address":null,"hasBabyChanging":false,"hasAccessible":false,"source":"OpenStreetMap","updatedAt":"2026-06-16T15:54:24.202Z","facilityType":"park","facilityLabel":"🌳 小型公園","phone":null,"website":null,"wheelchair":false,"paid":null,"needsAddr":true},{"id":571436909,"name":"土地公廟園區","lat":24.39835985,"lng":120.67767775,"address":null,"hasBabyChanging":false,"hasAccessible":false,"source":"OpenStreetMap","updatedAt":"2026-06-16T15:54:24.202Z","facilityType":"park","facilityLabel":"🌳 小型公園","phone":null,"website":null,"wheelchair":false,"paid":null,"needsAddr":true},{"id":575290281,"name":"彩繪稻田","lat":24.41397345,"lng":120.6861151,"address":null,"hasBabyChanging":false,"hasAccessible":false,"source":"OpenStreetMap","updatedAt":"2026-06-16T15:54:24.202Z","facilityType":"park","facilityLabel":"🌳 小型公園","phone":null,"website":null,"wheelchair":false,"paid":null,"needsAddr":true},{"id":575290283,"name":"苑裡鎮藺草文化園區","lat":24.414441500000002,"lng":120.68572055,"address":null,"hasBabyChanging":false,"hasAccessible":false,"source":"OpenStreetMap","updatedAt":"2026-06-16T15:54:24.202Z","facilityType":"park","facilityLabel":"🌳 小型公園","phone":null,"website":null,"wheelchair":false,"paid":null,"needsAddr":true},{"id":575293974,"name":"玉山公園","lat":24.394500999999998,"lng":120.672767,"address":null,"hasBabyChanging":false,"hasAccessible":false,"source":"OpenStreetMap","updatedAt":"2026-06-16T15:54:24.202Z","facilityType":"park","facilityLabel":"🌳 小型公園","phone":null,"website":null,"wheelchair":false,"paid":null,"needsAddr":true},{"id":575295965,"name":"山柑公園","lat":24.396258850000002,"lng":120.6738979,"address":null,"hasBabyChanging":false,"hasAccessible":false,"source":"OpenStreetMap","updatedAt":"2026-06-16T15:54:24.202Z","facilityType":"park","facilityLabel":"🌳 小型公園","phone":null,"website":null,"wheelchair":false,"paid":null,"needsAddr":true},{"id":703265948,"name":"蓬山公園","lat":24.4403923,"lng":120.658547,"address":null,"hasBabyChanging":false,"hasAccessible":false,"source":"OpenStreetMap","updatedAt":"2026-06-16T15:54:24.202Z","facilityType":"park","facilityLabel":"🌳 小型公園","phone":null,"website":null,"wheelchair":false,"paid":null,"needsAddr":true},{"id":740754806,"name":"金良興觀光工廠（灣麗磚瓦博物館）","lat":24.4219142,"lng":120.69174365,"address":null,"hasBabyChanging":false,"hasAccessible":false,"source":"OpenStreetMap","updatedAt":"2026-06-16T15:54:24.202Z","facilityType":"factory","facilityLabel":"🏭 觀光工廠","phone":null,"website":null,"wheelchair":false,"paid":null,"needsAddr":true},{"id":860732639,"name":"火炎山遊樂區","lat":24.411168,"lng":120.70325735,"address":null,"hasBabyChanging":false,"hasAccessible":false,"source":"OpenStreetMap","updatedAt":"2026-06-16T15:54:24.202Z","facilityType":"theme_park","facilityLabel":"🎡 遊樂場","phone":null,"website":null,"wheelchair":false,"paid":null,"needsAddr":true},{"id":983263067,"name":"灣麗親子公園","lat":24.44752165,"lng":120.65651005000001,"address":null,"hasBabyChanging":false,"hasAccessible":false,"source":"OpenStreetMap","updatedAt":"2026-06-16T15:54:24.202Z","facilityType":"park","facilityLabel":"🌳 小型公園","phone":null,"website":null,"wheelchair":false,"paid":null,"needsAddr":true},{"id":1071254932,"name":"苑裡出水沙灘","lat":24.4543974,"lng":120.6421285,"address":null,"hasBabyChanging":false,"hasAccessible":false,"source":"OpenStreetMap","updatedAt":"2026-06-16T15:54:24.202Z","facilityType":"beach","facilityLabel":"🏖 沙灘","phone":null,"website":null,"wheelchair":false,"paid":null,"needsAddr":true},{"id":1500954857,"name":"義渡運動公園","lat":24.43579725,"lng":120.6402808,"address":null,"hasBabyChanging":false,"hasAccessible":false,"source":"OpenStreetMap","updatedAt":"2026-06-16T15:54:24.202Z","facilityType":"park","facilityLabel":"🌳 中型公園","phone":null,"website":null,"wheelchair":false,"paid":null,"needsAddr":true},{"id":6990551,"name":"苗栗三義火炎山自然保留區","lat":24.3657884,"lng":120.72497785,"address":null,"hasBabyChanging":false,"hasAccessible":false,"source":"OpenStreetMap","updatedAt":"2026-06-16T15:54:24.202Z","facilityType":"spot","facilityLabel":"📍 親子景點","phone":null,"website":"https://conservation.forest.gov.tw/0000116","wheelchair":false,"paid":null,"needsAddr":true}]}