{"city":"花蓮縣","district":"光復鄉","category":"family","updatedAt":"2026-06-16T15:54:24.202Z","rev":24,"count":19,"items":[{"id":2124910159,"name":"大農大富平地森林園區","lat":23.6223944,"lng":121.4015013,"address":null,"hasBabyChanging":false,"hasAccessible":false,"source":"OpenStreetMap","updatedAt":"2026-06-16T15:54:24.202Z","facilityType":"tourist_attraction","facilityLabel":"🧭 旅遊景點","phone":null,"website":null,"wheelchair":false,"paid":null,"needsAddr":true},{"id":2125115335,"name":"阿漾咕咕","lat":23.6584482,"lng":121.4388201,"address":null,"hasBabyChanging":false,"hasAccessible":false,"source":"OpenStreetMap","updatedAt":"2026-06-16T15:54:24.202Z","facilityType":"tourist_attraction","facilityLabel":"🧭 旅遊景點","phone":null,"website":null,"wheelchair":false,"paid":null,"needsAddr":true},{"id":2484567643,"name":"花糖文物館","lat":23.6589858,"lng":121.4216769,"address":null,"hasBabyChanging":false,"hasAccessible":true,"source":"OpenStreetMap","updatedAt":"2026-06-16T15:54:24.202Z","facilityType":"culture","facilityLabel":"🎨 藝文場館","phone":null,"website":null,"wheelchair":true,"paid":null,"needsAddr":true},{"id":4102373492,"name":"花蓮翱翔季","lat":23.6738987,"lng":121.4505764,"address":null,"hasBabyChanging":false,"hasAccessible":false,"source":"OpenStreetMap","updatedAt":"2026-06-16T15:54:24.202Z","facilityType":"tourist_attraction","facilityLabel":"🧭 旅遊景點","phone":null,"website":null,"wheelchair":false,"paid":null,"needsAddr":true},{"id":4102392291,"name":"馬太鞍濕地","lat":23.6583597,"lng":121.4092788,"address":null,"hasBabyChanging":false,"hasAccessible":false,"source":"OpenStreetMap","updatedAt":"2026-06-16T15:54:24.202Z","facilityType":"tourist_attraction","facilityLabel":"🧭 旅遊景點","phone":null,"website":null,"wheelchair":false,"paid":null,"needsAddr":true},{"id":5948178092,"name":"孟公園農場露營區","lat":23.5960081,"lng":121.4095442,"address":"花蓮縣光復鄉建國路一段16號","hasBabyChanging":false,"hasAccessible":true,"source":"OpenStreetMap","updatedAt":"2026-06-16T15:54:24.202Z","facilityType":"farm","facilityLabel":"🌾 農場","phone":null,"website":null,"wheelchair":true,"paid":null,"needsAddr":false},{"id":7843869616,"name":"大農大富平地森林旅客服務中心","lat":23.614452,"lng":121.4175113,"address":null,"hasBabyChanging":false,"hasAccessible":false,"source":"OpenStreetMap","updatedAt":"2026-06-16T15:54:24.202Z","facilityType":"visitor_center","facilityLabel":"🛎 旅客中心","phone":null,"website":null,"wheelchair":false,"paid":null,"needsAddr":true},{"id":8072394512,"name":"馬太鞍部落納骨碑","lat":23.6751931,"lng":121.4304417,"address":null,"hasBabyChanging":false,"hasAccessible":false,"source":"OpenStreetMap","updatedAt":"2026-06-16T15:54:24.202Z","facilityType":"tourist_attraction","facilityLabel":"🧭 旅遊景點","phone":null,"website":null,"wheelchair":false,"paid":null,"needsAddr":true},{"id":8072394804,"name":"富田古井","lat":23.66122,"lng":121.4535396,"address":null,"hasBabyChanging":false,"hasAccessible":false,"source":"OpenStreetMap","updatedAt":"2026-06-16T15:54:24.202Z","facilityType":"tourist_attraction","facilityLabel":"🧭 旅遊景點","phone":null,"website":null,"wheelchair":false,"paid":null,"needsAddr":true},{"id":8072394805,"name":"富田納骨碑","lat":23.6606782,"lng":121.4541833,"address":null,"hasBabyChanging":false,"hasAccessible":false,"source":"OpenStreetMap","updatedAt":"2026-06-16T15:54:24.202Z","facilityType":"tourist_attraction","facilityLabel":"🧭 旅遊景點","phone":null,"website":null,"wheelchair":false,"paid":null,"needsAddr":true},{"id":202547079,"name":"花蓮糖廠遊客中心","lat":23.65679685,"lng":121.41985625,"address":"976花蓮縣光復鄉糖廠街19號","hasBabyChanging":false,"hasAccessible":false,"source":"OpenStreetMap","updatedAt":"2026-06-16T15:54:24.202Z","facilityType":"visitor_center","facilityLabel":"🛎 旅客中心","phone":"+886 3 870 4125","website":null,"wheelchair":false,"paid":null,"needsAddr":false},{"id":369964509,"name":"大富大農平地森林園區","lat":23.614516950000002,"lng":121.41512854999999,"address":null,"hasBabyChanging":false,"hasAccessible":false,"source":"OpenStreetMap","updatedAt":"2026-06-16T15:54:24.202Z","facilityType":"theme_park","facilityLabel":"🎡 遊樂場","phone":"+886 3 870 0870","website":null,"wheelchair":false,"paid":null,"needsAddr":true},{"id":649401309,"name":"洪華公園","lat":23.66683005,"lng":121.42326424999999,"address":null,"hasBabyChanging":false,"hasAccessible":false,"source":"OpenStreetMap","updatedAt":"2026-06-16T15:54:24.202Z","facilityType":"park","facilityLabel":"🌳 小型公園","phone":null,"website":null,"wheelchair":false,"paid":null,"needsAddr":true},{"id":866063138,"name":"太巴塱kakita'an祖屋","lat":23.6608462,"lng":121.4539496,"address":null,"hasBabyChanging":false,"hasAccessible":false,"source":"OpenStreetMap","updatedAt":"2026-06-16T15:54:24.202Z","facilityType":"tourist_attraction","facilityLabel":"🧭 旅遊景點","phone":null,"website":null,"wheelchair":false,"paid":null,"needsAddr":true},{"id":1073283698,"name":"Tafalong文化祭祀廣場","lat":23.65635985,"lng":121.4550858,"address":null,"hasBabyChanging":false,"hasAccessible":false,"source":"OpenStreetMap","updatedAt":"2026-06-16T15:54:24.202Z","facilityType":"park","facilityLabel":"🌳 中型公園","phone":null,"website":null,"wheelchair":false,"paid":null,"needsAddr":true},{"id":1434068796,"name":"太平保安公園","lat":23.67191715,"lng":121.43558755000001,"address":null,"hasBabyChanging":false,"hasAccessible":false,"source":"OpenStreetMap","updatedAt":"2026-06-16T15:54:24.202Z","facilityType":"park","facilityLabel":"🌳 中型公園","phone":null,"website":null,"wheelchair":false,"paid":null,"needsAddr":true},{"id":1434289595,"name":"光復獅子公園","lat":23.68388745,"lng":121.40986914999999,"address":null,"hasBabyChanging":false,"hasAccessible":false,"source":"OpenStreetMap","updatedAt":"2026-06-16T15:54:24.202Z","facilityType":"park","facilityLabel":"🌳 中型公園","phone":null,"website":null,"wheelchair":false,"paid":null,"needsAddr":true},{"id":3262383,"name":"花蓮觀光糖廠","lat":23.657694749999997,"lng":121.4218114,"address":"花蓮縣光復鄉大進村糖廠街19號","hasBabyChanging":false,"hasAccessible":true,"source":"OpenStreetMap","updatedAt":"2026-06-16T15:54:24.202Z","facilityType":"tourist_attraction","facilityLabel":"🧭 旅遊景點","phone":"+886 0800 026 168","website":"http://www.hualiensugar.com.tw","wheelchair":true,"paid":null,"needsAddr":false},{"id":7075261,"name":"花東沿海保護區","lat":23.36054935,"lng":121.3802612,"address":null,"hasBabyChanging":false,"hasAccessible":false,"source":"OpenStreetMap","updatedAt":"2026-06-16T15:54:24.202Z","facilityType":"spot","facilityLabel":"📍 親子景點","phone":null,"website":"http://www.cpami.gov.tw/chinese/index.php?option=com_content&view=article&id=18327&Itemid=53","wheelchair":false,"paid":null,"needsAddr":true}]}