{"city":"花蓮縣","district":"光復鄉","category":"family","updatedAt":"2026-06-11T08:39:29.880Z","rev":14,"count":6,"items":[{"id":5948178092,"name":"孟公園農場露營區","lat":23.5960081,"lng":121.4095442,"address":"花蓮縣光復鄉建國路一段16號","hasBabyChanging":false,"hasAccessible":true,"source":"OpenStreetMap","updatedAt":"2026-06-11T08:39:29.880Z","facilityType":"camp","facilityLabel":"⛺ 露營休閒","phone":null,"website":null,"wheelchair":true,"paid":null,"needsAddr":false},{"id":369964509,"name":"大富大農平地森林園區","lat":23.614516950000002,"lng":121.41512854999999,"address":null,"hasBabyChanging":false,"hasAccessible":false,"source":"OpenStreetMap","updatedAt":"2026-06-11T08:39:29.880Z","facilityType":"theme_park","facilityLabel":"🎡 遊樂園","phone":"+886 3 870 0870","website":null,"wheelchair":false,"paid":null,"needsAddr":true},{"id":649401309,"name":"洪華公園","lat":23.66683005,"lng":121.42326424999999,"address":null,"hasBabyChanging":false,"hasAccessible":false,"source":"OpenStreetMap","updatedAt":"2026-06-11T08:39:29.880Z","facilityType":"park","facilityLabel":"🌳 小型公園","phone":null,"website":null,"wheelchair":false,"paid":null,"needsAddr":true},{"id":1073283698,"name":"Tafalong文化祭祀廣場","lat":23.65635985,"lng":121.4550858,"address":null,"hasBabyChanging":false,"hasAccessible":false,"source":"OpenStreetMap","updatedAt":"2026-06-11T08:39:29.880Z","facilityType":"park","facilityLabel":"🌳 中型公園","phone":null,"website":null,"wheelchair":false,"paid":null,"needsAddr":true},{"id":1434068796,"name":"太平保安公園","lat":23.67191715,"lng":121.43558755000001,"address":null,"hasBabyChanging":false,"hasAccessible":false,"source":"OpenStreetMap","updatedAt":"2026-06-11T08:39:29.880Z","facilityType":"park","facilityLabel":"🌳 中型公園","phone":null,"website":null,"wheelchair":false,"paid":null,"needsAddr":true},{"id":1434289595,"name":"光復獅子公園","lat":23.68388745,"lng":121.40986914999999,"address":null,"hasBabyChanging":false,"hasAccessible":false,"source":"OpenStreetMap","updatedAt":"2026-06-11T08:39:29.880Z","facilityType":"park","facilityLabel":"🌳 中型公園","phone":null,"website":null,"wheelchair":false,"paid":null,"needsAddr":true}]}