{"city":"花蓮縣","district":"卓溪鄉","category":"family","updatedAt":"2026-06-11T08:39:29.880Z","rev":14,"count":12,"items":[{"id":3062565165,"name":"布新營地","lat":23.2933853,"lng":121.0562398,"address":null,"hasBabyChanging":false,"hasAccessible":false,"source":"OpenStreetMap","updatedAt":"2026-06-11T08:39:29.880Z","facilityType":"camp","facilityLabel":"⛺ 露營休閒","phone":null,"website":null,"wheelchair":false,"paid":null,"needsAddr":true},{"id":3064382521,"name":"桃源營地","lat":23.3108034,"lng":121.0933713,"address":null,"hasBabyChanging":false,"hasAccessible":false,"source":"OpenStreetMap","updatedAt":"2026-06-11T08:39:29.880Z","facilityType":"camp","facilityLabel":"⛺ 露營休閒","phone":null,"website":null,"wheelchair":false,"paid":null,"needsAddr":true},{"id":3064383048,"name":"連理山西峰營地","lat":23.3075904,"lng":121.0702021,"address":null,"hasBabyChanging":false,"hasAccessible":false,"source":"OpenStreetMap","updatedAt":"2026-06-11T08:39:29.880Z","facilityType":"camp","facilityLabel":"⛺ 露營休閒","phone":null,"website":null,"wheelchair":false,"paid":null,"needsAddr":true},{"id":3066362605,"name":"新仙山前營地","lat":23.3204164,"lng":121.1153152,"address":null,"hasBabyChanging":false,"hasAccessible":false,"source":"OpenStreetMap","updatedAt":"2026-06-11T08:39:29.880Z","facilityType":"camp","facilityLabel":"⛺ 露營休閒","phone":null,"website":null,"wheelchair":false,"paid":null,"needsAddr":true},{"id":3066365707,"name":"新仙山營地","lat":23.3207978,"lng":121.117167,"address":null,"hasBabyChanging":false,"hasAccessible":false,"source":"OpenStreetMap","updatedAt":"2026-06-11T08:39:29.880Z","facilityType":"camp","facilityLabel":"⛺ 露營休閒","phone":null,"website":null,"wheelchair":false,"paid":null,"needsAddr":true},{"id":4542480289,"name":"太平溪營地","lat":23.5907698,"lng":121.1938409,"address":null,"hasBabyChanging":false,"hasAccessible":false,"source":"OpenStreetMap","updatedAt":"2026-06-11T08:39:29.880Z","facilityType":"camp","facilityLabel":"⛺ 露營休閒","phone":null,"website":null,"wheelchair":false,"paid":null,"needsAddr":true},{"id":6990148649,"name":"看天池營地","lat":23.5788556,"lng":121.2175387,"address":null,"hasBabyChanging":false,"hasAccessible":false,"source":"OpenStreetMap","updatedAt":"2026-06-11T08:39:29.880Z","facilityType":"camp","facilityLabel":"⛺ 露營休閒","phone":null,"website":null,"wheelchair":false,"paid":null,"needsAddr":true},{"id":6990148650,"name":"杜鵑營地","lat":23.5841137,"lng":121.2046453,"address":null,"hasBabyChanging":false,"hasAccessible":false,"source":"OpenStreetMap","updatedAt":"2026-06-11T08:39:29.880Z","facilityType":"camp","facilityLabel":"⛺ 露營休閒","phone":null,"website":null,"wheelchair":false,"paid":null,"needsAddr":true},{"id":6990148651,"name":"乾溪谷營地","lat":23.5774187,"lng":121.2055097,"address":null,"hasBabyChanging":false,"hasAccessible":false,"source":"OpenStreetMap","updatedAt":"2026-06-11T08:39:29.880Z","facilityType":"camp","facilityLabel":"⛺ 露營休閒","phone":null,"website":null,"wheelchair":false,"paid":null,"needsAddr":true},{"id":6990148652,"name":"內嶺爾前營地","lat":23.581953,"lng":121.1903894,"address":null,"hasBabyChanging":false,"hasAccessible":false,"source":"OpenStreetMap","updatedAt":"2026-06-11T08:39:29.880Z","facilityType":"camp","facilityLabel":"⛺ 露營休閒","phone":null,"website":null,"wheelchair":false,"paid":null,"needsAddr":true},{"id":11823186070,"name":"內嶺爾營地（無水）","lat":23.5812758,"lng":121.191546,"address":null,"hasBabyChanging":false,"hasAccessible":false,"source":"OpenStreetMap","updatedAt":"2026-06-11T08:39:29.880Z","facilityType":"camp","facilityLabel":"⛺ 露營休閒","phone":null,"website":null,"wheelchair":false,"paid":null,"needsAddr":true},{"id":13508756541,"name":"太平谷營地","lat":23.454528,"lng":121.1894956,"address":null,"hasBabyChanging":false,"hasAccessible":false,"source":"OpenStreetMap","updatedAt":"2026-06-11T08:39:29.880Z","facilityType":"camp","facilityLabel":"⛺ 露營休閒","phone":null,"website":null,"wheelchair":false,"paid":null,"needsAddr":true}]}