{"city":"宜蘭縣","district":"大同鄉","category":"family","updatedAt":"2026-06-11T08:39:29.880Z","rev":14,"count":28,"items":[{"id":2500403715,"name":"水龍頭營地","lat":24.6859269,"lng":121.5569699,"address":null,"hasBabyChanging":false,"hasAccessible":false,"source":"OpenStreetMap","updatedAt":"2026-06-11T08:39:29.880Z","facilityType":"camp","facilityLabel":"⛺ 露營休閒","phone":null,"website":null,"wheelchair":false,"paid":null,"needsAddr":true},{"id":4113344041,"name":"水龍頭營地","lat":24.4467689,"lng":121.3560335,"address":null,"hasBabyChanging":false,"hasAccessible":false,"source":"OpenStreetMap","updatedAt":"2026-06-11T08:39:29.880Z","facilityType":"camp","facilityLabel":"⛺ 露營休閒","phone":null,"website":null,"wheelchair":false,"paid":null,"needsAddr":true},{"id":4113344048,"name":"章魚樹營地","lat":24.4397003,"lng":121.3341102,"address":null,"hasBabyChanging":false,"hasAccessible":false,"source":"OpenStreetMap","updatedAt":"2026-06-11T08:39:29.880Z","facilityType":"camp","facilityLabel":"⛺ 露營休閒","phone":null,"website":null,"wheelchair":false,"paid":null,"needsAddr":true},{"id":4275213966,"name":"暑假露營地","lat":24.4377701,"lng":121.3801958,"address":null,"hasBabyChanging":false,"hasAccessible":false,"source":"OpenStreetMap","updatedAt":"2026-06-11T08:39:29.880Z","facilityType":"camp","facilityLabel":"⛺ 露營休閒","phone":null,"website":null,"wheelchair":false,"paid":null,"needsAddr":true},{"id":4275213973,"name":"暑假露營地","lat":24.6125134,"lng":121.5255915,"address":null,"hasBabyChanging":false,"hasAccessible":false,"source":"OpenStreetMap","updatedAt":"2026-06-11T08:39:29.880Z","facilityType":"camp","facilityLabel":"⛺ 露營休閒","phone":null,"website":null,"wheelchair":false,"paid":null,"needsAddr":true},{"id":4312164084,"name":"牛鬥一坑露營區","lat":24.6354895,"lng":121.5690796,"address":null,"hasBabyChanging":false,"hasAccessible":false,"source":"OpenStreetMap","updatedAt":"2026-06-11T08:39:29.880Z","facilityType":"camp","facilityLabel":"⛺ 露營休閒","phone":null,"website":null,"wheelchair":false,"paid":null,"needsAddr":true},{"id":6154877410,"name":"獵寮營地","lat":24.5612524,"lng":121.6587956,"address":null,"hasBabyChanging":false,"hasAccessible":false,"source":"OpenStreetMap","updatedAt":"2026-06-11T08:39:29.880Z","facilityType":"camp","facilityLabel":"⛺ 露營休閒","phone":null,"website":null,"wheelchair":false,"paid":null,"needsAddr":true},{"id":6154877433,"name":"溪溝營地","lat":24.5624905,"lng":121.667496,"address":null,"hasBabyChanging":false,"hasAccessible":false,"source":"OpenStreetMap","updatedAt":"2026-06-11T08:39:29.880Z","facilityType":"camp","facilityLabel":"⛺ 露營休閒","phone":null,"website":null,"wheelchair":false,"paid":null,"needsAddr":true},{"id":6162643469,"name":"檜木營地","lat":24.4843976,"lng":121.5208094,"address":null,"hasBabyChanging":false,"hasAccessible":false,"source":"OpenStreetMap","updatedAt":"2026-06-11T08:39:29.880Z","facilityType":"camp","facilityLabel":"⛺ 露營休閒","phone":null,"website":null,"wheelchair":false,"paid":null,"needsAddr":true},{"id":6654434085,"name":"營地","lat":24.5630124,"lng":121.6690251,"address":null,"hasBabyChanging":false,"hasAccessible":false,"source":"OpenStreetMap","updatedAt":"2026-06-11T08:39:29.880Z","facilityType":"camp","facilityLabel":"⛺ 露營休閒","phone":null,"website":null,"wheelchair":false,"paid":null,"needsAddr":true},{"id":6654434185,"name":"平台營地","lat":24.5627647,"lng":121.6692481,"address":null,"hasBabyChanging":false,"hasAccessible":false,"source":"OpenStreetMap","updatedAt":"2026-06-11T08:39:29.880Z","facilityType":"camp","facilityLabel":"⛺ 露營休閒","phone":null,"website":null,"wheelchair":false,"paid":null,"needsAddr":true},{"id":7702744991,"name":"危險水域禁止戲水","lat":24.6833551,"lng":121.5850743,"address":null,"hasBabyChanging":false,"hasAccessible":false,"source":"OpenStreetMap","updatedAt":"2026-06-11T08:39:29.880Z","facilityType":"water","facilityLabel":"💧 戲水親水","phone":null,"website":null,"wheelchair":false,"paid":null,"needsAddr":true},{"id":9880445143,"name":"鳳梨屋水上莊園","lat":24.7003342,"lng":121.6108105,"address":null,"hasBabyChanging":false,"hasAccessible":false,"source":"OpenStreetMap","updatedAt":"2026-06-11T08:39:29.880Z","facilityType":"camp","facilityLabel":"⛺ 露營休閒","phone":null,"website":"https://wanglai1108.com/index.php","wheelchair":false,"paid":null,"needsAddr":true},{"id":11064760927,"name":"秘密基地露營區","lat":24.6612395,"lng":121.5660215,"address":null,"hasBabyChanging":false,"hasAccessible":false,"source":"OpenStreetMap","updatedAt":"2026-06-11T08:39:29.880Z","facilityType":"camp","facilityLabel":"⛺ 露營休閒","phone":null,"website":null,"wheelchair":false,"paid":null,"needsAddr":true},{"id":299767161,"name":"松羅部落運動公園","lat":24.65487425,"lng":121.5815292,"address":null,"hasBabyChanging":false,"hasAccessible":false,"source":"OpenStreetMap","updatedAt":"2026-06-11T08:39:29.880Z","facilityType":"park","facilityLabel":"🌳 中型公園","phone":null,"website":null,"wheelchair":false,"paid":null,"needsAddr":true},{"id":470211733,"name":"國父百歲紀念林","lat":24.65033825,"lng":121.47431904999999,"address":null,"hasBabyChanging":false,"hasAccessible":false,"source":"OpenStreetMap","updatedAt":"2026-06-11T08:39:29.880Z","facilityType":"park","facilityLabel":"🌳 小型公園","phone":null,"website":null,"wheelchair":false,"paid":null,"needsAddr":true},{"id":470211734,"name":"蕨園","lat":24.65212755,"lng":121.47123185,"address":null,"hasBabyChanging":false,"hasAccessible":false,"source":"OpenStreetMap","updatedAt":"2026-06-11T08:39:29.880Z","facilityType":"park","facilityLabel":"🌳 中型公園","phone":null,"website":null,"wheelchair":false,"paid":null,"needsAddr":true},{"id":525100819,"name":"崙埤河濱公園","lat":24.677284450000002,"lng":121.6122085,"address":null,"hasBabyChanging":false,"hasAccessible":false,"source":"OpenStreetMap","updatedAt":"2026-06-11T08:39:29.880Z","facilityType":"park","facilityLabel":"🌳 大型公園","phone":null,"website":null,"wheelchair":false,"paid":null,"needsAddr":true},{"id":533187117,"name":"棲蘭神木園區","lat":24.58763415,"lng":121.43627335,"address":null,"hasBabyChanging":false,"hasAccessible":false,"source":"OpenStreetMap","updatedAt":"2026-06-11T08:39:29.880Z","facilityType":"park","facilityLabel":"🌳 大型公園","phone":null,"website":null,"wheelchair":false,"paid":null,"needsAddr":true},{"id":576330633,"name":"羅東森林鐵道","lat":24.5713387,"lng":121.54697175,"address":null,"hasBabyChanging":false,"hasAccessible":false,"source":"OpenStreetMap","updatedAt":"2026-06-11T08:39:29.880Z","facilityType":"railway","facilityLabel":"🚂 鐵道交通","phone":null,"website":null,"wheelchair":false,"paid":null,"needsAddr":true},{"id":658035740,"name":"清水地熱公園","lat":24.612665800000002,"lng":121.63666705,"address":null,"hasBabyChanging":false,"hasAccessible":false,"source":"OpenStreetMap","updatedAt":"2026-06-11T08:39:29.880Z","facilityType":"park","facilityLabel":"🌳 中型公園","phone":null,"website":null,"wheelchair":false,"paid":null,"needsAddr":true},{"id":709894047,"name":"柚園優質渡假小木屋","lat":24.637867800000002,"lng":121.57075209999999,"address":null,"hasBabyChanging":false,"hasAccessible":false,"source":"OpenStreetMap","updatedAt":"2026-06-11T08:39:29.880Z","facilityType":"camp","facilityLabel":"⛺ 露營休閒","phone":null,"website":null,"wheelchair":false,"paid":null,"needsAddr":true},{"id":823649793,"name":"觀日台","lat":24.5103464,"lng":121.59416155,"address":null,"hasBabyChanging":false,"hasAccessible":false,"source":"OpenStreetMap","updatedAt":"2026-06-11T08:39:29.880Z","facilityType":"park","facilityLabel":"🌳 小型公園","phone":null,"website":null,"wheelchair":false,"paid":null,"needsAddr":true},{"id":823650714,"name":"景觀台","lat":24.51110195,"lng":121.6163324,"address":null,"hasBabyChanging":false,"hasAccessible":false,"source":"OpenStreetMap","updatedAt":"2026-06-11T08:39:29.880Z","facilityType":"park","facilityLabel":"🌳 小型公園","phone":null,"website":null,"wheelchair":false,"paid":null,"needsAddr":true},{"id":1077615780,"name":"兒童戲水池","lat":24.7007233,"lng":121.6105271,"address":null,"hasBabyChanging":false,"hasAccessible":false,"source":"OpenStreetMap","updatedAt":"2026-06-11T08:39:29.880Z","facilityType":"water","facilityLabel":"💧 戲水親水","phone":null,"website":null,"wheelchair":false,"paid":null,"needsAddr":true},{"id":1077615785,"name":"兒童戲水區","lat":24.70174065,"lng":121.6076496,"address":null,"hasBabyChanging":false,"hasAccessible":false,"source":"OpenStreetMap","updatedAt":"2026-06-11T08:39:29.880Z","facilityType":"water","facilityLabel":"💧 戲水親水","phone":null,"website":null,"wheelchair":false,"paid":null,"needsAddr":true},{"id":1243926265,"name":"亞爸的山","lat":24.41604365,"lng":121.36656065,"address":null,"hasBabyChanging":false,"hasAccessible":false,"source":"OpenStreetMap","updatedAt":"2026-06-11T08:39:29.880Z","facilityType":"camp","facilityLabel":"⛺ 露營休閒","phone":null,"website":null,"wheelchair":false,"paid":null,"needsAddr":true},{"id":1254925355,"name":"太平山原始森林公園門樓","lat":24.493570400000003,"lng":121.53536865000001,"address":null,"hasBabyChanging":false,"hasAccessible":false,"source":"OpenStreetMap","updatedAt":"2026-06-11T08:39:29.880Z","facilityType":"park","facilityLabel":"🌳 小型公園","phone":null,"website":null,"wheelchair":false,"paid":null,"needsAddr":true}]}