{
  "city": "嘉義縣",
  "category": "family",
  "updatedAt": "2026-06-12T22:24:53.616Z",
  "items": [
    {
      "id": 4115788948,
      "name": "情人瀑布",
      "facilityType": "tourist_attraction",
      "facilityLabel": "🧭 旅遊景點",
      "lat": 23.301673,
      "lng": 120.6405652,
      "source": "OpenStreetMap",
      "updatedAt": "2026-06-12T22:24:53.602Z"
    },
    {
      "id": 4115788949,
      "name": "內葉翅吊橋",
      "facilityType": "tourist_attraction",
      "facilityLabel": "🧭 旅遊景點",
      "lat": 23.3007239,
      "lng": 120.6377283,
      "source": "OpenStreetMap",
      "updatedAt": "2026-06-12T22:24:53.604Z"
    },
    {
      "id": 4550083046,
      "name": "太師椅",
      "facilityType": "tourist_attraction",
      "facilityLabel": "🧭 旅遊景點",
      "lat": 23.240859,
      "lng": 120.5911067,
      "source": "OpenStreetMap",
      "updatedAt": "2026-06-12T22:24:53.606Z"
    },
    {
      "id": 9385761302,
      "name": "林業及自然保育署",
      "facilityType": "visitor_center",
      "facilityLabel": "🛎 旅客中心",
      "lat": 23.3341,
      "lng": 120.5429,
      "source": "OpenStreetMap",
      "updatedAt": "2026-06-12T22:24:53.607Z"
    },
    {
      "id": 9385761303,
      "name": "林業及自然保育署",
      "facilityType": "visitor_center",
      "facilityLabel": "🛎 旅客中心",
      "lat": 23.3412,
      "lng": 120.5477,
      "source": "OpenStreetMap",
      "updatedAt": "2026-06-12T22:24:53.608Z"
    },
    {
      "id": 9385761304,
      "name": "林業及自然保育署",
      "facilityType": "visitor_center",
      "facilityLabel": "🛎 旅客中心",
      "lat": 23.3365,
      "lng": 120.5447,
      "source": "OpenStreetMap",
      "updatedAt": "2026-06-12T22:24:53.609Z"
    },
    {
      "id": 9513720195,
      "name": "展望平台",
      "facilityType": "tourist_attraction",
      "facilityLabel": "🧭 旅遊景點",
      "lat": 23.3379878,
      "lng": 120.5454799,
      "source": "OpenStreetMap",
      "updatedAt": "2026-06-12T22:24:53.610Z"
    },
    {
      "id": 11250053083,
      "name": "情人碼頭",
      "facilityType": "tourist_attraction",
      "facilityLabel": "🧭 旅遊景點",
      "lat": 23.3030577,
      "lng": 120.5874731,
      "source": "OpenStreetMap",
      "updatedAt": "2026-06-12T22:24:53.611Z"
    },
    {
      "id": 11250059959,
      "name": "情人公園",
      "facilityType": "tourist_attraction",
      "facilityLabel": "🧭 旅遊景點",
      "lat": 23.3020317,
      "lng": 120.5898549,
      "source": "OpenStreetMap",
      "updatedAt": "2026-06-12T22:24:53.611Z"
    },
    {
      "id": 11250590338,
      "name": "觀湖亭",
      "facilityType": "tourist_attraction",
      "facilityLabel": "🧭 旅遊景點",
      "lat": 23.2429051,
      "lng": 120.5382559,
      "source": "OpenStreetMap",
      "updatedAt": "2026-06-12T22:24:53.612Z"
    },
    {
      "id": 11252423707,
      "name": "大埔旅遊導覽圖",
      "facilityType": "visitor_center",
      "facilityLabel": "🛎 旅客中心",
      "lat": 23.3018685,
      "lng": 120.6308903,
      "source": "OpenStreetMap",
      "updatedAt": "2026-06-12T22:24:53.613Z"
    },
    {
      "id": 11649304170,
      "name": "展望",
      "facilityType": "tourist_attraction",
      "facilityLabel": "🧭 旅遊景點",
      "lat": 23.2406813,
      "lng": 120.5923508,
      "source": "OpenStreetMap",
      "updatedAt": "2026-06-12T22:24:53.614Z"
    },
    {
      "id": 11650699775,
      "name": "岩稜",
      "facilityType": "tourist_attraction",
      "facilityLabel": "🧭 旅遊景點",
      "lat": 23.2408862,
      "lng": 120.5904674,
      "source": "OpenStreetMap",
      "updatedAt": "2026-06-12T22:24:53.614Z"
    },
    {
      "id": 11958735684,
      "name": "神農山因由",
      "facilityType": "visitor_center",
      "facilityLabel": "🛎 旅客中心",
      "lat": 23.2857594,
      "lng": 120.5223998,
      "source": "OpenStreetMap",
      "updatedAt": "2026-06-12T22:24:53.615Z"
    },
    {
      "id": 1163237245,
      "name": "大埔旅游資訊站",
      "facilityType": "visitor_center",
      "facilityLabel": "🛎 旅客中心",
      "lat": 23.3017336,
      "lng": 120.5897932,
      "source": "OpenStreetMap",
      "updatedAt": "2026-06-12T22:24:53.615Z",
      "address": "嘉義縣大埔鄉双溪200號"
    },
    {
      "id": 1214220217,
      "name": "六角亭",
      "facilityType": "tourist_attraction",
      "facilityLabel": "🧭 旅遊景點",
      "lat": 23.2990011,
      "lng": 120.5843809,
      "source": "OpenStreetMap",
      "updatedAt": "2026-06-12T22:24:53.616Z"
    }
  ]
}
