{
  "city": "嘉義縣",
  "category": "family",
  "updatedAt": "2026-06-12T22:08:25.340Z",
  "items": [
    {
      "id": 11311176270,
      "name": "出眺景觀平臺",
      "facilityType": "tourist_attraction",
      "facilityLabel": "🧭 旅遊景點",
      "lat": 23.4746285,
      "lng": 120.2947048,
      "source": "OpenStreetMap",
      "updatedAt": "2026-06-12T22:08:25.323Z"
    },
    {
      "id": 12640062155,
      "name": "國立故宮博物院南部院區(遊客中心)",
      "facilityType": "visitor_center",
      "facilityLabel": "🛎 旅客中心",
      "lat": 23.47071,
      "lng": 120.29405,
      "source": "OpenStreetMap",
      "updatedAt": "2026-06-12T22:08:25.326Z"
    },
    {
      "id": 13676642785,
      "name": "落雨松步道",
      "facilityType": "tourist_attraction",
      "facilityLabel": "🧭 旅遊景點",
      "lat": 23.4770191,
      "lng": 120.2911574,
      "source": "OpenStreetMap",
      "updatedAt": "2026-06-12T22:08:25.328Z"
    },
    {
      "id": 13676642786,
      "name": "慶典花園",
      "facilityType": "tourist_attraction",
      "facilityLabel": "🧭 旅遊景點",
      "lat": 23.4765369,
      "lng": 120.2943546,
      "source": "OpenStreetMap",
      "updatedAt": "2026-06-12T22:08:25.329Z"
    },
    {
      "id": 13676642787,
      "name": "人工濕地",
      "facilityType": "tourist_attraction",
      "facilityLabel": "🧭 旅遊景點",
      "lat": 23.476532,
      "lng": 120.2948508,
      "source": "OpenStreetMap",
      "updatedAt": "2026-06-12T22:08:25.331Z"
    },
    {
      "id": 13676642788,
      "name": "藝文廣場",
      "facilityType": "tourist_attraction",
      "facilityLabel": "🧭 旅遊景點",
      "lat": 23.4769879,
      "lng": 120.2968725,
      "source": "OpenStreetMap",
      "updatedAt": "2026-06-12T22:08:25.332Z"
    },
    {
      "id": 13676642789,
      "name": "熱帶花園",
      "facilityType": "tourist_attraction",
      "facilityLabel": "🧭 旅遊景點",
      "lat": 23.4756217,
      "lng": 120.2968436,
      "source": "OpenStreetMap",
      "updatedAt": "2026-06-12T22:08:25.334Z"
    },
    {
      "id": 13676642790,
      "name": "透風南廣場",
      "facilityType": "tourist_attraction",
      "facilityLabel": "🧭 旅遊景點",
      "lat": 23.4739635,
      "lng": 120.2929142,
      "source": "OpenStreetMap",
      "updatedAt": "2026-06-12T22:08:25.336Z"
    },
    {
      "id": 13676642791,
      "name": "大千石庭",
      "facilityType": "tourist_attraction",
      "facilityLabel": "🧭 旅遊景點",
      "lat": 23.4736363,
      "lng": 120.2937752,
      "source": "OpenStreetMap",
      "updatedAt": "2026-06-12T22:08:25.336Z"
    },
    {
      "id": 13676642792,
      "name": "水景舞台",
      "facilityType": "tourist_attraction",
      "facilityLabel": "🧭 旅遊景點",
      "lat": 23.4724751,
      "lng": 120.2956501,
      "source": "OpenStreetMap",
      "updatedAt": "2026-06-12T22:08:25.337Z"
    },
    {
      "id": 13676642793,
      "name": "水岸舞台",
      "facilityType": "tourist_attraction",
      "facilityLabel": "🧭 旅遊景點",
      "lat": 23.4723053,
      "lng": 120.2945074,
      "source": "OpenStreetMap",
      "updatedAt": "2026-06-12T22:08:25.338Z"
    },
    {
      "id": 13676642794,
      "name": "藝術之丘",
      "facilityType": "tourist_attraction",
      "facilityLabel": "🧭 旅遊景點",
      "lat": 23.471523,
      "lng": 120.2945128,
      "source": "OpenStreetMap",
      "updatedAt": "2026-06-12T22:08:25.338Z"
    },
    {
      "id": 13688422315,
      "name": "南靖幹線七號裝車場 (廢)",
      "facilityType": "tourist_attraction",
      "facilityLabel": "🧭 旅遊景點",
      "lat": 23.4746463,
      "lng": 120.3092323,
      "source": "OpenStreetMap",
      "updatedAt": "2026-06-12T22:08:25.339Z"
    },
    {
      "id": 397650883,
      "name": "遊客中心",
      "facilityType": "visitor_center",
      "facilityLabel": "🛎 旅客中心",
      "lat": 23.4706014,
      "lng": 120.2934288,
      "source": "OpenStreetMap",
      "updatedAt": "2026-06-12T22:08:25.340Z"
    }
  ]
}
