{
  "city": "嘉義縣",
  "category": "family",
  "updatedAt": "2026-06-12T22:16:40.144Z",
  "items": [
    {
      "id": 1974491355,
      "name": "東石漁人碼頭",
      "facilityType": "tourist_attraction",
      "facilityLabel": "🧭 旅遊景點",
      "lat": 23.4510879,
      "lng": 120.1352919,
      "source": "OpenStreetMap",
      "updatedAt": "2026-06-12T22:16:40.123Z"
    },
    {
      "id": 2822073264,
      "name": "東石漁人碼頭景觀風車",
      "facilityType": "tourist_attraction",
      "facilityLabel": "🧭 旅遊景點",
      "lat": 23.4507115,
      "lng": 120.1342904,
      "source": "OpenStreetMap",
      "updatedAt": "2026-06-12T22:16:40.126Z"
    },
    {
      "id": 4408715200,
      "name": "向禾漁場",
      "facilityType": "tourist_attraction",
      "facilityLabel": "🧭 旅遊景點",
      "lat": 23.507822,
      "lng": 120.14967,
      "source": "OpenStreetMap",
      "updatedAt": "2026-06-12T22:16:40.128Z"
    },
    {
      "id": 6615527394,
      "name": "林業及自然保育署",
      "facilityType": "visitor_center",
      "facilityLabel": "🛎 旅客中心",
      "lat": 23.4908728,
      "lng": 120.1228169,
      "source": "OpenStreetMap",
      "updatedAt": "2026-06-12T22:16:40.130Z"
    },
    {
      "id": 9697322133,
      "name": "白水湖壽島",
      "facilityType": "tourist_attraction",
      "facilityLabel": "🧭 旅遊景點",
      "lat": 23.4036301,
      "lng": 120.1521167,
      "source": "OpenStreetMap",
      "updatedAt": "2026-06-12T22:16:40.131Z"
    },
    {
      "id": 9891203217,
      "name": "海豚（竹編裝置藝術）",
      "facilityType": "tourist_attraction",
      "facilityLabel": "🧭 旅遊景點",
      "lat": 23.4026355,
      "lng": 120.1507756,
      "source": "OpenStreetMap",
      "updatedAt": "2026-06-12T22:16:40.133Z"
    },
    {
      "id": 9891284619,
      "name": "壽島",
      "facilityType": "tourist_attraction",
      "facilityLabel": "🧭 旅遊景點",
      "lat": 23.4037896,
      "lng": 120.152112,
      "source": "OpenStreetMap",
      "updatedAt": "2026-06-12T22:16:40.134Z"
    },
    {
      "id": 9891302517,
      "name": "海邊馬桶",
      "facilityType": "tourist_attraction",
      "facilityLabel": "🧭 旅遊景點",
      "lat": 23.4044737,
      "lng": 120.1516944,
      "source": "OpenStreetMap",
      "updatedAt": "2026-06-12T22:16:40.135Z"
    },
    {
      "id": 10767840662,
      "name": "嘉義",
      "facilityType": "visitor_center",
      "facilityLabel": "🛎 旅客中心",
      "lat": 23.4965,
      "lng": 120.1362,
      "source": "OpenStreetMap",
      "updatedAt": "2026-06-12T22:16:40.137Z"
    },
    {
      "id": 10767840663,
      "name": "嘉義",
      "facilityType": "visitor_center",
      "facilityLabel": "🛎 旅客中心",
      "lat": 23.5105,
      "lng": 120.1359,
      "source": "OpenStreetMap",
      "updatedAt": "2026-06-12T22:16:40.138Z"
    },
    {
      "id": 10767840664,
      "name": "嘉義",
      "facilityType": "visitor_center",
      "facilityLabel": "🛎 旅客中心",
      "lat": 23.5174,
      "lng": 120.1359,
      "source": "OpenStreetMap",
      "updatedAt": "2026-06-12T22:16:40.139Z"
    },
    {
      "id": 10767840665,
      "name": "嘉義",
      "facilityType": "visitor_center",
      "facilityLabel": "🛎 旅客中心",
      "lat": 23.508,
      "lng": 120.1194,
      "source": "OpenStreetMap",
      "updatedAt": "2026-06-12T22:16:40.139Z"
    },
    {
      "id": 10767840682,
      "name": "嘉義",
      "facilityType": "visitor_center",
      "facilityLabel": "🛎 旅客中心",
      "lat": 23.5127,
      "lng": 120.1474,
      "source": "OpenStreetMap",
      "updatedAt": "2026-06-12T22:16:40.140Z"
    },
    {
      "id": 12123474951,
      "name": "白水湖蚵學家",
      "facilityType": "tourist_attraction",
      "facilityLabel": "🧭 旅遊景點",
      "lat": 23.4212453,
      "lng": 120.1553837,
      "source": "OpenStreetMap",
      "updatedAt": "2026-06-12T22:16:40.141Z",
      "address": "614嘉義縣東石鄉白水湖25號之1"
    },
    {
      "id": 277615964,
      "name": "觀海樓",
      "facilityType": "visitor_center",
      "facilityLabel": "🛎 旅客中心",
      "lat": 23.5110419,
      "lng": 120.1245162,
      "source": "OpenStreetMap",
      "updatedAt": "2026-06-12T22:16:40.141Z"
    },
    {
      "id": 277626497,
      "name": "東石鄉自然生態展示館",
      "facilityType": "eco_center",
      "facilityLabel": "🌱 生態館",
      "lat": 23.5087091,
      "lng": 120.1605967,
      "source": "OpenStreetMap",
      "updatedAt": "2026-06-12T22:16:40.142Z",
      "address": "嘉義縣東石鄉鰲鼓村四股54號"
    },
    {
      "id": 7022757,
      "name": "鰲鼓野生動物重要棲息環境",
      "facilityType": "spot",
      "facilityLabel": "📍 親子景點",
      "lat": 23.5041828,
      "lng": 120.138392,
      "source": "OpenStreetMap",
      "updatedAt": "2026-06-12T22:16:40.142Z"
    },
    {
      "id": 7073701,
      "name": "彰雲嘉沿海保護區",
      "facilityType": "spot",
      "facilityLabel": "📍 親子景點",
      "lat": 23.6406272,
      "lng": 120.1598771,
      "source": "OpenStreetMap",
      "updatedAt": "2026-06-12T22:16:40.143Z"
    },
    {
      "id": 7073703,
      "name": "東石自然保護區",
      "facilityType": "spot",
      "facilityLabel": "📍 親子景點",
      "lat": 23.4715586,
      "lng": 120.1489587,
      "source": "OpenStreetMap",
      "updatedAt": "2026-06-12T22:16:40.144Z"
    }
  ]
}
