{
  "city": "嘉義縣",
  "category": "family",
  "updatedAt": "2026-06-12T22:24:21.060Z",
  "items": [
    {
      "id": 4744478320,
      "name": "台18 53.9K",
      "facilityType": "tourist_attraction",
      "facilityLabel": "🧭 旅遊景點",
      "lat": 23.4218101,
      "lng": 120.6603629,
      "source": "OpenStreetMap",
      "updatedAt": "2026-06-12T22:24:21.038Z"
    },
    {
      "id": 4861879512,
      "name": "三龍瀑布",
      "facilityType": "tourist_attraction",
      "facilityLabel": "🧭 旅遊景點",
      "lat": 23.3460542,
      "lng": 120.6176532,
      "source": "OpenStreetMap",
      "updatedAt": "2026-06-12T22:24:21.041Z"
    },
    {
      "id": 5419536024,
      "name": "隙頂觀景臺",
      "facilityType": "tourist_attraction",
      "facilityLabel": "🧭 旅遊景點",
      "lat": 23.415114,
      "lng": 120.6508763,
      "source": "OpenStreetMap",
      "updatedAt": "2026-06-12T22:24:21.043Z"
    },
    {
      "id": 6615527185,
      "name": "林業及自然保育署",
      "facilityType": "visitor_center",
      "facilityLabel": "🛎 旅客中心",
      "lat": 23.4446133,
      "lng": 120.672081,
      "source": "OpenStreetMap",
      "updatedAt": "2026-06-12T22:24:21.045Z"
    },
    {
      "id": 6615527477,
      "name": "林業及自然保育署",
      "facilityType": "visitor_center",
      "facilityLabel": "🛎 旅客中心",
      "lat": 23.4466165,
      "lng": 120.671364,
      "source": "OpenStreetMap",
      "updatedAt": "2026-06-12T22:24:21.047Z"
    },
    {
      "id": 10682174405,
      "name": "0k+150",
      "facilityType": "tourist_attraction",
      "facilityLabel": "🧭 旅遊景點",
      "lat": 23.4185949,
      "lng": 120.6502628,
      "source": "OpenStreetMap",
      "updatedAt": "2026-06-12T22:24:21.049Z"
    },
    {
      "id": 10682179805,
      "name": "0k+250",
      "facilityType": "tourist_attraction",
      "facilityLabel": "🧭 旅遊景點",
      "lat": 23.4191127,
      "lng": 120.6502164,
      "source": "OpenStreetMap",
      "updatedAt": "2026-06-12T22:24:21.050Z"
    },
    {
      "id": 10682179809,
      "name": "0k+400",
      "facilityType": "tourist_attraction",
      "facilityLabel": "🧭 旅遊景點",
      "lat": 23.4199791,
      "lng": 120.6500514,
      "source": "OpenStreetMap",
      "updatedAt": "2026-06-12T22:24:21.052Z"
    },
    {
      "id": 10682205405,
      "name": "0k+600",
      "facilityType": "tourist_attraction",
      "facilityLabel": "🧭 旅遊景點",
      "lat": 23.4214776,
      "lng": 120.650205,
      "source": "OpenStreetMap",
      "updatedAt": "2026-06-12T22:24:21.052Z"
    },
    {
      "id": 10682205705,
      "name": "0k+800",
      "facilityType": "tourist_attraction",
      "facilityLabel": "🧭 旅遊景點",
      "lat": 23.42283,
      "lng": 120.6512301,
      "source": "OpenStreetMap",
      "updatedAt": "2026-06-12T22:24:21.053Z"
    },
    {
      "id": 10682211906,
      "name": "0k+900",
      "facilityType": "tourist_attraction",
      "facilityLabel": "🧭 旅遊景點",
      "lat": 23.4232472,
      "lng": 120.6518562,
      "source": "OpenStreetMap",
      "updatedAt": "2026-06-12T22:24:21.054Z"
    },
    {
      "id": 10682217805,
      "name": "1k",
      "facilityType": "tourist_attraction",
      "facilityLabel": "🧭 旅遊景點",
      "lat": 23.4238073,
      "lng": 120.6524145,
      "source": "OpenStreetMap",
      "updatedAt": "2026-06-12T22:24:21.054Z"
    },
    {
      "id": 10682220805,
      "name": "1k+070",
      "facilityType": "tourist_attraction",
      "facilityLabel": "🧭 旅遊景點",
      "lat": 23.424263,
      "lng": 120.6526896,
      "source": "OpenStreetMap",
      "updatedAt": "2026-06-12T22:24:21.055Z"
    },
    {
      "id": 10682241605,
      "name": "茶霧之道（下切口）",
      "facilityType": "tourist_attraction",
      "facilityLabel": "🧭 旅遊景點",
      "lat": 23.4250927,
      "lng": 120.6540507,
      "source": "OpenStreetMap",
      "updatedAt": "2026-06-12T22:24:21.055Z"
    },
    {
      "id": 10682247206,
      "name": "茶霧之道0k+550",
      "facilityType": "tourist_attraction",
      "facilityLabel": "🧭 旅遊景點",
      "lat": 23.4251239,
      "lng": 120.654596,
      "source": "OpenStreetMap",
      "updatedAt": "2026-06-12T22:24:21.056Z"
    },
    {
      "id": 10682251605,
      "name": "茶霧之道0k+375",
      "facilityType": "tourist_attraction",
      "facilityLabel": "🧭 旅遊景點",
      "lat": 23.424342,
      "lng": 120.6554132,
      "source": "OpenStreetMap",
      "updatedAt": "2026-06-12T22:24:21.057Z"
    },
    {
      "id": 13575525001,
      "name": "Eryanping trailhead",
      "facilityType": "tourist_attraction",
      "facilityLabel": "🧭 旅遊景點",
      "lat": 23.4174281,
      "lng": 120.6508555,
      "source": "OpenStreetMap",
      "updatedAt": "2026-06-12T22:24:21.057Z"
    },
    {
      "id": 13575525101,
      "name": "Tea & Mist trailhead",
      "facilityType": "tourist_attraction",
      "facilityLabel": "🧭 旅遊景點",
      "lat": 23.423904,
      "lng": 120.6583369,
      "source": "OpenStreetMap",
      "updatedAt": "2026-06-12T22:24:21.058Z"
    },
    {
      "id": 262629552,
      "name": "阿里山國家風景區管理處",
      "facilityType": "scenic_area",
      "facilityLabel": "🏞 風景區",
      "lat": 23.4462421,
      "lng": 120.5856263,
      "source": "OpenStreetMap",
      "updatedAt": "2026-06-12T22:24:21.059Z",
      "address": "嘉義縣番路鄉觸口村7鄰車埕50號"
    },
    {
      "id": 408141620,
      "name": "鳳凰瀑布步道",
      "facilityType": "tourist_attraction",
      "facilityLabel": "🧭 旅遊景點",
      "lat": 23.4702545,
      "lng": 120.6194991,
      "source": "OpenStreetMap",
      "updatedAt": "2026-06-12T22:24:21.059Z"
    },
    {
      "id": 1069832663,
      "name": "觸口自然教育中心",
      "facilityType": "eco_center",
      "facilityLabel": "🌱 生態館",
      "lat": 23.4533878,
      "lng": 120.5596065,
      "source": "OpenStreetMap",
      "updatedAt": "2026-06-12T22:24:21.060Z",
      "address": "嘉義縣番路鄉新福村1鄰五虎寮18號"
    }
  ]
}
