{
  "city": "嘉義縣",
  "category": "family",
  "updatedAt": "2026-06-12T22:22:05.000Z",
  "items": [
    {
      "id": 3270557183,
      "name": "百年肖楠木",
      "facilityType": "tourist_attraction",
      "facilityLabel": "🧭 旅遊景點",
      "lat": 23.5040885,
      "lng": 120.6955342,
      "source": "OpenStreetMap",
      "updatedAt": "2026-06-12T22:22:04.945Z"
    },
    {
      "id": 4002706098,
      "name": "獨立山-大巃頂步道 0K",
      "facilityType": "visitor_center",
      "facilityLabel": "🛎 旅客中心",
      "lat": 23.5426413,
      "lng": 120.6057182,
      "source": "OpenStreetMap",
      "updatedAt": "2026-06-12T22:22:04.948Z"
    },
    {
      "id": 4002706140,
      "name": "獨立山-大巃頂步道 1K",
      "facilityType": "visitor_center",
      "facilityLabel": "🛎 旅客中心",
      "lat": 23.5496123,
      "lng": 120.6041365,
      "source": "OpenStreetMap",
      "updatedAt": "2026-06-12T22:22:04.949Z"
    },
    {
      "id": 4297625801,
      "name": "臥龍谷",
      "facilityType": "tourist_attraction",
      "facilityLabel": "🧭 旅遊景點",
      "lat": 23.5092193,
      "lng": 120.6636192,
      "source": "OpenStreetMap",
      "updatedAt": "2026-06-12T22:22:04.951Z"
    },
    {
      "id": 4345345571,
      "name": "植物園",
      "facilityType": "tourist_attraction",
      "facilityLabel": "🧭 旅遊景點",
      "lat": 23.5246934,
      "lng": 120.6594921,
      "source": "OpenStreetMap",
      "updatedAt": "2026-06-12T22:22:04.952Z"
    },
    {
      "id": 4345345572,
      "name": "心湖",
      "facilityType": "tourist_attraction",
      "facilityLabel": "🧭 旅遊景點",
      "lat": 23.528045,
      "lng": 120.6588797,
      "source": "OpenStreetMap",
      "updatedAt": "2026-06-12T22:22:04.954Z"
    },
    {
      "id": 4374709872,
      "name": "觀音瀑布第三層",
      "facilityType": "tourist_attraction",
      "facilityLabel": "🧭 旅遊景點",
      "lat": 23.5063834,
      "lng": 120.620911,
      "source": "OpenStreetMap",
      "updatedAt": "2026-06-12T22:22:04.955Z"
    },
    {
      "id": 4397688466,
      "name": "鹿鼎巨木",
      "facilityType": "tourist_attraction",
      "facilityLabel": "🧭 旅遊景點",
      "lat": 23.5076658,
      "lng": 120.6968035,
      "source": "OpenStreetMap",
      "updatedAt": "2026-06-12T22:22:04.957Z"
    },
    {
      "id": 4413130578,
      "name": "奮起湖巨木",
      "facilityType": "tourist_attraction",
      "facilityLabel": "🧭 旅遊景點",
      "lat": 23.504047,
      "lng": 120.6996963,
      "source": "OpenStreetMap",
      "updatedAt": "2026-06-12T22:22:04.958Z"
    },
    {
      "id": 4418896553,
      "name": "悶材窯",
      "facilityType": "tourist_attraction",
      "facilityLabel": "🧭 旅遊景點",
      "lat": 23.5076838,
      "lng": 120.6949694,
      "source": "OpenStreetMap",
      "updatedAt": "2026-06-12T22:22:04.959Z"
    },
    {
      "id": 4418911702,
      "name": "大凍山國家步道",
      "facilityType": "tourist_attraction",
      "facilityLabel": "🧭 旅遊景點",
      "lat": 23.4999769,
      "lng": 120.712093,
      "source": "OpenStreetMap",
      "updatedAt": "2026-06-12T22:22:04.960Z"
    },
    {
      "id": 4419888082,
      "name": "四方竹林",
      "facilityType": "tourist_attraction",
      "facilityLabel": "🧭 旅遊景點",
      "lat": 23.5051789,
      "lng": 120.6942872,
      "source": "OpenStreetMap",
      "updatedAt": "2026-06-12T22:22:04.960Z"
    },
    {
      "id": 4461118331,
      "name": "回頭嶺",
      "facilityType": "tourist_attraction",
      "facilityLabel": "🧭 旅遊景點",
      "lat": 23.4957296,
      "lng": 120.7057214,
      "source": "OpenStreetMap",
      "updatedAt": "2026-06-12T22:22:04.961Z"
    },
    {
      "id": 4461118332,
      "name": "十八羅漢洞",
      "facilityType": "tourist_attraction",
      "facilityLabel": "🧭 旅遊景點",
      "lat": 23.4949573,
      "lng": 120.7048694,
      "source": "OpenStreetMap",
      "updatedAt": "2026-06-12T22:22:04.962Z"
    },
    {
      "id": 4486871900,
      "name": "水水古道",
      "facilityType": "tourist_attraction",
      "facilityLabel": "🧭 旅遊景點",
      "lat": 23.498515,
      "lng": 120.6439176,
      "source": "OpenStreetMap",
      "updatedAt": "2026-06-12T22:22:04.962Z"
    },
    {
      "id": 4855959927,
      "name": "螢火蟲",
      "facilityType": "tourist_attraction",
      "facilityLabel": "🧭 旅遊景點",
      "lat": 23.5027528,
      "lng": 120.6913304,
      "source": "OpenStreetMap",
      "updatedAt": "2026-06-12T22:22:04.964Z"
    },
    {
      "id": 4943837362,
      "name": "心湖瀑布",
      "facilityType": "tourist_attraction",
      "facilityLabel": "🧭 旅遊景點",
      "lat": 23.5282473,
      "lng": 120.6581473,
      "source": "OpenStreetMap",
      "updatedAt": "2026-06-12T22:22:04.965Z"
    },
    {
      "id": 5156192921,
      "name": "聰田制茶廠",
      "facilityType": "tourist_attraction",
      "facilityLabel": "🧭 旅遊景點",
      "lat": 23.5133226,
      "lng": 120.6134058,
      "source": "OpenStreetMap",
      "updatedAt": "2026-06-12T22:22:04.966Z",
      "address": "嘉義縣竹崎鄉10鄰金獅寮2號"
    },
    {
      "id": 5273354215,
      "name": "吳鳳故居",
      "facilityType": "culture",
      "facilityLabel": "🎨 藝文場館",
      "lat": 23.4975642,
      "lng": 120.5116928,
      "source": "OpenStreetMap",
      "updatedAt": "2026-06-12T22:22:04.966Z"
    },
    {
      "id": 5749057105,
      "name": "方子竹子",
      "facilityType": "visitor_center",
      "facilityLabel": "🛎 旅客中心",
      "lat": 23.5028925,
      "lng": 120.6948718,
      "source": "OpenStreetMap",
      "updatedAt": "2026-06-12T22:22:04.967Z"
    },
    {
      "id": 5749057108,
      "name": "竹子林",
      "facilityType": "tourist_attraction",
      "facilityLabel": "🧭 旅遊景點",
      "lat": 23.5054309,
      "lng": 120.6992388,
      "source": "OpenStreetMap",
      "updatedAt": "2026-06-12T22:22:04.967Z"
    },
    {
      "id": 5749057109,
      "name": "奮起湖與鐵路",
      "facilityType": "visitor_center",
      "facilityLabel": "🛎 旅客中心",
      "lat": 23.5047548,
      "lng": 120.6984026,
      "source": "OpenStreetMap",
      "updatedAt": "2026-06-12T22:22:04.968Z"
    },
    {
      "id": 5749057115,
      "name": "亮綠色的竹坡",
      "facilityType": "visitor_center",
      "facilityLabel": "🛎 旅客中心",
      "lat": 23.5051148,
      "lng": 120.6991684,
      "source": "OpenStreetMap",
      "updatedAt": "2026-06-12T22:22:04.969Z"
    },
    {
      "id": 5749057116,
      "name": "暗綠",
      "facilityType": "visitor_center",
      "facilityLabel": "🛎 旅客中心",
      "lat": 23.5056405,
      "lng": 120.6986654,
      "source": "OpenStreetMap",
      "updatedAt": "2026-06-12T22:22:04.969Z"
    },
    {
      "id": 5749057117,
      "name": "森林中的綠流",
      "facilityType": "visitor_center",
      "facilityLabel": "🛎 旅客中心",
      "lat": 23.5058281,
      "lng": 120.6984069,
      "source": "OpenStreetMap",
      "updatedAt": "2026-06-12T22:22:04.970Z"
    },
    {
      "id": 5749057120,
      "name": "冬天的野火",
      "facilityType": "visitor_center",
      "facilityLabel": "🛎 旅客中心",
      "lat": 23.5059083,
      "lng": 120.6976995,
      "source": "OpenStreetMap",
      "updatedAt": "2026-06-12T22:22:04.970Z"
    },
    {
      "id": 5749057422,
      "name": "奮起湖步道系統",
      "facilityType": "visitor_center",
      "facilityLabel": "🛎 旅客中心",
      "lat": 23.5061639,
      "lng": 120.6956998,
      "source": "OpenStreetMap",
      "updatedAt": "2026-06-12T22:22:04.971Z"
    },
    {
      "id": 6615527197,
      "name": "林業及自然保育署",
      "facilityType": "visitor_center",
      "facilityLabel": "🛎 旅客中心",
      "lat": 23.5088504,
      "lng": 120.692764,
      "source": "OpenStreetMap",
      "updatedAt": "2026-06-12T22:22:04.972Z"
    },
    {
      "id": 6615527232,
      "name": "林業及自然保育署",
      "facilityType": "visitor_center",
      "facilityLabel": "🛎 旅客中心",
      "lat": 23.5069601,
      "lng": 120.691223,
      "source": "OpenStreetMap",
      "updatedAt": "2026-06-12T22:22:04.972Z"
    },
    {
      "id": 6615527242,
      "name": "林業及自然保育署",
      "facilityType": "visitor_center",
      "facilityLabel": "🛎 旅客中心",
      "lat": 23.5186732,
      "lng": 120.614754,
      "source": "OpenStreetMap",
      "updatedAt": "2026-06-12T22:22:04.973Z"
    },
    {
      "id": 6615527267,
      "name": "林業及自然保育署",
      "facilityType": "visitor_center",
      "facilityLabel": "🛎 旅客中心",
      "lat": 23.5048146,
      "lng": 120.693085,
      "source": "OpenStreetMap",
      "updatedAt": "2026-06-12T22:22:04.973Z"
    },
    {
      "id": 6615527278,
      "name": "林業及自然保育署",
      "facilityType": "visitor_center",
      "facilityLabel": "🛎 旅客中心",
      "lat": 23.5189191,
      "lng": 120.611938,
      "source": "OpenStreetMap",
      "updatedAt": "2026-06-12T22:22:04.974Z"
    },
    {
      "id": 6615527294,
      "name": "林業及自然保育署",
      "facilityType": "visitor_center",
      "facilityLabel": "🛎 旅客中心",
      "lat": 23.5055609,
      "lng": 120.656929,
      "source": "OpenStreetMap",
      "updatedAt": "2026-06-12T22:22:04.975Z"
    },
    {
      "id": 6615527311,
      "name": "林業及自然保育署",
      "facilityType": "visitor_center",
      "facilityLabel": "🛎 旅客中心",
      "lat": 23.5169454,
      "lng": 120.6080087,
      "source": "OpenStreetMap",
      "updatedAt": "2026-06-12T22:22:04.975Z"
    },
    {
      "id": 6615527336,
      "name": "林業及自然保育署",
      "facilityType": "visitor_center",
      "facilityLabel": "🛎 旅客中心",
      "lat": 23.5037439,
      "lng": 120.695053,
      "source": "OpenStreetMap",
      "updatedAt": "2026-06-12T22:22:04.976Z"
    },
    {
      "id": 6615527341,
      "name": "林業及自然保育署",
      "facilityType": "visitor_center",
      "facilityLabel": "🛎 旅客中心",
      "lat": 23.5161542,
      "lng": 120.607651,
      "source": "OpenStreetMap",
      "updatedAt": "2026-06-12T22:22:04.976Z"
    },
    {
      "id": 6615527351,
      "name": "林業及自然保育署",
      "facilityType": "visitor_center",
      "facilityLabel": "🛎 旅客中心",
      "lat": 23.5058832,
      "lng": 120.659782,
      "source": "OpenStreetMap",
      "updatedAt": "2026-06-12T22:22:04.977Z"
    },
    {
      "id": 6615527356,
      "name": "林業及自然保育署",
      "facilityType": "visitor_center",
      "facilityLabel": "🛎 旅客中心",
      "lat": 23.4560586,
      "lng": 120.682785,
      "source": "OpenStreetMap",
      "updatedAt": "2026-06-12T22:22:04.977Z"
    },
    {
      "id": 6615527361,
      "name": "林業及自然保育署",
      "facilityType": "visitor_center",
      "facilityLabel": "🛎 旅客中心",
      "lat": 23.478435,
      "lng": 120.696312,
      "source": "OpenStreetMap",
      "updatedAt": "2026-06-12T22:22:04.978Z"
    },
    {
      "id": 6615527366,
      "name": "林業及自然保育署",
      "facilityType": "visitor_center",
      "facilityLabel": "🛎 旅客中心",
      "lat": 23.5044035,
      "lng": 120.695251,
      "source": "OpenStreetMap",
      "updatedAt": "2026-06-12T22:22:04.978Z"
    },
    {
      "id": 6615527370,
      "name": "林業及自然保育署",
      "facilityType": "visitor_center",
      "facilityLabel": "🛎 旅客中心",
      "lat": 23.5157151,
      "lng": 120.6064134,
      "source": "OpenStreetMap",
      "updatedAt": "2026-06-12T22:22:04.979Z"
    },
    {
      "id": 6615527379,
      "name": "林業及自然保育署",
      "facilityType": "visitor_center",
      "facilityLabel": "🛎 旅客中心",
      "lat": 23.5121705,
      "lng": 120.656761,
      "source": "OpenStreetMap",
      "updatedAt": "2026-06-12T22:22:04.979Z"
    },
    {
      "id": 6615527385,
      "name": "林業及自然保育署",
      "facilityType": "visitor_center",
      "facilityLabel": "🛎 旅客中心",
      "lat": 23.4550503,
      "lng": 120.679871,
      "source": "OpenStreetMap",
      "updatedAt": "2026-06-12T22:22:04.980Z"
    },
    {
      "id": 6615527390,
      "name": "林業及自然保育署",
      "facilityType": "visitor_center",
      "facilityLabel": "🛎 旅客中心",
      "lat": 23.4800194,
      "lng": 120.698456,
      "source": "OpenStreetMap",
      "updatedAt": "2026-06-12T22:22:04.981Z"
    },
    {
      "id": 6615527395,
      "name": "林業及自然保育署",
      "facilityType": "visitor_center",
      "facilityLabel": "🛎 旅客中心",
      "lat": 23.515125,
      "lng": 120.618652,
      "source": "OpenStreetMap",
      "updatedAt": "2026-06-12T22:22:04.981Z"
    },
    {
      "id": 6615527400,
      "name": "林業及自然保育署",
      "facilityType": "visitor_center",
      "facilityLabel": "🛎 旅客中心",
      "lat": 23.515085,
      "lng": 120.606102,
      "source": "OpenStreetMap",
      "updatedAt": "2026-06-12T22:22:04.982Z"
    },
    {
      "id": 6615527416,
      "name": "林業及自然保育署",
      "facilityType": "visitor_center",
      "facilityLabel": "🛎 旅客中心",
      "lat": 23.4547837,
      "lng": 120.677589,
      "source": "OpenStreetMap",
      "updatedAt": "2026-06-12T22:22:04.982Z"
    },
    {
      "id": 6615527421,
      "name": "林業及自然保育署",
      "facilityType": "visitor_center",
      "facilityLabel": "🛎 旅客中心",
      "lat": 23.4857651,
      "lng": 120.7072238,
      "source": "OpenStreetMap",
      "updatedAt": "2026-06-12T22:22:04.982Z"
    },
    {
      "id": 6615527447,
      "name": "林業及自然保育署",
      "facilityType": "visitor_center",
      "facilityLabel": "🛎 旅客中心",
      "lat": 23.4499321,
      "lng": 120.672081,
      "source": "OpenStreetMap",
      "updatedAt": "2026-06-12T22:22:04.983Z"
    },
    {
      "id": 6615527488,
      "name": "林業及自然保育署",
      "facilityType": "visitor_center",
      "facilityLabel": "🛎 旅客中心",
      "lat": 23.5108248,
      "lng": 120.695747,
      "source": "OpenStreetMap",
      "updatedAt": "2026-06-12T22:22:04.983Z"
    },
    {
      "id": 7174509429,
      "name": "獨立山-大巃頂步道 0.5K",
      "facilityType": "visitor_center",
      "facilityLabel": "🛎 旅客中心",
      "lat": 23.545683,
      "lng": 120.6054121,
      "source": "OpenStreetMap",
      "updatedAt": "2026-06-12T22:22:04.984Z"
    },
    {
      "id": 8285565961,
      "name": "光華賞螢步道",
      "facilityType": "tourist_attraction",
      "facilityLabel": "🧭 旅遊景點",
      "lat": 23.485943,
      "lng": 120.6812466,
      "source": "OpenStreetMap",
      "updatedAt": "2026-06-12T22:22:04.985Z"
    },
    {
      "id": 8296758951,
      "name": "觸口自然教育中心綠意館",
      "facilityType": "eco_center",
      "facilityLabel": "🌱 生態館",
      "lat": 23.480458,
      "lng": 120.5489485,
      "source": "OpenStreetMap",
      "updatedAt": "2026-06-12T22:22:04.985Z"
    },
    {
      "id": 8515795817,
      "name": "鹿滿客家文化園區",
      "facilityType": "tourist_attraction",
      "facilityLabel": "🧭 旅遊景點",
      "lat": 23.5015557,
      "lng": 120.5353409,
      "source": "OpenStreetMap",
      "updatedAt": "2026-06-12T22:22:04.986Z",
      "address": "內山公路"
    },
    {
      "id": 9385761274,
      "name": "林業及自然保育署",
      "facilityType": "visitor_center",
      "facilityLabel": "🛎 旅客中心",
      "lat": 23.540142,
      "lng": 120.606247,
      "source": "OpenStreetMap",
      "updatedAt": "2026-06-12T22:22:04.986Z"
    },
    {
      "id": 9385761275,
      "name": "林業及自然保育署",
      "facilityType": "visitor_center",
      "facilityLabel": "🛎 旅客中心",
      "lat": 23.537,
      "lng": 120.6078,
      "source": "OpenStreetMap",
      "updatedAt": "2026-06-12T22:22:04.987Z"
    },
    {
      "id": 9385761276,
      "name": "林業及自然保育署",
      "facilityType": "visitor_center",
      "facilityLabel": "🛎 旅客中心",
      "lat": 23.5379,
      "lng": 120.6069,
      "source": "OpenStreetMap",
      "updatedAt": "2026-06-12T22:22:04.987Z"
    },
    {
      "id": 9385761277,
      "name": "林業及自然保育署",
      "facilityType": "visitor_center",
      "facilityLabel": "🛎 旅客中心",
      "lat": 23.5423,
      "lng": 120.6055,
      "source": "OpenStreetMap",
      "updatedAt": "2026-06-12T22:22:04.988Z"
    },
    {
      "id": 9385761278,
      "name": "林業及自然保育署",
      "facilityType": "visitor_center",
      "facilityLabel": "🛎 旅客中心",
      "lat": 23.5376,
      "lng": 120.6038,
      "source": "OpenStreetMap",
      "updatedAt": "2026-06-12T22:22:04.988Z"
    },
    {
      "id": 9385761279,
      "name": "林業及自然保育署",
      "facilityType": "visitor_center",
      "facilityLabel": "🛎 旅客中心",
      "lat": 23.5355,
      "lng": 120.6036,
      "source": "OpenStreetMap",
      "updatedAt": "2026-06-12T22:22:04.989Z"
    },
    {
      "id": 9385761280,
      "name": "林業及自然保育署",
      "facilityType": "visitor_center",
      "facilityLabel": "🛎 旅客中心",
      "lat": 23.5329261,
      "lng": 120.6025685,
      "source": "OpenStreetMap",
      "updatedAt": "2026-06-12T22:22:04.989Z"
    },
    {
      "id": 9385761282,
      "name": "林業及自然保育署",
      "facilityType": "visitor_center",
      "facilityLabel": "🛎 旅客中心",
      "lat": 23.5456,
      "lng": 120.6054,
      "source": "OpenStreetMap",
      "updatedAt": "2026-06-12T22:22:04.990Z"
    },
    {
      "id": 9385761283,
      "name": "林業及自然保育署",
      "facilityType": "visitor_center",
      "facilityLabel": "🛎 旅客中心",
      "lat": 23.5426,
      "lng": 120.6057,
      "source": "OpenStreetMap",
      "updatedAt": "2026-06-12T22:22:04.990Z"
    },
    {
      "id": 9526215797,
      "name": "深溝",
      "facilityType": "tourist_attraction",
      "facilityLabel": "🧭 旅遊景點",
      "lat": 23.4929833,
      "lng": 120.6443864,
      "source": "OpenStreetMap",
      "updatedAt": "2026-06-12T22:22:04.991Z"
    },
    {
      "id": 10767840652,
      "name": "嘉義",
      "facilityType": "visitor_center",
      "facilityLabel": "🛎 旅客中心",
      "lat": 23.511431,
      "lng": 120.65567,
      "source": "OpenStreetMap",
      "updatedAt": "2026-06-12T22:22:04.991Z"
    },
    {
      "id": 10767840653,
      "name": "嘉義",
      "facilityType": "visitor_center",
      "facilityLabel": "🛎 旅客中心",
      "lat": 23.508253,
      "lng": 120.653954,
      "source": "OpenStreetMap",
      "updatedAt": "2026-06-12T22:22:04.992Z"
    },
    {
      "id": 10767840654,
      "name": "嘉義",
      "facilityType": "visitor_center",
      "facilityLabel": "🛎 旅客中心",
      "lat": 23.505516,
      "lng": 120.660408,
      "source": "OpenStreetMap",
      "updatedAt": "2026-06-12T22:22:04.992Z"
    },
    {
      "id": 10767840674,
      "name": "嘉義",
      "facilityType": "visitor_center",
      "facilityLabel": "🛎 旅客中心",
      "lat": 23.4989,
      "lng": 120.712,
      "source": "OpenStreetMap",
      "updatedAt": "2026-06-12T22:22:04.993Z"
    },
    {
      "id": 10767840675,
      "name": "嘉義",
      "facilityType": "visitor_center",
      "facilityLabel": "🛎 旅客中心",
      "lat": 23.4961,
      "lng": 120.7074,
      "source": "OpenStreetMap",
      "updatedAt": "2026-06-12T22:22:04.993Z"
    },
    {
      "id": 10767840681,
      "name": "嘉義",
      "facilityType": "visitor_center",
      "facilityLabel": "🛎 旅客中心",
      "lat": 23.5001,
      "lng": 120.7124,
      "source": "OpenStreetMap",
      "updatedAt": "2026-06-12T22:22:04.994Z"
    },
    {
      "id": 11128076405,
      "name": "溪心寮觀音瀑布石像",
      "facilityType": "tourist_attraction",
      "facilityLabel": "🧭 旅遊景點",
      "lat": 23.5084032,
      "lng": 120.6143843,
      "source": "OpenStreetMap",
      "updatedAt": "2026-06-12T22:22:04.994Z"
    },
    {
      "id": 11249959302,
      "name": "觀音廟瀑布報到處",
      "facilityType": "visitor_center",
      "facilityLabel": "🛎 旅客中心",
      "lat": 23.5097439,
      "lng": 120.6017088,
      "source": "OpenStreetMap",
      "updatedAt": "2026-06-12T22:22:04.994Z"
    },
    {
      "id": 11304228334,
      "name": "Steam Engine",
      "facilityType": "tourist_attraction",
      "facilityLabel": "🧭 旅遊景點",
      "lat": 23.5053158,
      "lng": 120.6948215,
      "source": "OpenStreetMap",
      "updatedAt": "2026-06-12T22:22:04.995Z"
    },
    {
      "id": 11364476779,
      "name": "觀音瀑布第二層",
      "facilityType": "tourist_attraction",
      "facilityLabel": "🧭 旅遊景點",
      "lat": 23.5076925,
      "lng": 120.6198861,
      "source": "OpenStreetMap",
      "updatedAt": "2026-06-12T22:22:04.995Z"
    },
    {
      "id": 12797863601,
      "name": "莊園",
      "facilityType": "farm",
      "facilityLabel": "🌾 農場",
      "lat": 23.4775872,
      "lng": 120.6940761,
      "source": "OpenStreetMap",
      "updatedAt": "2026-06-12T22:22:04.996Z"
    },
    {
      "id": 303265308,
      "name": "行千吊橋",
      "facilityType": "tourist_attraction",
      "facilityLabel": "🧭 旅遊景點",
      "lat": 23.5253051,
      "lng": 120.5473061,
      "source": "OpenStreetMap",
      "updatedAt": "2026-06-12T22:22:04.996Z"
    },
    {
      "id": 321999922,
      "name": "奮起湖文史陳列館",
      "facilityType": "science",
      "facilityLabel": "🔬 博物館",
      "lat": 23.5022802,
      "lng": 120.6966819,
      "source": "OpenStreetMap",
      "updatedAt": "2026-06-12T22:22:04.997Z"
    },
    {
      "id": 444378715,
      "name": "奮起湖老街",
      "facilityType": "tourist_attraction",
      "facilityLabel": "🧭 旅遊景點",
      "lat": 23.5049887,
      "lng": 120.6948314,
      "source": "OpenStreetMap",
      "updatedAt": "2026-06-12T22:22:04.998Z"
    },
    {
      "id": 444600126,
      "name": "奮起湖老街大飯店",
      "facilityType": "tourist_attraction",
      "facilityLabel": "🧭 旅遊景點",
      "lat": 23.5048135,
      "lng": 120.6974482,
      "source": "OpenStreetMap",
      "updatedAt": "2026-06-12T22:22:04.998Z",
      "address": "嘉義縣竹崎鄉中和村14鄰奮起湖185之1號"
    },
    {
      "id": 1034066428,
      "name": "文峰遊客中心",
      "facilityType": "visitor_center",
      "facilityLabel": "🛎 旅客中心",
      "lat": 23.5167315,
      "lng": 120.5937555,
      "source": "OpenStreetMap",
      "updatedAt": "2026-06-12T22:22:04.998Z",
      "address": "604嘉義縣竹崎鄉文峯村溪州仔22號"
    },
    {
      "id": 1283206771,
      "name": "奮起湖老街",
      "facilityType": "tourist_attraction",
      "facilityLabel": "🧭 旅遊景點",
      "lat": 23.5051962,
      "lng": 120.6953233,
      "source": "OpenStreetMap",
      "updatedAt": "2026-06-12T22:22:04.999Z"
    },
    {
      "id": 1283206772,
      "name": "奮起湖老街",
      "facilityType": "tourist_attraction",
      "facilityLabel": "🧭 旅遊景點",
      "lat": 23.5051212,
      "lng": 120.6950151,
      "source": "OpenStreetMap",
      "updatedAt": "2026-06-12T22:22:04.999Z"
    },
    {
      "id": 1283217569,
      "name": "奮起湖老街",
      "facilityType": "tourist_attraction",
      "facilityLabel": "🧭 旅遊景點",
      "lat": 23.5046582,
      "lng": 120.6945817,
      "source": "OpenStreetMap",
      "updatedAt": "2026-06-12T22:22:05.000Z"
    },
    {
      "id": 7365618,
      "name": "圓潭溪自然生態保護區",
      "facilityType": "spot",
      "facilityLabel": "📍 親子景點",
      "lat": 23.5201857,
      "lng": 120.6646311,
      "source": "OpenStreetMap",
      "updatedAt": "2026-06-12T22:22:05.000Z"
    }
  ]
}
