{"city":"基隆市","district":"仁愛區","category":"family","updatedAt":"2026-06-16T15:54:24.202Z","rev":24,"count":17,"items":[{"id":1962246184,"name":"獅球嶺砲台","lat":25.1203135,"lng":121.7350065,"address":null,"hasBabyChanging":false,"hasAccessible":false,"source":"OpenStreetMap","updatedAt":"2026-06-16T15:54:24.202Z","facilityType":"tourist_attraction","facilityLabel":"🧭 旅遊景點","phone":null,"website":null,"wheelchair":false,"paid":null,"needsAddr":true},{"id":4842666123,"name":"廟口夜市牌樓","lat":25.1285516,"lng":121.7428504,"address":null,"hasBabyChanging":false,"hasAccessible":false,"source":"OpenStreetMap","updatedAt":"2026-06-16T15:54:24.202Z","facilityType":"tourist_attraction","facilityLabel":"🧭 旅遊景點","phone":null,"website":null,"wheelchair":false,"paid":null,"needsAddr":true},{"id":5220323140,"name":"魴頂瀑布","lat":25.1122421,"lng":121.7395166,"address":null,"hasBabyChanging":false,"hasAccessible":false,"source":"OpenStreetMap","updatedAt":"2026-06-16T15:54:24.202Z","facilityType":"tourist_attraction","facilityLabel":"🧭 旅遊景點","phone":null,"website":null,"wheelchair":false,"paid":null,"needsAddr":true},{"id":5255834140,"name":"基隆市旅遊服務中心","lat":25.1331372,"lng":121.7400358,"address":null,"hasBabyChanging":false,"hasAccessible":false,"source":"OpenStreetMap","updatedAt":"2026-06-16T15:54:24.202Z","facilityType":"visitor_center","facilityLabel":"🛎 旅客中心","phone":null,"website":null,"wheelchair":false,"paid":null,"needsAddr":true},{"id":5355918874,"name":"雞籠官道","lat":25.1281095,"lng":121.7419878,"address":null,"hasBabyChanging":false,"hasAccessible":false,"source":"OpenStreetMap","updatedAt":"2026-06-16T15:54:24.202Z","facilityType":"tourist_attraction","facilityLabel":"🧭 旅遊景點","phone":null,"website":null,"wheelchair":false,"paid":null,"needsAddr":true},{"id":7475453185,"name":"獅球嶺西景觀台","lat":25.1264982,"lng":121.7335627,"address":null,"hasBabyChanging":false,"hasAccessible":false,"source":"OpenStreetMap","updatedAt":"2026-06-16T15:54:24.202Z","facilityType":"tourist_attraction","facilityLabel":"🧭 旅遊景點","phone":null,"website":null,"wheelchair":false,"paid":null,"needsAddr":true},{"id":8405844244,"name":"基隆市東岸旅遊服務中心","lat":25.13069,"lng":121.7432363,"address":null,"hasBabyChanging":false,"hasAccessible":false,"source":"OpenStreetMap","updatedAt":"2026-06-16T15:54:24.202Z","facilityType":"visitor_center","facilityLabel":"🛎 旅客中心","phone":null,"website":null,"wheelchair":false,"paid":null,"needsAddr":true},{"id":9542982911,"name":"城門","lat":25.1158483,"lng":121.7461058,"address":null,"hasBabyChanging":false,"hasAccessible":false,"source":"OpenStreetMap","updatedAt":"2026-06-16T15:54:24.202Z","facilityType":"tourist_attraction","facilityLabel":"🧭 旅遊景點","phone":null,"website":null,"wheelchair":false,"paid":null,"needsAddr":true},{"id":9542983029,"name":"展望","lat":25.1186303,"lng":121.7488966,"address":null,"hasBabyChanging":false,"hasAccessible":false,"source":"OpenStreetMap","updatedAt":"2026-06-16T15:54:24.202Z","facilityType":"tourist_attraction","facilityLabel":"🧭 旅遊景點","phone":null,"website":null,"wheelchair":false,"paid":null,"needsAddr":true},{"id":223361421,"name":"基隆海洋廣場","lat":25.13106905,"lng":121.7410664,"address":null,"hasBabyChanging":false,"hasAccessible":true,"source":"OpenStreetMap","updatedAt":"2026-06-16T15:54:24.202Z","facilityType":"tourist_attraction","facilityLabel":"🧭 旅遊景點","phone":null,"website":null,"wheelchair":true,"paid":null,"needsAddr":true},{"id":367817166,"name":"仁愛公園","lat":25.1264322,"lng":121.74550450000001,"address":null,"hasBabyChanging":false,"hasAccessible":false,"source":"OpenStreetMap","updatedAt":"2026-06-16T15:54:24.202Z","facilityType":"park","facilityLabel":"🌳 小型公園","phone":null,"website":null,"wheelchair":false,"paid":null,"needsAddr":true},{"id":905353671,"name":"東一碼頭公園","lat":25.13082775,"lng":121.74253585,"address":null,"hasBabyChanging":false,"hasAccessible":false,"source":"OpenStreetMap","updatedAt":"2026-06-16T15:54:24.202Z","facilityType":"tourist_attraction","facilityLabel":"🧭 旅遊景點","phone":null,"website":null,"wheelchair":false,"paid":null,"needsAddr":true},{"id":1152313304,"name":"智仁里運動公園","lat":25.12565995,"lng":121.7480483,"address":null,"hasBabyChanging":false,"hasAccessible":false,"source":"OpenStreetMap","updatedAt":"2026-06-16T15:54:24.202Z","facilityType":"park","facilityLabel":"🌳 小型公園","phone":null,"website":null,"wheelchair":false,"paid":null,"needsAddr":true},{"id":1448471414,"name":"南榮河濱公園","lat":25.119249949999997,"lng":121.74288849999999,"address":null,"hasBabyChanging":false,"hasAccessible":false,"source":"OpenStreetMap","updatedAt":"2026-06-16T15:54:24.202Z","facilityType":"park","facilityLabel":"🌳 小型公園","phone":null,"website":null,"wheelchair":false,"paid":null,"needsAddr":true},{"id":1507482585,"name":"獅球公園","lat":25.122413799999997,"lng":121.7336918,"address":null,"hasBabyChanging":false,"hasAccessible":false,"source":"OpenStreetMap","updatedAt":"2026-06-16T15:54:24.202Z","facilityType":"park","facilityLabel":"🌳 中型公園","phone":null,"website":null,"wheelchair":false,"paid":null,"needsAddr":true},{"id":1507482618,"name":"獅球長壽公園","lat":25.1187279,"lng":121.7349982,"address":null,"hasBabyChanging":false,"hasAccessible":false,"source":"OpenStreetMap","updatedAt":"2026-06-16T15:54:24.202Z","facilityType":"park","facilityLabel":"🌳 小型公園","phone":null,"website":null,"wheelchair":false,"paid":null,"needsAddr":true},{"id":7662939,"name":"陽明海洋文化藝術館","lat":25.13260115,"lng":121.74021185000001,"address":"20041基隆市仁愛區港西街4號","hasBabyChanging":false,"hasAccessible":false,"source":"OpenStreetMap","updatedAt":"2026-06-16T15:54:24.202Z","facilityType":"science","facilityLabel":"🔬 博物館","phone":null,"website":"https://www.ocam.org.tw/","wheelchair":false,"paid":null,"needsAddr":false}]}