{
  "city": "苗栗縣",
  "category": "family",
  "updatedAt": "2026-06-16T12:55:03.699519Z",
  "items": [
    {
      "id": "tdx:C1_376450000A_000878",
      "name": "幸褔農場",
      "facilityType": "farm",
      "facilityLabel": "🌾 農場",
      "lat": 24.521151,
      "lng": 120.69059,
      "source": "tdx",
      "sourceId": "C1_376450000A_000878",
      "sourceCategory": "休閒農業類",
      "reviewed": true,
      "updatedAt": "2026-06-16T08:46:47.655475Z",
      "address": "苗栗縣通霄鎮通灣里6鄰58號"
    },
    {
      "id": "coa:452",
      "name": "長屋休閒農場",
      "facilityType": "farm",
      "facilityLabel": "🌾 農場",
      "lat": 24.456789,
      "lng": 120.743214,
      "source": "coa",
      "sourceId": "452",
      "sourceCategory": "許可登記休閒農場",
      "reviewed": true,
      "updatedAt": "2026-06-16T12:08:38.871900Z",
      "address": "苗栗縣通霄鎮福興里88之8號",
      "phone": "037-783668"
    },
    {
      "id": "coa:412",
      "name": "自家烘焙咖啡休閒農場",
      "facilityType": "farm",
      "facilityLabel": "🌾 農場",
      "lat": 24.461234,
      "lng": 120.732145,
      "source": "coa",
      "sourceId": "412",
      "sourceCategory": "許可登記休閒農場",
      "reviewed": true,
      "updatedAt": "2026-06-16T12:08:38.871900Z",
      "address": "苗栗縣通霄鎮福興里9鄰福興101之11號",
      "phone": "0928-829678"
    },
    {
      "id": "coa:269",
      "name": "興民休閒農場",
      "facilityType": "farm",
      "facilityLabel": "🌾 農場",
      "lat": 24.451234,
      "lng": 120.734123,
      "source": "coa",
      "sourceId": "269",
      "sourceCategory": "許可登記休閒農場",
      "reviewed": true,
      "updatedAt": "2026-06-16T12:08:38.871900Z",
      "address": "苗栗縣通霄鎮福興里3鄰29之6號",
      "phone": "03-778-3438"
    },
    {
      "id": "coa:477",
      "name": "藍鵲休閒農場",
      "facilityType": "farm",
      "facilityLabel": "🌾 農場",
      "lat": 24.434321,
      "lng": 120.712341,
      "source": "coa",
      "sourceId": "477",
      "sourceCategory": "許可登記休閒農場",
      "reviewed": true,
      "updatedAt": "2026-06-16T12:08:38.871900Z",
      "address": "苗栗縣通霄鎮南和里113-7號",
      "phone": "04-2567-6338"
    },
    {
      "id": "coa:117",
      "name": "飛牛牧場休閒農場",
      "facilityType": "farm",
      "facilityLabel": "🌾 農場",
      "lat": 24.437142,
      "lng": 120.7393093,
      "source": "coa",
      "sourceId": "117",
      "sourceCategory": "許可登記休閒農場",
      "reviewed": true,
      "updatedAt": "2026-06-16T12:53:15.116318Z",
      "address": "苗栗縣通霄鎮南和里 166 號",
      "phone": "03-778-2999"
    },
    {
      "id": "coa:556",
      "name": "兒時記憶休閒農場",
      "facilityType": "farm",
      "facilityLabel": "🌾 農場",
      "lat": 24.472222,
      "lng": 120.724167,
      "source": "coa",
      "sourceId": "556",
      "sourceCategory": "許可登記休閒農場",
      "reviewed": true,
      "updatedAt": "2026-06-16T12:53:15.116318Z",
      "address": "苗栗縣通霄鎮烏眉里5鄰57-8號",
      "phone": "0922-958688"
    }
  ]
}