{
  "city": "苗栗縣",
  "category": "family",
  "updatedAt": "2026-06-12T20:45:26.924Z",
  "items": [
    {
      "id": 9126274963,
      "name": "景觀平台",
      "facilityType": "tourist_attraction",
      "facilityLabel": "🧭 旅遊景點",
      "lat": 24.4954313,
      "lng": 120.6717935,
      "source": "OpenStreetMap",
      "updatedAt": "2026-06-12T20:45:26.914Z"
    },
    {
      "id": 9212291398,
      "name": "通霄濱海遊憩區",
      "facilityType": "scenic_area",
      "facilityLabel": "🏞 風景區",
      "lat": 24.4961182,
      "lng": 120.6709298,
      "source": "OpenStreetMap",
      "updatedAt": "2026-06-12T20:45:26.917Z"
    },
    {
      "id": 9333167441,
      "name": "心型公路",
      "facilityType": "tourist_attraction",
      "facilityLabel": "🧭 旅遊景點",
      "lat": 24.5386701,
      "lng": 120.7068408,
      "source": "OpenStreetMap",
      "updatedAt": "2026-06-12T20:45:26.918Z"
    },
    {
      "id": 10253715528,
      "name": "秋貌園",
      "facilityType": "visitor_center",
      "facilityLabel": "🛎 旅客中心",
      "lat": 24.5403354,
      "lng": 120.6951125,
      "source": "OpenStreetMap",
      "updatedAt": "2026-06-12T20:45:26.920Z"
    },
    {
      "id": 276162512,
      "name": "農業推廣教育中心(馬英九奮鬥館)",
      "facilityType": "science",
      "facilityLabel": "🔬 博物館",
      "lat": 24.4911062,
      "lng": 120.7269898,
      "source": "OpenStreetMap",
      "updatedAt": "2026-06-12T20:45:26.922Z"
    },
    {
      "id": 367755226,
      "name": "台鹽通霄觀光園區",
      "facilityType": "tourist_attraction",
      "facilityLabel": "🧭 旅遊景點",
      "lat": 24.5561558,
      "lng": 120.7033534,
      "source": "OpenStreetMap",
      "updatedAt": "2026-06-12T20:45:26.924Z",
      "address": "357苗栗縣通霄鎮中山路122號"
    }
  ]
}
