{
  "city": "苗栗縣",
  "category": "family",
  "updatedAt": "2026-06-12T20:51:38.935Z",
  "items": [
    {
      "id": 2490521741,
      "name": "1.5K",
      "facilityType": "visitor_center",
      "facilityLabel": "🛎 旅客中心",
      "lat": 24.4252,
      "lng": 120.7877667,
      "source": "OpenStreetMap",
      "updatedAt": "2026-06-12T20:51:38.921Z"
    },
    {
      "id": 2490521744,
      "name": "3.0K",
      "facilityType": "visitor_center",
      "facilityLabel": "🛎 旅客中心",
      "lat": 24.4367333,
      "lng": 120.7899833,
      "source": "OpenStreetMap",
      "updatedAt": "2026-06-12T20:51:38.924Z"
    },
    {
      "id": 2490521745,
      "name": "4.0K",
      "facilityType": "visitor_center",
      "facilityLabel": "🛎 旅客中心",
      "lat": 24.4448667,
      "lng": 120.7920167,
      "source": "OpenStreetMap",
      "updatedAt": "2026-06-12T20:51:38.925Z"
    },
    {
      "id": 2578903927,
      "name": "客屬大橋",
      "facilityType": "tourist_attraction",
      "facilityLabel": "🧭 旅遊景點",
      "lat": 24.4743348,
      "lng": 120.8059314,
      "source": "OpenStreetMap",
      "updatedAt": "2026-06-12T20:51:38.926Z"
    },
    {
      "id": 3303496961,
      "name": "客家大院",
      "facilityType": "tourist_attraction",
      "facilityLabel": "🧭 旅遊景點",
      "lat": 24.4723839,
      "lng": 120.803264,
      "source": "OpenStreetMap",
      "updatedAt": "2026-06-12T20:51:38.928Z"
    },
    {
      "id": 5360448771,
      "name": "3.5K",
      "facilityType": "visitor_center",
      "facilityLabel": "🛎 旅客中心",
      "lat": 24.4410985,
      "lng": 120.7907126,
      "source": "OpenStreetMap",
      "updatedAt": "2026-06-12T20:51:38.929Z"
    },
    {
      "id": 5360448773,
      "name": "慈雲寺步道2.0K",
      "facilityType": "visitor_center",
      "facilityLabel": "🛎 旅客中心",
      "lat": 24.4468985,
      "lng": 120.7919152,
      "source": "OpenStreetMap",
      "updatedAt": "2026-06-12T20:51:38.929Z"
    },
    {
      "id": 5360448774,
      "name": "慈雲寺步道2.475K",
      "facilityType": "visitor_center",
      "facilityLabel": "🛎 旅客中心",
      "lat": 24.4504132,
      "lng": 120.7932914,
      "source": "OpenStreetMap",
      "updatedAt": "2026-06-12T20:51:38.930Z"
    },
    {
      "id": 5360448777,
      "name": "慈雲寺步道1.485K",
      "facilityType": "visitor_center",
      "facilityLabel": "🛎 旅客中心",
      "lat": 24.4574905,
      "lng": 120.7959863,
      "source": "OpenStreetMap",
      "updatedAt": "2026-06-12T20:51:38.930Z"
    },
    {
      "id": 5360448780,
      "name": "慈雲寺步道0.990K",
      "facilityType": "visitor_center",
      "facilityLabel": "🛎 旅客中心",
      "lat": 24.4611959,
      "lng": 120.7962886,
      "source": "OpenStreetMap",
      "updatedAt": "2026-06-12T20:51:38.931Z"
    },
    {
      "id": 5443139424,
      "name": "銅鑼天空步道",
      "facilityType": "tourist_attraction",
      "facilityLabel": "🧭 旅遊景點",
      "lat": 24.4592181,
      "lng": 120.7544132,
      "source": "OpenStreetMap",
      "updatedAt": "2026-06-12T20:51:38.932Z"
    },
    {
      "id": 5443149123,
      "name": "震災紀念碑",
      "facilityType": "tourist_attraction",
      "facilityLabel": "🧭 旅遊景點",
      "lat": 24.4895191,
      "lng": 120.7905866,
      "source": "OpenStreetMap",
      "updatedAt": "2026-06-12T20:51:38.932Z"
    },
    {
      "id": 5443229521,
      "name": "銅鑼杭菊花季會場",
      "facilityType": "tourist_attraction",
      "facilityLabel": "🧭 旅遊景點",
      "lat": 24.4717162,
      "lng": 120.7765123,
      "source": "OpenStreetMap",
      "updatedAt": "2026-06-12T20:51:38.933Z"
    },
    {
      "id": 5443229621,
      "name": "銅鑼自行車道東段",
      "facilityType": "tourist_attraction",
      "facilityLabel": "🧭 旅遊景點",
      "lat": 24.4764277,
      "lng": 120.776872,
      "source": "OpenStreetMap",
      "updatedAt": "2026-06-12T20:51:38.933Z"
    },
    {
      "id": 7557612938,
      "name": "舊銅鑼隧道南口",
      "facilityType": "visitor_center",
      "facilityLabel": "🛎 旅客中心",
      "lat": 24.5178756,
      "lng": 120.7889476,
      "source": "OpenStreetMap",
      "updatedAt": "2026-06-12T20:51:38.934Z"
    },
    {
      "id": 8296302717,
      "name": "龍貓土地公",
      "facilityType": "tourist_attraction",
      "facilityLabel": "🧭 旅遊景點",
      "lat": 24.4985443,
      "lng": 120.7776267,
      "source": "OpenStreetMap",
      "updatedAt": "2026-06-12T20:51:38.934Z"
    },
    {
      "id": 1193522569,
      "name": "莫內秘密花園",
      "facilityType": "tourist_attraction",
      "facilityLabel": "🧭 旅遊景點",
      "lat": 24.417393,
      "lng": 120.7982605,
      "source": "OpenStreetMap",
      "updatedAt": "2026-06-12T20:51:38.934Z"
    }
  ]
}
