{
  "city": "苗栗縣",
  "category": "family",
  "updatedAt": "2026-06-12T20:54:47.090Z",
  "items": [
    {
      "id": 2753427279,
      "name": "神秘谷觀景平台",
      "facilityType": "tourist_attraction",
      "facilityLabel": "🧭 旅遊景點",
      "lat": 24.5906112,
      "lng": 120.9122974,
      "source": "OpenStreetMap",
      "updatedAt": "2026-06-12T20:54:47.074Z"
    },
    {
      "id": 4107463591,
      "name": "頭屋星期一夜市",
      "facilityType": "tourist_attraction",
      "facilityLabel": "🧭 旅遊景點",
      "lat": 24.5758436,
      "lng": 120.8521419,
      "source": "OpenStreetMap",
      "updatedAt": "2026-06-12T20:54:47.076Z"
    },
    {
      "id": 4271866606,
      "name": "畚箕窩古道",
      "facilityType": "tourist_attraction",
      "facilityLabel": "🧭 旅遊景點",
      "lat": 24.5667223,
      "lng": 120.8600347,
      "source": "OpenStreetMap",
      "updatedAt": "2026-06-12T20:54:47.078Z"
    },
    {
      "id": 4545841790,
      "name": "月光山天馬旗場地",
      "facilityType": "tourist_attraction",
      "facilityLabel": "🧭 旅遊景點",
      "lat": 24.5732075,
      "lng": 120.8522129,
      "source": "OpenStreetMap",
      "updatedAt": "2026-06-12T20:54:47.080Z"
    },
    {
      "id": 4673856289,
      "name": "三漥坑景觀台",
      "facilityType": "visitor_center",
      "facilityLabel": "🛎 旅客中心",
      "lat": 24.5984715,
      "lng": 120.8495558,
      "source": "OpenStreetMap",
      "updatedAt": "2026-06-12T20:54:47.081Z"
    },
    {
      "id": 8296027717,
      "name": "墨硯山夜景",
      "facilityType": "tourist_attraction",
      "facilityLabel": "🧭 旅遊景點",
      "lat": 24.5578702,
      "lng": 120.8455217,
      "source": "OpenStreetMap",
      "updatedAt": "2026-06-12T20:54:47.083Z"
    },
    {
      "id": 10110791332,
      "name": "永春宮客家文物館",
      "facilityType": "culture",
      "facilityLabel": "🎨 藝文場館",
      "lat": 24.5894032,
      "lng": 120.9117187,
      "source": "OpenStreetMap",
      "updatedAt": "2026-06-12T20:54:47.084Z"
    },
    {
      "id": 13513749405,
      "name": "古道導覽圖",
      "facilityType": "visitor_center",
      "facilityLabel": "🛎 旅客中心",
      "lat": 24.5435896,
      "lng": 120.9043034,
      "source": "OpenStreetMap",
      "updatedAt": "2026-06-12T20:54:47.086Z"
    },
    {
      "id": 205958601,
      "name": "明德水庫貳號吊橋",
      "facilityType": "tourist_attraction",
      "facilityLabel": "🧭 旅遊景點",
      "lat": 24.5881615,
      "lng": 120.8920994,
      "source": "OpenStreetMap",
      "updatedAt": "2026-06-12T20:54:47.088Z"
    },
    {
      "id": 205958607,
      "name": "明德水庫壹號吊橋",
      "facilityType": "tourist_attraction",
      "facilityLabel": "🧭 旅遊景點",
      "lat": 24.5876341,
      "lng": 120.8889934,
      "source": "OpenStreetMap",
      "updatedAt": "2026-06-12T20:54:47.088Z"
    },
    {
      "id": 712942585,
      "name": "百茶文化園區",
      "facilityType": "tourist_attraction",
      "facilityLabel": "🧭 旅遊景點",
      "lat": 24.5785267,
      "lng": 120.8577326,
      "source": "OpenStreetMap",
      "updatedAt": "2026-06-12T20:54:47.089Z"
    },
    {
      "id": 791611848,
      "name": "雅聞七里香玫瑰森林",
      "facilityType": "tourist_attraction",
      "facilityLabel": "🧭 旅遊景點",
      "lat": 24.5999854,
      "lng": 120.8852421,
      "source": "OpenStreetMap",
      "updatedAt": "2026-06-12T20:54:47.089Z",
      "address": "苗栗縣造橋鄉明德路226號"
    }
  ]
}
