{
  "city": "嘉義縣",
  "district": "鹿草鄉",
  "category": "transport",
  "updatedAt": "2026-06-11T16:04:46.906Z",
  "rev": 1,
  "count": 17,
  "items": [
    {
      "id": 4294756826,
      "name": "嘉義教養院",
      "type": "bus",
      "city": "嘉義縣",
      "district": "鹿草鄉",
      "lat": 23.406058,
      "lng": 120.3302264,
      "routes": [
        "7207",
        "7208",
        "7208B",
        "7213",
        "7213B",
        "黃16-1 白河→高鐵嘉義站",
        "黃16-1 高鐵嘉義站→白河"
      ],
      "routeCount": 7,
      "routeSource": "gtfs",
      "routeUpdatedAt": "2026-06-14T16:43:40.489Z",
      "routeConfidence": "high"
    },
    {
      "id": 5319471956,
      "name": "後寮村",
      "type": "bus",
      "city": "嘉義縣",
      "district": "鹿草鄉",
      "lat": 23.4319324,
      "lng": 120.3213295,
      "routes": [
        "黃9 長勝營區→新營→高鐵嘉義站",
        "黃9 長勝營區→新營→高鐵嘉義站(不經民治中心、延駛故宮南院)",
        "黃9 長勝營區→新營→高鐵嘉義站(延駛故宮南院)",
        "黃9 高鐵嘉義站→新營",
        "黃9 高鐵嘉義站→新營(不經民治中心、延駛故宮南院)",
        "黃9 高鐵嘉義站→新營(不繞民治中心)",
        "黃9 高鐵嘉義站→新營(延駛故宮南院)",
        "黃9 高鐵嘉義站→新營→長勝營區",
        "黃9 高鐵嘉義站→新營→長勝營區(不經民治中心、延駛故宮南院)",
        "黃9 高鐵嘉義站→新營→長勝營區(延駛故宮南院)",
        "黃9 新營→高鐵嘉義站",
        "黃9 新營→高鐵嘉義站(不經民治中心、延駛故宮南院)",
        "黃9 新營→高鐵嘉義站(不繞民治中心)",
        "黃9 新營→高鐵嘉義站(延駛故宮南院)",
        "黃16-1 白河→高鐵嘉義站",
        "黃16-1 高鐵嘉義站→白河"
      ],
      "routeCount": 16,
      "routeSource": "gtfs",
      "routeUpdatedAt": "2026-06-14T16:43:40.489Z",
      "routeConfidence": "high"
    },
    {
      "id": 6744150563,
      "name": "嘉義監獄",
      "type": "bus",
      "city": "嘉義縣",
      "district": "鹿草鄉",
      "lat": 23.431375,
      "lng": 120.2836096,
      "routes": [
        "166"
      ],
      "routeCount": 1,
      "routeSource": "gtfs",
      "routeUpdatedAt": "2026-06-14T16:43:40.489Z",
      "routeConfidence": "high"
    },
    {
      "id": 6744150564,
      "name": "嘉義監獄",
      "type": "bus",
      "city": "嘉義縣",
      "district": "鹿草鄉",
      "lat": 23.4308188,
      "lng": 120.2845806,
      "routes": [
        "166"
      ],
      "routeCount": 1,
      "routeSource": "gtfs",
      "routeUpdatedAt": "2026-06-14T16:43:40.489Z",
      "routeConfidence": "high"
    },
    {
      "id": 6744150565,
      "name": "鹿草圓山宮",
      "type": "bus",
      "city": "嘉義縣",
      "district": "鹿草鄉",
      "lat": 23.4133689,
      "lng": 120.3067034,
      "routes": [
        "166"
      ],
      "routeCount": 1,
      "routeSource": "gtfs",
      "routeUpdatedAt": "2026-06-14T16:43:40.489Z",
      "routeConfidence": "high"
    },
    {
      "id": 6744150567,
      "name": "鹿草",
      "type": "bus",
      "city": "嘉義縣",
      "district": "鹿草鄉",
      "lat": 23.4098023,
      "lng": 120.3076583,
      "routes": [
        "166",
        "7207",
        "7208",
        "7208B",
        "7213",
        "7213B"
      ],
      "routeCount": 6,
      "routeSource": "gtfs",
      "routeUpdatedAt": "2026-06-14T16:43:40.489Z",
      "routeConfidence": "high"
    },
    {
      "id": 6744150569,
      "name": "竹子腳",
      "type": "bus",
      "city": "嘉義縣",
      "district": "鹿草鄉",
      "lat": 23.3945037,
      "lng": 120.2982303,
      "routes": [
        "166",
        "7207",
        "7213",
        "7213B"
      ],
      "routeCount": 4,
      "routeSource": "gtfs",
      "routeUpdatedAt": "2026-06-14T16:43:40.489Z",
      "routeConfidence": "high"
    },
    {
      "id": 6744150571,
      "name": "頂潭",
      "type": "bus",
      "city": "嘉義縣",
      "district": "鹿草鄉",
      "lat": 23.3843462,
      "lng": 120.2963984,
      "routes": [
        "166",
        "7207",
        "7208",
        "7208B"
      ],
      "routeCount": 4,
      "routeSource": "gtfs",
      "routeUpdatedAt": "2026-06-14T16:43:40.490Z",
      "routeConfidence": "high"
    },
    {
      "id": 6744150573,
      "name": "下潭",
      "type": "bus",
      "city": "嘉義縣",
      "district": "鹿草鄉",
      "lat": 23.3757244,
      "lng": 120.2868497,
      "routes": [
        "166",
        "7207",
        "7208",
        "7208B"
      ],
      "routeCount": 4,
      "routeSource": "gtfs",
      "routeUpdatedAt": "2026-06-14T16:43:40.490Z",
      "routeConfidence": "high"
    },
    {
      "id": 6744150574,
      "name": "下潭",
      "type": "bus",
      "city": "嘉義縣",
      "district": "鹿草鄉",
      "lat": 23.3747765,
      "lng": 120.2862623,
      "routes": [
        "166",
        "7207",
        "7208",
        "7208B"
      ],
      "routeCount": 4,
      "routeSource": "gtfs",
      "routeUpdatedAt": "2026-06-14T16:43:40.490Z",
      "routeConfidence": "high"
    },
    {
      "id": 6855472937,
      "name": "馬稠後產業園區",
      "type": "bus",
      "city": "嘉義縣",
      "district": "鹿草鄉",
      "lat": 23.4397317,
      "lng": 120.2774009,
      "routes": [
        "166"
      ],
      "routeCount": 1,
      "routeSource": "gtfs",
      "routeUpdatedAt": "2026-06-14T16:43:40.490Z",
      "routeConfidence": "high"
    },
    {
      "id": 8370988427,
      "name": "三角村",
      "type": "bus",
      "city": "嘉義縣",
      "district": "鹿草鄉",
      "lat": 23.4015325,
      "lng": 120.3331941,
      "routes": [
        "黃16-1 白河→高鐵嘉義站",
        "黃16-1 高鐵嘉義站→白河"
      ],
      "routeCount": 2,
      "routeSource": "gtfs",
      "routeUpdatedAt": "2026-06-14T16:43:40.490Z",
      "routeConfidence": "high"
    },
    {
      "id": 8370988428,
      "name": "毛蟹行西",
      "type": "bus",
      "city": "嘉義縣",
      "district": "鹿草鄉",
      "lat": 23.4032476,
      "lng": 120.3328207,
      "routes": [
        "黃16-1 白河→高鐵嘉義站",
        "黃16-1 高鐵嘉義站→白河"
      ],
      "routeCount": 2,
      "routeSource": "gtfs",
      "routeUpdatedAt": "2026-06-14T16:43:40.490Z",
      "routeConfidence": "high"
    },
    {
      "id": 8370988429,
      "name": "山仔腳1",
      "type": "bus",
      "city": "嘉義縣",
      "district": "鹿草鄉",
      "lat": 23.4077201,
      "lng": 120.3223869,
      "routes": [
        "黃16-1 白河→高鐵嘉義站",
        "黃16-1 高鐵嘉義站→白河"
      ],
      "routeCount": 2,
      "routeSource": "gtfs",
      "routeUpdatedAt": "2026-06-14T16:43:40.490Z",
      "routeConfidence": "high"
    },
    {
      "id": 8370988430,
      "name": "鹿草",
      "type": "bus",
      "city": "嘉義縣",
      "district": "鹿草鄉",
      "lat": 23.4099032,
      "lng": 120.3152808,
      "routes": [
        "黃16-1 白河→高鐵嘉義站",
        "黃16-1 高鐵嘉義站→白河"
      ],
      "routeCount": 2,
      "routeSource": "gtfs",
      "routeUpdatedAt": "2026-06-14T16:43:40.490Z",
      "routeConfidence": "high"
    },
    {
      "id": 8370988431,
      "name": "鹿東",
      "type": "bus",
      "city": "嘉義縣",
      "district": "鹿草鄉",
      "lat": 23.4135298,
      "lng": 120.3150307,
      "routes": [
        "黃16-1 白河→高鐵嘉義站",
        "黃16-1 高鐵嘉義站→白河"
      ],
      "routeCount": 2,
      "routeSource": "gtfs",
      "routeUpdatedAt": "2026-06-14T16:43:40.490Z",
      "routeConfidence": "high"
    },
    {
      "id": 8370988432,
      "name": "一心教養院",
      "type": "bus",
      "city": "嘉義縣",
      "district": "鹿草鄉",
      "lat": 23.4250879,
      "lng": 120.3158688,
      "routes": [
        "黃16-1 白河→高鐵嘉義站",
        "黃16-1 高鐵嘉義站→白河"
      ],
      "routeCount": 2,
      "routeSource": "gtfs",
      "routeUpdatedAt": "2026-06-14T16:43:40.490Z",
      "routeConfidence": "high"
    }
  ]
}
