{
  "city": "高雄市",
  "category": "family",
  "updatedAt": "2026-06-12T19:53:11.207Z",
  "items": [
    {
      "id": 2280889881,
      "name": "烏山頂泥火山",
      "facilityType": "tourist_attraction",
      "facilityLabel": "🧭 旅遊景點",
      "lat": 22.7960236,
      "lng": 120.4059195,
      "source": "OpenStreetMap",
      "updatedAt": "2026-06-12T19:53:11.184Z"
    },
    {
      "id": 6307889585,
      "name": "泥火山往北極殿",
      "facilityType": "tourist_attraction",
      "facilityLabel": "🧭 旅遊景點",
      "lat": 22.8051882,
      "lng": 120.3976882,
      "source": "OpenStreetMap",
      "updatedAt": "2026-06-12T19:53:11.186Z"
    },
    {
      "id": 6699815150,
      "name": "古厝聚落",
      "facilityType": "tourist_attraction",
      "facilityLabel": "🧭 旅遊景點",
      "lat": 22.8158559,
      "lng": 120.3573612,
      "source": "OpenStreetMap",
      "updatedAt": "2026-06-12T19:53:11.188Z"
    },
    {
      "id": 6699815151,
      "name": "竹林泮騎",
      "facilityType": "tourist_attraction",
      "facilityLabel": "🧭 旅遊景點",
      "lat": 22.8183355,
      "lng": 120.3530879,
      "source": "OpenStreetMap",
      "updatedAt": "2026-06-12T19:53:11.189Z"
    },
    {
      "id": 6699815152,
      "name": "樹影果香",
      "facilityType": "tourist_attraction",
      "facilityLabel": "🧭 旅遊景點",
      "lat": 22.8155751,
      "lng": 120.3522351,
      "source": "OpenStreetMap",
      "updatedAt": "2026-06-12T19:53:11.191Z"
    },
    {
      "id": 6699815153,
      "name": "晨鐘暮鼓",
      "facilityType": "tourist_attraction",
      "facilityLabel": "🧭 旅遊景點",
      "lat": 22.8105935,
      "lng": 120.3560331,
      "source": "OpenStreetMap",
      "updatedAt": "2026-06-12T19:53:11.192Z"
    },
    {
      "id": 6699815154,
      "name": "日昇蓬萊",
      "facilityType": "tourist_attraction",
      "facilityLabel": "🧭 旅遊景點",
      "lat": 22.8062973,
      "lng": 120.3561322,
      "source": "OpenStreetMap",
      "updatedAt": "2026-06-12T19:53:11.193Z"
    },
    {
      "id": 6699815155,
      "name": "荷塘曉風",
      "facilityType": "tourist_attraction",
      "facilityLabel": "🧭 旅遊景點",
      "lat": 22.8036921,
      "lng": 120.3575404,
      "source": "OpenStreetMap",
      "updatedAt": "2026-06-12T19:53:11.194Z"
    },
    {
      "id": 6699815156,
      "name": "崗山倒影",
      "facilityType": "tourist_attraction",
      "facilityLabel": "🧭 旅遊景點",
      "lat": 22.805374,
      "lng": 120.3529194,
      "source": "OpenStreetMap",
      "updatedAt": "2026-06-12T19:53:11.194Z"
    },
    {
      "id": 6699815157,
      "name": "長堤夕照",
      "facilityType": "tourist_attraction",
      "facilityLabel": "🧭 旅遊景點",
      "lat": 22.8080226,
      "lng": 120.3487868,
      "source": "OpenStreetMap",
      "updatedAt": "2026-06-12T19:53:11.195Z"
    },
    {
      "id": 6699815169,
      "name": "水濱生態觀察區",
      "facilityType": "tourist_attraction",
      "facilityLabel": "🧭 旅遊景點",
      "lat": 22.8112265,
      "lng": 120.3439228,
      "source": "OpenStreetMap",
      "updatedAt": "2026-06-12T19:53:11.196Z"
    },
    {
      "id": 7040085285,
      "name": "新養女湖",
      "facilityType": "tourist_attraction",
      "facilityLabel": "🧭 旅遊景點",
      "lat": 22.8026466,
      "lng": 120.4092369,
      "source": "OpenStreetMap",
      "updatedAt": "2026-06-12T19:53:11.196Z"
    },
    {
      "id": 9794493793,
      "name": "養女湖泥漿瀑布",
      "facilityType": "tourist_attraction",
      "facilityLabel": "🧭 旅遊景點",
      "lat": 22.8054797,
      "lng": 120.4098405,
      "source": "OpenStreetMap",
      "updatedAt": "2026-06-12T19:53:11.197Z"
    },
    {
      "id": 9797717022,
      "name": "三八嶺秘境",
      "facilityType": "tourist_attraction",
      "facilityLabel": "🧭 旅遊景點",
      "lat": 22.7991303,
      "lng": 120.4003622,
      "source": "OpenStreetMap",
      "updatedAt": "2026-06-12T19:53:11.197Z"
    },
    {
      "id": 9830628131,
      "name": "太陽谷",
      "facilityType": "tourist_attraction",
      "facilityLabel": "🧭 旅遊景點",
      "lat": 22.8127399,
      "lng": 120.4094375,
      "source": "OpenStreetMap",
      "updatedAt": "2026-06-12T19:53:11.198Z"
    },
    {
      "id": 11361282770,
      "name": "右轉上山",
      "facilityType": "tourist_attraction",
      "facilityLabel": "🧭 旅遊景點",
      "lat": 22.8061956,
      "lng": 120.3986657,
      "source": "OpenStreetMap",
      "updatedAt": "2026-06-12T19:53:11.198Z"
    },
    {
      "id": 11361993069,
      "name": "右轉天聖宮左轉38嶺惡地",
      "facilityType": "tourist_attraction",
      "facilityLabel": "🧭 旅遊景點",
      "lat": 22.8056424,
      "lng": 120.3987838,
      "source": "OpenStreetMap",
      "updatedAt": "2026-06-12T19:53:11.199Z"
    },
    {
      "id": 11361993169,
      "name": "天聖宮左轉",
      "facilityType": "tourist_attraction",
      "facilityLabel": "🧭 旅遊景點",
      "lat": 22.8041715,
      "lng": 120.3962141,
      "source": "OpenStreetMap",
      "updatedAt": "2026-06-12T19:53:11.199Z"
    },
    {
      "id": 11363086969,
      "name": "左右都有出口",
      "facilityType": "tourist_attraction",
      "facilityLabel": "🧭 旅遊景點",
      "lat": 22.802946,
      "lng": 120.3921738,
      "source": "OpenStreetMap",
      "updatedAt": "2026-06-12T19:53:11.199Z"
    },
    {
      "id": 11363087069,
      "name": "右轉天聖宮",
      "facilityType": "tourist_attraction",
      "facilityLabel": "🧭 旅遊景點",
      "lat": 22.8014821,
      "lng": 120.3878526,
      "source": "OpenStreetMap",
      "updatedAt": "2026-06-12T19:53:11.200Z"
    },
    {
      "id": 11363106969,
      "name": "三八嶺惡地",
      "facilityType": "tourist_attraction",
      "facilityLabel": "🧭 旅遊景點",
      "lat": 22.8015802,
      "lng": 120.4029444,
      "source": "OpenStreetMap",
      "updatedAt": "2026-06-12T19:53:11.200Z"
    },
    {
      "id": 11366153570,
      "name": "西向道路往38嶺惡地，山徑往天聖宮",
      "facilityType": "tourist_attraction",
      "facilityLabel": "🧭 旅遊景點",
      "lat": 22.8051959,
      "lng": 120.3977007,
      "source": "OpenStreetMap",
      "updatedAt": "2026-06-12T19:53:11.201Z"
    },
    {
      "id": 11690060869,
      "name": "往舊養女湖",
      "facilityType": "tourist_attraction",
      "facilityLabel": "🧭 旅遊景點",
      "lat": 22.8104325,
      "lng": 120.4116387,
      "source": "OpenStreetMap",
      "updatedAt": "2026-06-12T19:53:11.201Z"
    },
    {
      "id": 13343324860,
      "name": "烏山頂泥火山",
      "facilityType": "tourist_attraction",
      "facilityLabel": "🧭 旅遊景點",
      "lat": 22.7957309,
      "lng": 120.4058446,
      "source": "OpenStreetMap",
      "updatedAt": "2026-06-12T19:53:11.202Z"
    },
    {
      "id": 13343324861,
      "name": "烏山頂泥火山",
      "facilityType": "tourist_attraction",
      "facilityLabel": "🧭 旅遊景點",
      "lat": 22.7958286,
      "lng": 120.4058593,
      "source": "OpenStreetMap",
      "updatedAt": "2026-06-12T19:53:11.202Z"
    },
    {
      "id": 13590733327,
      "name": "舊養女湖",
      "facilityType": "tourist_attraction",
      "facilityLabel": "🧭 旅遊景點",
      "lat": 22.8056864,
      "lng": 120.4106209,
      "source": "OpenStreetMap",
      "updatedAt": "2026-06-12T19:53:11.203Z"
    },
    {
      "id": 13806487901,
      "name": "農塘映月",
      "facilityType": "tourist_attraction",
      "facilityLabel": "🧭 旅遊景點",
      "lat": 22.8022263,
      "lng": 120.4050576,
      "source": "OpenStreetMap",
      "updatedAt": "2026-06-12T19:53:11.203Z"
    },
    {
      "id": 13806487906,
      "name": "飛簷走壁",
      "facilityType": "tourist_attraction",
      "facilityLabel": "🧭 旅遊景點",
      "lat": 22.8028004,
      "lng": 120.4058466,
      "source": "OpenStreetMap",
      "updatedAt": "2026-06-12T19:53:11.204Z"
    },
    {
      "id": 13806487935,
      "name": "太陽谷",
      "facilityType": "tourist_attraction",
      "facilityLabel": "🧭 旅遊景點",
      "lat": 22.8033039,
      "lng": 120.4062796,
      "source": "OpenStreetMap",
      "updatedAt": "2026-06-12T19:53:11.204Z"
    },
    {
      "id": 13806487946,
      "name": "過嶺潦溪",
      "facilityType": "tourist_attraction",
      "facilityLabel": "🧭 旅遊景點",
      "lat": 22.8026597,
      "lng": 120.4060451,
      "source": "OpenStreetMap",
      "updatedAt": "2026-06-12T19:53:11.204Z"
    },
    {
      "id": 172243643,
      "name": "日昇蓬萊吊橋",
      "facilityType": "tourist_attraction",
      "facilityLabel": "🧭 旅遊景點",
      "lat": 22.8070059,
      "lng": 120.3565368,
      "source": "OpenStreetMap",
      "updatedAt": "2026-06-12T19:53:11.205Z"
    },
    {
      "id": 218708933,
      "name": "吊橋",
      "facilityType": "tourist_attraction",
      "facilityLabel": "🧭 旅遊景點",
      "lat": 22.7749258,
      "lng": 120.4012297,
      "source": "OpenStreetMap",
      "updatedAt": "2026-06-12T19:53:11.205Z"
    },
    {
      "id": 1145218395,
      "name": "吊橋",
      "facilityType": "tourist_attraction",
      "facilityLabel": "🧭 旅遊景點",
      "lat": 22.7752052,
      "lng": 120.4019981,
      "source": "OpenStreetMap",
      "updatedAt": "2026-06-12T19:53:11.206Z"
    },
    {
      "id": 1145218396,
      "name": "吊橋",
      "facilityType": "tourist_attraction",
      "facilityLabel": "🧭 旅遊景點",
      "lat": 22.7754126,
      "lng": 120.4025291,
      "source": "OpenStreetMap",
      "updatedAt": "2026-06-12T19:53:11.206Z"
    },
    {
      "id": 1184936194,
      "name": "金山歡樂工作坊",
      "facilityType": "visitor_center",
      "facilityLabel": "🛎 旅客中心",
      "lat": 22.804647,
      "lng": 120.3886,
      "source": "OpenStreetMap",
      "updatedAt": "2026-06-12T19:53:11.207Z"
    },
    {
      "id": 7001153,
      "name": "烏山頂泥火山自然保留區",
      "facilityType": "spot",
      "facilityLabel": "📍 親子景點",
      "lat": 22.796347,
      "lng": 120.4058233,
      "source": "OpenStreetMap",
      "updatedAt": "2026-06-12T19:53:11.207Z"
    }
  ]
}
