{
  "city": "高雄市",
  "category": "family",
  "updatedAt": "2026-06-12T20:05:27.935Z",
  "items": [
    {
      "id": 2090848810,
      "name": "瀰濃庄敬字亭",
      "facilityType": "tourist_attraction",
      "facilityLabel": "🧭 旅遊景點",
      "lat": 22.9021584,
      "lng": 120.5339195,
      "source": "OpenStreetMap",
      "updatedAt": "2026-06-12T20:05:27.907Z"
    },
    {
      "id": 6067659428,
      "name": "林業及自然保育署",
      "facilityType": "visitor_center",
      "facilityLabel": "🛎 旅客中心",
      "lat": 22.9331154,
      "lng": 120.591576,
      "source": "OpenStreetMap",
      "updatedAt": "2026-06-12T20:05:27.910Z"
    },
    {
      "id": 6067659429,
      "name": "林業及自然保育署",
      "facilityType": "visitor_center",
      "facilityLabel": "🛎 旅客中心",
      "lat": 22.9093533,
      "lng": 120.519707,
      "source": "OpenStreetMap",
      "updatedAt": "2026-06-12T20:05:27.911Z"
    },
    {
      "id": 6067659431,
      "name": "林業及自然保育署",
      "facilityType": "visitor_center",
      "facilityLabel": "🛎 旅客中心",
      "lat": 22.9091758,
      "lng": 120.514778,
      "source": "OpenStreetMap",
      "updatedAt": "2026-06-12T20:05:27.912Z"
    },
    {
      "id": 6615527192,
      "name": "林業及自然保育署",
      "facilityType": "visitor_center",
      "facilityLabel": "🛎 旅客中心",
      "lat": 22.9317164,
      "lng": 120.591866,
      "source": "OpenStreetMap",
      "updatedAt": "2026-06-12T20:05:27.913Z"
    },
    {
      "id": 6615527221,
      "name": "林業及自然保育署",
      "facilityType": "visitor_center",
      "facilityLabel": "🛎 旅客中心",
      "lat": 22.9334681,
      "lng": 120.542145,
      "source": "OpenStreetMap",
      "updatedAt": "2026-06-12T20:05:27.914Z"
    },
    {
      "id": 6615527227,
      "name": "林業及自然保育署",
      "facilityType": "visitor_center",
      "facilityLabel": "🛎 旅客中心",
      "lat": 22.9289698,
      "lng": 120.5914952,
      "source": "OpenStreetMap",
      "updatedAt": "2026-06-12T20:05:27.916Z"
    },
    {
      "id": 6615527257,
      "name": "林業及自然保育署",
      "facilityType": "visitor_center",
      "facilityLabel": "🛎 旅客中心",
      "lat": 22.9287071,
      "lng": 120.541496,
      "source": "OpenStreetMap",
      "updatedAt": "2026-06-12T20:05:27.917Z"
    },
    {
      "id": 6615533816,
      "name": "林業及自然保育署",
      "facilityType": "visitor_center",
      "facilityLabel": "🛎 旅客中心",
      "lat": 22.9108873,
      "lng": 120.5163107,
      "source": "OpenStreetMap",
      "updatedAt": "2026-06-12T20:05:27.918Z"
    },
    {
      "id": 8304867024,
      "name": "雙溪小棧",
      "facilityType": "visitor_center",
      "facilityLabel": "🛎 旅客中心",
      "lat": 22.9329799,
      "lng": 120.5923302,
      "source": "OpenStreetMap",
      "updatedAt": "2026-06-12T20:05:27.919Z"
    },
    {
      "id": 8632395318,
      "name": "果園",
      "facilityType": "tourist_attraction",
      "facilityLabel": "🧭 旅遊景點",
      "lat": 22.8911836,
      "lng": 120.5106424,
      "source": "OpenStreetMap",
      "updatedAt": "2026-06-12T20:05:27.919Z"
    },
    {
      "id": 9285775426,
      "name": "4.0K",
      "facilityType": "visitor_center",
      "facilityLabel": "🛎 旅客中心",
      "lat": 22.9063407,
      "lng": 120.510475,
      "source": "OpenStreetMap",
      "updatedAt": "2026-06-12T20:05:27.920Z"
    },
    {
      "id": 9285775427,
      "name": "4.1K",
      "facilityType": "visitor_center",
      "facilityLabel": "🛎 旅客中心",
      "lat": 22.9071722,
      "lng": 120.5107308,
      "source": "OpenStreetMap",
      "updatedAt": "2026-06-12T20:05:27.920Z"
    },
    {
      "id": 9285776725,
      "name": "5.4K",
      "facilityType": "visitor_center",
      "facilityLabel": "🛎 旅客中心",
      "lat": 22.9117473,
      "lng": 120.5188428,
      "source": "OpenStreetMap",
      "updatedAt": "2026-06-12T20:05:27.921Z"
    },
    {
      "id": 9285776726,
      "name": "5.8K",
      "facilityType": "visitor_center",
      "facilityLabel": "🛎 旅客中心",
      "lat": 22.9095717,
      "lng": 120.5192096,
      "source": "OpenStreetMap",
      "updatedAt": "2026-06-12T20:05:27.921Z"
    },
    {
      "id": 9285866552,
      "name": "5.6K",
      "facilityType": "visitor_center",
      "facilityLabel": "🛎 旅客中心",
      "lat": 22.910839,
      "lng": 120.5189133,
      "source": "OpenStreetMap",
      "updatedAt": "2026-06-12T20:05:27.922Z"
    },
    {
      "id": 9285868529,
      "name": "5.1K",
      "facilityType": "visitor_center",
      "facilityLabel": "🛎 旅客中心",
      "lat": 22.9117654,
      "lng": 120.5173891,
      "source": "OpenStreetMap",
      "updatedAt": "2026-06-12T20:05:27.922Z"
    },
    {
      "id": 9285872695,
      "name": "5.0K",
      "facilityType": "visitor_center",
      "facilityLabel": "🛎 旅客中心",
      "lat": 22.9112517,
      "lng": 120.5166275,
      "source": "OpenStreetMap",
      "updatedAt": "2026-06-12T20:05:27.922Z"
    },
    {
      "id": 9285874263,
      "name": "4.6K",
      "facilityType": "visitor_center",
      "facilityLabel": "🛎 旅客中心",
      "lat": 22.9094394,
      "lng": 120.5143182,
      "source": "OpenStreetMap",
      "updatedAt": "2026-06-12T20:05:27.923Z"
    },
    {
      "id": 9285881420,
      "name": "5.7K",
      "facilityType": "visitor_center",
      "facilityLabel": "🛎 旅客中心",
      "lat": 22.9101632,
      "lng": 120.5196074,
      "source": "OpenStreetMap",
      "updatedAt": "2026-06-12T20:05:27.923Z"
    },
    {
      "id": 9285884662,
      "name": "5.3K",
      "facilityType": "visitor_center",
      "facilityLabel": "🛎 旅客中心",
      "lat": 22.9121626,
      "lng": 120.5184824,
      "source": "OpenStreetMap",
      "updatedAt": "2026-06-12T20:05:27.924Z"
    },
    {
      "id": 9285887354,
      "name": "5.5K",
      "facilityType": "visitor_center",
      "facilityLabel": "🛎 旅客中心",
      "lat": 22.9114093,
      "lng": 120.5194859,
      "source": "OpenStreetMap",
      "updatedAt": "2026-06-12T20:05:27.924Z"
    },
    {
      "id": 9285887536,
      "name": "5.9K",
      "facilityType": "visitor_center",
      "facilityLabel": "🛎 旅客中心",
      "lat": 22.9093138,
      "lng": 120.5198448,
      "source": "OpenStreetMap",
      "updatedAt": "2026-06-12T20:05:27.925Z"
    },
    {
      "id": 9938306030,
      "name": "石砦瀑布",
      "facilityType": "tourist_attraction",
      "facilityLabel": "🧭 旅遊景點",
      "lat": 22.9513367,
      "lng": 120.6161676,
      "source": "OpenStreetMap",
      "updatedAt": "2026-06-12T20:05:27.925Z"
    },
    {
      "id": 10038549545,
      "name": "石門",
      "facilityType": "tourist_attraction",
      "facilityLabel": "🧭 旅遊景點",
      "lat": 22.9563577,
      "lng": 120.6088524,
      "source": "OpenStreetMap",
      "updatedAt": "2026-06-12T20:05:27.926Z"
    },
    {
      "id": 10066609609,
      "name": "觀景平台",
      "facilityType": "tourist_attraction",
      "facilityLabel": "🧭 旅遊景點",
      "lat": 22.8878322,
      "lng": 120.5818897,
      "source": "OpenStreetMap",
      "updatedAt": "2026-06-12T20:05:27.926Z"
    },
    {
      "id": 10205832059,
      "name": "雷打石",
      "facilityType": "tourist_attraction",
      "facilityLabel": "🧭 旅遊景點",
      "lat": 22.9219775,
      "lng": 120.5334194,
      "source": "OpenStreetMap",
      "updatedAt": "2026-06-12T20:05:27.927Z"
    },
    {
      "id": 10228656095,
      "name": "靈山步道",
      "facilityType": "visitor_center",
      "facilityLabel": "🛎 旅客中心",
      "lat": 22.9092848,
      "lng": 120.519891,
      "source": "OpenStreetMap",
      "updatedAt": "2026-06-12T20:05:27.927Z"
    },
    {
      "id": 10228720242,
      "name": "指示牌 (↓步道終點0.16K,登山口1.1K↑)",
      "facilityType": "visitor_center",
      "facilityLabel": "🛎 旅客中心",
      "lat": 22.9109995,
      "lng": 120.5163887,
      "source": "OpenStreetMap",
      "updatedAt": "2026-06-12T20:05:27.928Z"
    },
    {
      "id": 10228807930,
      "name": "指示牌 (終點,登山口1.26K↑)",
      "facilityType": "visitor_center",
      "facilityLabel": "🛎 旅客中心",
      "lat": 22.9092147,
      "lng": 120.5146925,
      "source": "OpenStreetMap",
      "updatedAt": "2026-06-12T20:05:27.928Z"
    },
    {
      "id": 10228807934,
      "name": "展望",
      "facilityType": "tourist_attraction",
      "facilityLabel": "🧭 旅遊景點",
      "lat": 22.9091974,
      "lng": 120.5146076,
      "source": "OpenStreetMap",
      "updatedAt": "2026-06-12T20:05:27.929Z"
    },
    {
      "id": 10264021151,
      "name": "廣善堂",
      "facilityType": "visitor_center",
      "facilityLabel": "🛎 旅客中心",
      "lat": 22.9078238,
      "lng": 120.5299383,
      "source": "OpenStreetMap",
      "updatedAt": "2026-06-12T20:05:27.929Z"
    },
    {
      "id": 10584036888,
      "name": "克孝危稜",
      "facilityType": "tourist_attraction",
      "facilityLabel": "🧭 旅遊景點",
      "lat": 22.9216496,
      "lng": 120.5359075,
      "source": "OpenStreetMap",
      "updatedAt": "2026-06-12T20:05:27.930Z"
    },
    {
      "id": 10725839245,
      "name": "羌仔寮瀑布",
      "facilityType": "tourist_attraction",
      "facilityLabel": "🧭 旅遊景點",
      "lat": 22.9312239,
      "lng": 120.560947,
      "source": "OpenStreetMap",
      "updatedAt": "2026-06-12T20:05:27.930Z"
    },
    {
      "id": 10767840627,
      "name": "往月光山三角點",
      "facilityType": "visitor_center",
      "facilityLabel": "🛎 旅客中心",
      "lat": 22.9285,
      "lng": 120.5377,
      "source": "OpenStreetMap",
      "updatedAt": "2026-06-12T20:05:27.931Z"
    },
    {
      "id": 13426070701,
      "name": "藤根危崖",
      "facilityType": "tourist_attraction",
      "facilityLabel": "🧭 旅遊景點",
      "lat": 22.9036373,
      "lng": 120.508527,
      "source": "OpenStreetMap",
      "updatedAt": "2026-06-12T20:05:27.931Z"
    },
    {
      "id": 199025528,
      "name": "美濃窯",
      "facilityType": "tourist_attraction",
      "facilityLabel": "🧭 旅遊景點",
      "lat": 22.9052528,
      "lng": 120.5227809,
      "source": "OpenStreetMap",
      "updatedAt": "2026-06-12T20:05:27.932Z"
    },
    {
      "id": 335195679,
      "name": "美濃客家文物館",
      "facilityType": "culture",
      "facilityLabel": "🎨 藝文場館",
      "lat": 22.9112182,
      "lng": 120.5574319,
      "source": "OpenStreetMap",
      "updatedAt": "2026-06-12T20:05:27.932Z"
    },
    {
      "id": 551541858,
      "name": "鍾理和紀念館",
      "facilityType": "culture",
      "facilityLabel": "🎨 藝文場館",
      "lat": 22.9332039,
      "lng": 120.5861283,
      "source": "OpenStreetMap",
      "updatedAt": "2026-06-12T20:05:27.933Z",
      "address": "843高雄市美濃區52巷95號"
    },
    {
      "id": 629147636,
      "name": "美濃民俗村",
      "facilityType": "tourist_attraction",
      "facilityLabel": "🧭 旅遊景點",
      "lat": 22.8926231,
      "lng": 120.5142723,
      "source": "OpenStreetMap",
      "updatedAt": "2026-06-12T20:05:27.933Z"
    },
    {
      "id": 629147669,
      "name": "原鄉緣",
      "facilityType": "tourist_attraction",
      "facilityLabel": "🧭 旅遊景點",
      "lat": 22.8825397,
      "lng": 120.5474128,
      "source": "OpenStreetMap",
      "updatedAt": "2026-06-12T20:05:27.934Z",
      "address": "高雄市美濃區中興路一段147號"
    },
    {
      "id": 1099874887,
      "name": "生態館",
      "facilityType": "eco_center",
      "facilityLabel": "🌱 生態館",
      "lat": 22.8861221,
      "lng": 120.5809683,
      "source": "OpenStreetMap",
      "updatedAt": "2026-06-12T20:05:27.934Z"
    },
    {
      "id": 7011017,
      "name": "十八羅漢山自然保護區",
      "facilityType": "spot",
      "facilityLabel": "📍 親子景點",
      "lat": 22.9428721,
      "lng": 120.6329037,
      "source": "OpenStreetMap",
      "updatedAt": "2026-06-12T20:05:27.935Z"
    }
  ]
}
