{"city":"台中市","category":"medical","updatedAt":"2026-06-10T15:41:05.166Z","rev":1,"count":1957,"items":[{"id":2802811885,"name":"建國牙醫診所","lat":24.138211,"lng":120.6853877,"address":"臺中市中區建國路161號","hasBabyChanging":false,"hasAccessible":false,"source":"OpenStreetMap","updatedAt":"2026-06-10T15:41:05.166Z","facilityType":"dentist","facilityLabel":"🦷 牙醫","phone":"+886-4-2226-3583","website":null,"wheelchair":false,"needsAddr":false},{"id":4526643035,"name":"藥局","lat":24.1391879,"lng":120.6830626,"address":null,"hasBabyChanging":false,"hasAccessible":false,"source":"OpenStreetMap","updatedAt":"2026-06-10T15:41:05.166Z","facilityType":"pharmacy","facilityLabel":"💊 藥局","phone":null,"website":null,"wheelchair":false,"needsAddr":true},{"id":4526672495,"name":"藥局","lat":24.1413057,"lng":120.6810553,"address":null,"hasBabyChanging":false,"hasAccessible":false,"source":"OpenStreetMap","updatedAt":"2026-06-10T15:41:05.166Z","facilityType":"pharmacy","facilityLabel":"💊 藥局","phone":null,"website":null,"wheelchair":false,"needsAddr":true},{"id":4655486632,"name":"許金吉婦產科診所","lat":24.1407984,"lng":120.6844121,"address":"台中市中區繼光里繼光街155號","hasBabyChanging":false,"hasAccessible":false,"source":"OpenStreetMap","updatedAt":"2026-06-10T15:41:05.166Z","facilityType":"clinic","facilityLabel":"🩺 診所","phone":null,"website":null,"wheelchair":false,"needsAddr":false},{"id":4655515630,"name":"屈臣氏","lat":24.1389342,"lng":120.6827017,"address":"40046臺中市中區繼光街88、90號","hasBabyChanging":false,"hasAccessible":false,"source":"OpenStreetMap","updatedAt":"2026-06-10T15:41:05.166Z","facilityType":"pharmacy","facilityLabel":"💊 藥妝","phone":"+886 4 2223 9369","website":"https://www.watsons.com.tw/","wheelchair":false,"needsAddr":false},{"id":5052636322,"name":"德記中醫診所","lat":24.1386991,"lng":120.6842717,"address":"400臺中市中區綠川東街64號","hasBabyChanging":false,"hasAccessible":false,"source":"OpenStreetMap","updatedAt":"2026-06-10T15:41:05.166Z","facilityType":"clinic","facilityLabel":"🩺 診所","phone":"+886 4 2223 3131","website":"https://sites.google.com/site/dejitcm/","wheelchair":false,"needsAddr":false},{"id":6131828189,"name":"迪化中藥行","lat":24.1385611,"lng":120.6855785,"address":null,"hasBabyChanging":false,"hasAccessible":false,"source":"OpenStreetMap","updatedAt":"2026-06-10T15:41:05.166Z","facilityType":"pharmacy","facilityLabel":"💊 藥局","phone":null,"website":null,"wheelchair":false,"needsAddr":true},{"id":6131837279,"name":"宏信大藥局","lat":24.1395191,"lng":120.6814212,"address":null,"hasBabyChanging":false,"hasAccessible":false,"source":"OpenStreetMap","updatedAt":"2026-06-10T15:41:05.166Z","facilityType":"pharmacy","facilityLabel":"💊 藥局","phone":null,"website":null,"wheelchair":false,"needsAddr":true},{"id":6457014685,"name":"屈臣氏","lat":24.1381653,"lng":120.6841538,"address":null,"hasBabyChanging":false,"hasAccessible":false,"source":"OpenStreetMap","updatedAt":"2026-06-10T15:41:05.166Z","facilityType":"pharmacy","facilityLabel":"💊 藥妝","phone":null,"website":null,"wheelchair":false,"needsAddr":true},{"id":6754971602,"name":"陳婦產科","lat":24.1433229,"lng":120.6806825,"address":null,"hasBabyChanging":false,"hasAccessible":false,"source":"OpenStreetMap","updatedAt":"2026-06-10T15:41:05.166Z","facilityType":"clinic","facilityLabel":"🩺 診所","phone":null,"website":null,"wheelchair":false,"needsAddr":true},{"id":6761562540,"name":"仁心堂中醫","lat":24.1424537,"lng":120.6848338,"address":null,"hasBabyChanging":false,"hasAccessible":false,"source":"OpenStreetMap","updatedAt":"2026-06-10T15:41:05.166Z","facilityType":"clinic","facilityLabel":"🩺 診所","phone":null,"website":null,"wheelchair":false,"needsAddr":true},{"id":8064226013,"name":"第一化妝品","lat":24.1421461,"lng":120.6796566,"address":null,"hasBabyChanging":false,"hasAccessible":false,"source":"OpenStreetMap","updatedAt":"2026-06-10T15:41:05.166Z","facilityType":"pharmacy","facilityLabel":"💊 藥局","phone":null,"website":null,"wheelchair":false,"needsAddr":true},{"id":8064226016,"name":"日安藥局","lat":24.1420953,"lng":120.6800676,"address":null,"hasBabyChanging":false,"hasAccessible":false,"source":"OpenStreetMap","updatedAt":"2026-06-10T15:41:05.166Z","facilityType":"pharmacy","facilityLabel":"💊 藥局","phone":null,"website":null,"wheelchair":false,"needsAddr":true},{"id":8068921074,"name":"富春中醫診所","lat":24.1451309,"lng":120.6762367,"address":null,"hasBabyChanging":false,"hasAccessible":false,"source":"OpenStreetMap","updatedAt":"2026-06-10T15:41:05.166Z","facilityType":"clinic","facilityLabel":"🩺 診所","phone":null,"website":null,"wheelchair":false,"needsAddr":true},{"id":8068921075,"name":"佑全讚中醫診所","lat":24.1453756,"lng":120.6764004,"address":null,"hasBabyChanging":false,"hasAccessible":false,"source":"OpenStreetMap","updatedAt":"2026-06-10T15:41:05.166Z","facilityType":"clinic","facilityLabel":"🩺 診所","phone":null,"website":null,"wheelchair":false,"needsAddr":true},{"id":8069100890,"name":"正新診所","lat":24.1442547,"lng":120.6755689,"address":null,"hasBabyChanging":false,"hasAccessible":false,"source":"OpenStreetMap","updatedAt":"2026-06-10T15:41:05.166Z","facilityType":"clinic","facilityLabel":"🩺 診所","phone":null,"website":null,"wheelchair":false,"needsAddr":true},{"id":8069100902,"name":"鄧博士藥局","lat":24.144284,"lng":120.6756165,"address":null,"hasBabyChanging":false,"hasAccessible":false,"source":"OpenStreetMap","updatedAt":"2026-06-10T15:41:05.166Z","facilityType":"pharmacy","facilityLabel":"💊 藥局","phone":null,"website":null,"wheelchair":false,"needsAddr":true},{"id":8069100932,"name":"新三吉藥行","lat":24.1446842,"lng":120.6763883,"address":null,"hasBabyChanging":false,"hasAccessible":false,"source":"OpenStreetMap","updatedAt":"2026-06-10T15:41:05.166Z","facilityType":"pharmacy","facilityLabel":"💊 藥局","phone":null,"website":null,"wheelchair":false,"needsAddr":true},{"id":8078311905,"name":"江啟鋒診所","lat":24.1436073,"lng":120.6805806,"address":null,"hasBabyChanging":false,"hasAccessible":false,"source":"OpenStreetMap","updatedAt":"2026-06-10T15:41:05.166Z","facilityType":"clinic","facilityLabel":"🩺 診所","phone":null,"website":null,"wheelchair":false,"needsAddr":true},{"id":8095200081,"name":"小林健保藥局","lat":24.1414118,"lng":120.6856399,"address":null,"hasBabyChanging":false,"hasAccessible":false,"source":"OpenStreetMap","updatedAt":"2026-06-10T15:41:05.166Z","facilityType":"pharmacy","facilityLabel":"💊 藥局","phone":null,"website":null,"wheelchair":false,"needsAddr":true},{"id":11262071239,"name":"寶雅","lat":24.1409663,"lng":120.6814577,"address":"臺中市中區公園里22鄰臺灣大道一段238號","hasBabyChanging":false,"hasAccessible":false,"source":"OpenStreetMap","updatedAt":"2026-06-10T15:41:05.166Z","facilityType":"pharmacy","facilityLabel":"💊 藥局","phone":null,"website":null,"wheelchair":false,"needsAddr":false},{"id":262848548,"name":"澄清醫院平等院區","lat":24.1427895,"lng":120.6816596,"address":"40045臺中市中區平等街139號","hasBabyChanging":false,"hasAccessible":false,"source":"OpenStreetMap","updatedAt":"2026-06-10T15:41:05.166Z","facilityType":"hospital","facilityLabel":"🏥 醫院","phone":"+886-4-2463-2000","website":"http://www.ccgh.com.tw/PT2/html/home.aspx","wheelchair":false,"needsAddr":false},{"id":375907303,"name":"宇田婦產科","lat":24.1372417,"lng":120.6839358,"address":"40042臺中市中區中山路5號","hasBabyChanging":false,"hasAccessible":false,"source":"OpenStreetMap","updatedAt":"2026-06-10T15:41:05.166Z","facilityType":"clinic","facilityLabel":"🩺 診所","phone":null,"website":null,"wheelchair":false,"needsAddr":false},{"id":654380973,"name":"康是美","lat":24.1379699,"lng":120.6848456,"address":null,"hasBabyChanging":false,"hasAccessible":false,"source":"OpenStreetMap","updatedAt":"2026-06-10T15:41:05.166Z","facilityType":"pharmacy","facilityLabel":"💊 藥妝","phone":null,"website":null,"wheelchair":false,"needsAddr":true},{"id":3514195340,"name":"福仁藥局","lat":24.1443381,"lng":120.6899069,"address":null,"hasBabyChanging":false,"hasAccessible":false,"source":"OpenStreetMap","updatedAt":"2026-06-10T15:41:05.166Z","facilityType":"pharmacy","facilityLabel":"💊 藥局","phone":null,"website":null,"wheelchair":false,"needsAddr":true},{"id":4394872051,"name":"明功堂診所","lat":24.1424891,"lng":120.6935939,"address":null,"hasBabyChanging":false,"hasAccessible":false,"source":"OpenStreetMap","updatedAt":"2026-06-10T15:41:05.166Z","facilityType":"clinic","facilityLabel":"🩺 診所","phone":null,"website":null,"wheelchair":false,"needsAddr":true},{"id":4409948519,"name":"寶雅","lat":24.1493049,"lng":120.7086657,"address":null,"hasBabyChanging":false,"hasAccessible":false,"source":"OpenStreetMap","updatedAt":"2026-06-10T15:41:05.166Z","facilityType":"pharmacy","facilityLabel":"💊 藥局","phone":null,"website":null,"wheelchair":false,"needsAddr":true},{"id":4409948521,"name":"屈臣氏","lat":24.1494644,"lng":120.7094645,"address":null,"hasBabyChanging":false,"hasAccessible":false,"source":"OpenStreetMap","updatedAt":"2026-06-10T15:41:05.166Z","facilityType":"pharmacy","facilityLabel":"💊 藥妝","phone":null,"website":null,"wheelchair":false,"needsAddr":true},{"id":4409948532,"name":"晶亮牙醫診所","lat":24.1491612,"lng":120.7081303,"address":null,"hasBabyChanging":false,"hasAccessible":false,"source":"OpenStreetMap","updatedAt":"2026-06-10T15:41:05.166Z","facilityType":"dentist","facilityLabel":"🦷 牙醫","phone":null,"website":null,"wheelchair":false,"needsAddr":true},{"id":4409948534,"name":"正恩牙醫","lat":24.1492898,"lng":120.7100141,"address":null,"hasBabyChanging":false,"hasAccessible":false,"source":"OpenStreetMap","updatedAt":"2026-06-10T15:41:05.166Z","facilityType":"dentist","facilityLabel":"🦷 牙醫","phone":null,"website":null,"wheelchair":false,"needsAddr":true},{"id":4409948540,"name":"福倫健保藥局","lat":24.1493049,"lng":120.7100815,"address":null,"hasBabyChanging":false,"hasAccessible":false,"source":"OpenStreetMap","updatedAt":"2026-06-10T15:41:05.166Z","facilityType":"dentist","facilityLabel":"🦷 牙醫","phone":null,"website":null,"wheelchair":false,"needsAddr":true},{"id":4557408286,"name":"Dr. Wells","lat":24.1313021,"lng":120.690492,"address":null,"hasBabyChanging":false,"hasAccessible":false,"source":"OpenStreetMap","updatedAt":"2026-06-10T15:41:05.166Z","facilityType":"dentist","facilityLabel":"🦷 牙醫","phone":null,"website":null,"wheelchair":false,"needsAddr":true},{"id":4695874019,"name":"Lou","lat":24.1262999,"lng":120.6904217,"address":null,"hasBabyChanging":false,"hasAccessible":false,"source":"OpenStreetMap","updatedAt":"2026-06-10T15:41:05.166Z","facilityType":"pharmacy","facilityLabel":"💊 藥局","phone":null,"website":null,"wheelchair":false,"needsAddr":true},{"id":4710328424,"name":"台新醫院","lat":24.1303984,"lng":120.7054389,"address":null,"hasBabyChanging":false,"hasAccessible":false,"source":"OpenStreetMap","updatedAt":"2026-06-10T15:41:05.166Z","facilityType":"hospital","facilityLabel":"🏥 醫院","phone":null,"website":null,"wheelchair":false,"needsAddr":true},{"id":5385086261,"name":"大智診所皮膚科","lat":24.1355923,"lng":120.6884783,"address":null,"hasBabyChanging":false,"hasAccessible":false,"source":"OpenStreetMap","updatedAt":"2026-06-10T15:41:05.166Z","facilityType":"clinic","facilityLabel":"🩺 診所","phone":null,"website":null,"wheelchair":false,"needsAddr":true},{"id":5419846504,"name":"信通蔘藥行","lat":24.1423168,"lng":120.6944315,"address":null,"hasBabyChanging":false,"hasAccessible":false,"source":"OpenStreetMap","updatedAt":"2026-06-10T15:41:05.166Z","facilityType":"pharmacy","facilityLabel":"💊 藥局","phone":null,"website":null,"wheelchair":false,"needsAddr":true},{"id":5502544246,"name":"骨力診所","lat":24.1407266,"lng":120.7021763,"address":"40153臺中市東區一心街403號3樓","hasBabyChanging":false,"hasAccessible":false,"source":"OpenStreetMap","updatedAt":"2026-06-10T15:41:05.166Z","facilityType":"clinic","facilityLabel":"🩺 診所","phone":null,"website":null,"wheelchair":false,"needsAddr":false},{"id":5502544259,"name":"微風牙醫診所","lat":24.1387692,"lng":120.7020113,"address":"40153臺中市東區樂業路280號","hasBabyChanging":false,"hasAccessible":false,"source":"OpenStreetMap","updatedAt":"2026-06-10T15:41:05.166Z","facilityType":"dentist","facilityLabel":"🦷 牙醫","phone":"+886-4-2211-1999","website":null,"wheelchair":false,"needsAddr":false},{"id":6194654289,"name":"富台診所","lat":24.1445367,"lng":120.6908337,"address":null,"hasBabyChanging":false,"hasAccessible":false,"source":"OpenStreetMap","updatedAt":"2026-06-10T15:41:05.166Z","facilityType":"clinic","facilityLabel":"🩺 診所","phone":null,"website":null,"wheelchair":false,"needsAddr":true},{"id":6761645284,"name":"慶美牙醫診所","lat":24.1476156,"lng":120.6922119,"address":null,"hasBabyChanging":false,"hasAccessible":false,"source":"OpenStreetMap","updatedAt":"2026-06-10T15:41:05.166Z","facilityType":"dentist","facilityLabel":"🦷 牙醫","phone":null,"website":null,"wheelchair":false,"needsAddr":true},{"id":7362239785,"name":"藥局","lat":24.1426835,"lng":120.6997578,"address":null,"hasBabyChanging":false,"hasAccessible":false,"source":"OpenStreetMap","updatedAt":"2026-06-10T15:41:05.166Z","facilityType":"pharmacy","facilityLabel":"💊 藥局","phone":null,"website":null,"wheelchair":false,"needsAddr":true},{"id":8063071182,"name":"慎安堂中醫診所","lat":24.1341213,"lng":120.6832816,"address":null,"hasBabyChanging":false,"hasAccessible":false,"source":"OpenStreetMap","updatedAt":"2026-06-10T15:41:05.166Z","facilityType":"clinic","facilityLabel":"🩺 診所","phone":null,"website":null,"wheelchair":false,"needsAddr":true},{"id":8063071183,"name":"懷恩診所","lat":24.1339322,"lng":120.6833674,"address":null,"hasBabyChanging":false,"hasAccessible":false,"source":"OpenStreetMap","updatedAt":"2026-06-10T15:41:05.166Z","facilityType":"clinic","facilityLabel":"🩺 診所","phone":null,"website":null,"wheelchair":false,"needsAddr":true},{"id":8063093886,"name":"裕民診所","lat":24.1337995,"lng":120.6834425,"address":null,"hasBabyChanging":false,"hasAccessible":false,"source":"OpenStreetMap","updatedAt":"2026-06-10T15:41:05.166Z","facilityType":"clinic","facilityLabel":"🩺 診所","phone":null,"website":null,"wheelchair":false,"needsAddr":true},{"id":8084989367,"name":"大和藥局","lat":24.1345069,"lng":120.6890128,"address":null,"hasBabyChanging":false,"hasAccessible":false,"source":"OpenStreetMap","updatedAt":"2026-06-10T15:41:05.166Z","facilityType":"pharmacy","facilityLabel":"💊 藥局","phone":null,"website":null,"wheelchair":false,"needsAddr":true},{"id":10847802245,"name":"診所","lat":24.1374424,"lng":120.6972462,"address":null,"hasBabyChanging":false,"hasAccessible":false,"source":"OpenStreetMap","updatedAt":"2026-06-10T15:41:05.166Z","facilityType":"clinic","facilityLabel":"🩺 診所","phone":null,"website":null,"wheelchair":false,"needsAddr":true},{"id":11511164601,"name":"林士新婦產科","lat":24.1363786,"lng":120.6871951,"address":"臺中市東區復興路四段207號","hasBabyChanging":false,"hasAccessible":false,"source":"OpenStreetMap","updatedAt":"2026-06-10T15:41:05.166Z","facilityType":"clinic","facilityLabel":"🩺 診所","phone":"+886 4 2223 8148","website":null,"wheelchair":false,"needsAddr":false},{"id":12825484357,"name":"一心中醫診所","lat":24.140898,"lng":120.7025072,"address":"臺中市東區十甲里14鄰一心街406號","hasBabyChanging":false,"hasAccessible":false,"source":"OpenStreetMap","updatedAt":"2026-06-10T15:41:05.166Z","facilityType":"clinic","facilityLabel":"🩺 診所","phone":null,"website":null,"wheelchair":false,"needsAddr":false},{"id":361758009,"name":"臺安醫院","lat":24.1489173,"lng":120.6940668,"address":"台中市東區進化路203號","hasBabyChanging":false,"hasAccessible":false,"source":"OpenStreetMap","updatedAt":"2026-06-10T15:41:05.166Z","facilityType":"hospital","facilityLabel":"🏥 醫院","phone":"+886-4-23602000","website":null,"wheelchair":false,"needsAddr":false},{"id":1132778833,"name":"松本清","lat":24.1339659,"lng":120.6923415,"address":null,"hasBabyChanging":false,"hasAccessible":false,"source":"OpenStreetMap","updatedAt":"2026-06-10T15:41:05.166Z","facilityType":"pharmacy","facilityLabel":"💊 藥局","phone":null,"website":null,"wheelchair":false,"needsAddr":true},{"id":3622857564,"name":"屈臣氏","lat":24.1246562,"lng":120.6749556,"address":null,"hasBabyChanging":false,"hasAccessible":false,"source":"OpenStreetMap","updatedAt":"2026-06-10T15:41:05.166Z","facilityType":"pharmacy","facilityLabel":"💊 藥妝","phone":null,"website":null,"wheelchair":false,"needsAddr":true},{"id":3622930616,"name":"唯真中醫","lat":24.1249835,"lng":120.6764635,"address":"臺中市南區復新街86號","hasBabyChanging":false,"hasAccessible":false,"source":"OpenStreetMap","updatedAt":"2026-06-10T15:41:05.166Z","facilityType":"clinic","facilityLabel":"🩺 診所","phone":"+886 4 2285-3387","website":null,"wheelchair":false,"needsAddr":false},{"id":4526337633,"name":"Yi-Kang","lat":24.1261688,"lng":120.6791748,"address":null,"hasBabyChanging":false,"hasAccessible":false,"source":"OpenStreetMap","updatedAt":"2026-06-10T15:41:05.166Z","facilityType":"dentist","facilityLabel":"🦷 牙醫","phone":"+88622852908","website":null,"wheelchair":false,"needsAddr":true},{"id":4526590162,"name":"Pan Pan","lat":24.1311351,"lng":120.6767296,"address":null,"hasBabyChanging":false,"hasAccessible":false,"source":"OpenStreetMap","updatedAt":"2026-06-10T15:41:05.166Z","facilityType":"vet","facilityLabel":"🐾 動物醫院","phone":null,"website":null,"wheelchair":false,"needsAddr":true},{"id":4558074821,"name":"Guang Liang","lat":24.1345622,"lng":120.6827456,"address":null,"hasBabyChanging":false,"hasAccessible":false,"source":"OpenStreetMap","updatedAt":"2026-06-10T15:41:05.166Z","facilityType":"dentist","facilityLabel":"🦷 牙醫","phone":"+88642229373","website":null,"wheelchair":false,"needsAddr":true},{"id":4610050753,"name":"千美台安藥局","lat":24.1142538,"lng":120.6665888,"address":"402018臺中市南區美村南路263號","hasBabyChanging":false,"hasAccessible":false,"source":"OpenStreetMap","updatedAt":"2026-06-10T15:41:05.166Z","facilityType":"pharmacy","facilityLabel":"💊 藥局","phone":"+886 4 2260 2101","website":null,"wheelchair":false,"needsAddr":false},{"id":4612000537,"name":"寶雅","lat":24.11651,"lng":120.6672947,"address":null,"hasBabyChanging":false,"hasAccessible":false,"source":"OpenStreetMap","updatedAt":"2026-06-10T15:41:05.166Z","facilityType":"pharmacy","facilityLabel":"💊 藥局","phone":null,"website":null,"wheelchair":false,"needsAddr":true},{"id":4612000539,"name":"屈臣氏","lat":24.1161809,"lng":120.6669677,"address":null,"hasBabyChanging":false,"hasAccessible":false,"source":"OpenStreetMap","updatedAt":"2026-06-10T15:41:05.166Z","facilityType":"pharmacy","facilityLabel":"💊 藥妝","phone":null,"website":null,"wheelchair":false,"needsAddr":true},{"id":4612014639,"name":"小林健保藥局","lat":24.1254872,"lng":120.6630513,"address":"402015臺中市南區美村路二段182號","hasBabyChanging":false,"hasAccessible":false,"source":"OpenStreetMap","updatedAt":"2026-06-10T15:41:05.166Z","facilityType":"pharmacy","facilityLabel":"💊 藥局","phone":"+886 4 2262 2099","website":null,"wheelchair":false,"needsAddr":false},{"id":4692248381,"name":"牙醫診所","lat":24.1312582,"lng":120.6843288,"address":null,"hasBabyChanging":false,"hasAccessible":false,"source":"OpenStreetMap","updatedAt":"2026-06-10T15:41:05.166Z","facilityType":"dentist","facilityLabel":"🦷 牙醫","phone":null,"website":null,"wheelchair":false,"needsAddr":true},{"id":4693526715,"name":"動物醫院","lat":24.1138751,"lng":120.6649332,"address":null,"hasBabyChanging":false,"hasAccessible":false,"source":"OpenStreetMap","updatedAt":"2026-06-10T15:41:05.166Z","facilityType":"vet","facilityLabel":"🐾 動物醫院","phone":null,"website":null,"wheelchair":false,"needsAddr":true},{"id":5084206131,"name":"崇倫中醫診所","lat":24.1298413,"lng":120.6582443,"address":"402027臺中市南區三民西路287號1樓","hasBabyChanging":false,"hasAccessible":false,"source":"OpenStreetMap","updatedAt":"2026-06-10T15:41:05.166Z","facilityType":"clinic","facilityLabel":"🩺 診所","phone":"+886 4 2372 8513","website":"https://www.facebook.com/tcmdryu/","wheelchair":false,"needsAddr":false},{"id":6083294735,"name":"屈臣氏","lat":24.1340219,"lng":120.6830196,"address":null,"hasBabyChanging":false,"hasAccessible":false,"source":"OpenStreetMap","updatedAt":"2026-06-10T15:41:05.166Z","facilityType":"pharmacy","facilityLabel":"💊 藥妝","phone":null,"website":null,"wheelchair":false,"needsAddr":true},{"id":7469327257,"name":"弘大美妝藥局","lat":24.1221925,"lng":120.6798834,"address":"402006臺中市南區南門路115號1樓","hasBabyChanging":false,"hasAccessible":false,"source":"OpenStreetMap","updatedAt":"2026-06-10T15:41:05.166Z","facilityType":"pharmacy","facilityLabel":"💊 藥局","phone":"+886 4 2285 9180","website":null,"wheelchair":false,"needsAddr":false},{"id":8063071146,"name":"裕芳蔘藥行","lat":24.1335608,"lng":120.6832306,"address":null,"hasBabyChanging":false,"hasAccessible":false,"source":"OpenStreetMap","updatedAt":"2026-06-10T15:41:05.166Z","facilityType":"pharmacy","facilityLabel":"💊 藥局","phone":null,"website":null,"wheelchair":false,"needsAddr":true},{"id":10117911596,"name":"永安中醫","lat":24.1137654,"lng":120.6642714,"address":"臺中市南區永興里31鄰高工路261號","hasBabyChanging":false,"hasAccessible":false,"source":"OpenStreetMap","updatedAt":"2026-06-10T15:41:05.166Z","facilityType":"clinic","facilityLabel":"🩺 診所","phone":null,"website":null,"wheelchair":false,"needsAddr":false},{"id":11293457414,"name":"立成藥局","lat":24.1288947,"lng":120.6739016,"address":"402207臺中市南區學府路143號","hasBabyChanging":false,"hasAccessible":false,"source":"OpenStreetMap","updatedAt":"2026-06-10T15:41:05.166Z","facilityType":"pharmacy","facilityLabel":"💊 藥局","phone":"+886 4 2220 5915","website":null,"wheelchair":false,"needsAddr":false},{"id":12300322755,"name":"康乃文診所","lat":24.1303008,"lng":120.661108,"address":"402027臺中市南區三民西路232號","hasBabyChanging":false,"hasAccessible":false,"source":"OpenStreetMap","updatedAt":"2026-06-10T15:41:05.166Z","facilityType":"clinic","facilityLabel":"🩺 診所","phone":"+886 4 2375 6986","website":null,"wheelchair":false,"needsAddr":false},{"id":12300322756,"name":"俞悅誠氣中醫診所","lat":24.1296069,"lng":120.6564682,"address":"402304臺中市南區三民西路341號1樓","hasBabyChanging":false,"hasAccessible":false,"source":"OpenStreetMap","updatedAt":"2026-06-10T15:41:05.166Z","facilityType":"clinic","facilityLabel":"🩺 診所","phone":"+886 4 2378 2500","website":null,"wheelchair":false,"needsAddr":false},{"id":12300322757,"name":"康健中醫診所","lat":24.1330759,"lng":120.6570112,"address":"402005臺中市南區忠明南路482號1樓","hasBabyChanging":false,"hasAccessible":false,"source":"OpenStreetMap","updatedAt":"2026-06-10T15:41:05.166Z","facilityType":"clinic","facilityLabel":"🩺 診所","phone":"+886 4 2378 6008","website":null,"wheelchair":false,"needsAddr":false},{"id":12300322758,"name":"上和藥局","lat":24.1307156,"lng":120.657113,"address":"402005臺中市南區忠明南路582之1號1樓","hasBabyChanging":false,"hasAccessible":false,"source":"OpenStreetMap","updatedAt":"2026-06-10T15:41:05.166Z","facilityType":"pharmacy","facilityLabel":"💊 藥局","phone":"+886 4 2378 0198","website":null,"wheelchair":false,"needsAddr":false},{"id":12300322759,"name":"義興配藥局","lat":24.1291163,"lng":120.6574916,"address":"402005臺中市南區忠明南路628號","hasBabyChanging":false,"hasAccessible":false,"source":"OpenStreetMap","updatedAt":"2026-06-10T15:41:05.166Z","facilityType":"pharmacy","facilityLabel":"💊 藥局","phone":"+886 4 2375 1551","website":null,"wheelchair":false,"needsAddr":false},{"id":12300322760,"name":"聖林牙醫診所","lat":24.1287153,"lng":120.6582674,"address":"402005臺中市南區忠明南路703號","hasBabyChanging":false,"hasAccessible":false,"source":"OpenStreetMap","updatedAt":"2026-06-10T15:41:05.166Z","facilityType":"dentist","facilityLabel":"🦷 牙醫","phone":"+886 4 2372 0066","website":null,"wheelchair":false,"needsAddr":false},{"id":12300322761,"name":"民安診所","lat":24.123509,"lng":120.6608867,"address":"402253臺中市南區忠明南路787號2樓","hasBabyChanging":false,"hasAccessible":false,"source":"OpenStreetMap","updatedAt":"2026-06-10T15:41:05.166Z","facilityType":"clinic","facilityLabel":"🩺 診所","phone":"+886 4 2262 0722","website":null,"wheelchair":false,"needsAddr":false},{"id":12300322762,"name":"芯泉中醫診所","lat":24.1225154,"lng":120.6619286,"address":"402252臺中市南區忠明南路821之6號1樓","hasBabyChanging":false,"hasAccessible":false,"source":"OpenStreetMap","updatedAt":"2026-06-10T15:41:05.166Z","facilityType":"clinic","facilityLabel":"🩺 診所","phone":"+886 4 2265 5025","website":null,"wheelchair":false,"needsAddr":false},{"id":12300322763,"name":"好好藥局","lat":24.1223189,"lng":120.6604852,"address":"402020臺中市南區忠明南路786號","hasBabyChanging":false,"hasAccessible":false,"source":"OpenStreetMap","updatedAt":"2026-06-10T15:41:05.166Z","facilityType":"pharmacy","facilityLabel":"💊 藥局","phone":"+886 4 2261 2961","website":null,"wheelchair":false,"needsAddr":false},{"id":12300322764,"name":"東傑牙醫診所","lat":24.1184779,"lng":120.6669527,"address":"402015臺中市南區忠明南路1114號1、2樓","hasBabyChanging":false,"hasAccessible":false,"source":"OpenStreetMap","updatedAt":"2026-06-10T15:41:05.166Z","facilityType":"dentist","facilityLabel":"🦷 牙醫","phone":"+886 4 2376 8733","website":null,"wheelchair":false,"needsAddr":false},{"id":12300322765,"name":"佑嘉中醫診所","lat":24.1188676,"lng":120.6804567,"address":"402006臺中市南區忠明南路1222號1樓","hasBabyChanging":false,"hasAccessible":false,"source":"OpenStreetMap","updatedAt":"2026-06-10T15:41:05.166Z","facilityType":"clinic","facilityLabel":"🩺 診所","phone":"+886 4 2285 9988","website":null,"wheelchair":false,"needsAddr":false},{"id":12300322766,"name":"施牙醫診所","lat":24.1225159,"lng":120.6827645,"address":"402006臺中市南區南門路38號","hasBabyChanging":false,"hasAccessible":false,"source":"OpenStreetMap","updatedAt":"2026-06-10T15:41:05.166Z","facilityType":"dentist","facilityLabel":"🦷 牙醫","phone":"+886 4 2287 4131","website":null,"wheelchair":false,"needsAddr":false},{"id":12300322767,"name":"忠孝德侑健保藥局","lat":24.1291927,"lng":120.6806136,"address":"402001臺中市南區正義街159號","hasBabyChanging":false,"hasAccessible":false,"source":"OpenStreetMap","updatedAt":"2026-06-10T15:41:05.166Z","facilityType":"pharmacy","facilityLabel":"💊 藥局","phone":"+886 4 2285 1400","website":null,"wheelchair":false,"needsAddr":false},{"id":12300322768,"name":"龍生牙醫診所","lat":24.1298462,"lng":120.683396,"address":"402007臺中市南區忠孝路194巷17號","hasBabyChanging":false,"hasAccessible":false,"source":"OpenStreetMap","updatedAt":"2026-06-10T15:41:05.166Z","facilityType":"dentist","facilityLabel":"🦷 牙醫","phone":"+886 4 2287 9659","website":null,"wheelchair":false,"needsAddr":false},{"id":12300322769,"name":"新三愛牙醫診所","lat":24.1286899,"lng":120.6792809,"address":"402007臺中市南區忠孝路121號","hasBabyChanging":false,"hasAccessible":false,"source":"OpenStreetMap","updatedAt":"2026-06-10T15:41:05.166Z","facilityType":"dentist","facilityLabel":"🦷 牙醫","phone":"+886 4 2285 7085","website":null,"wheelchair":false,"needsAddr":false},{"id":12300322770,"name":"李宜瑞診所","lat":24.1283784,"lng":120.6786243,"address":"402007臺中市南區忠孝路101號","hasBabyChanging":false,"hasAccessible":false,"source":"OpenStreetMap","updatedAt":"2026-06-10T15:41:05.166Z","facilityType":"clinic","facilityLabel":"👶 小兒科","phone":"+886 4 2286 2716","website":null,"wheelchair":false,"needsAddr":false},{"id":12300322771,"name":"慧寧藥局","lat":24.1265882,"lng":120.675371,"address":"402007臺中市南區忠孝路2號","hasBabyChanging":false,"hasAccessible":false,"source":"OpenStreetMap","updatedAt":"2026-06-10T15:41:05.166Z","facilityType":"pharmacy","facilityLabel":"💊 藥局","phone":"+886 4 2285 1858","website":null,"wheelchair":false,"needsAddr":false},{"id":12300322772,"name":"家珊診所","lat":24.1270625,"lng":120.6754826,"address":"402007臺中市南區忠孝路5號1樓","hasBabyChanging":false,"hasAccessible":false,"source":"OpenStreetMap","updatedAt":"2026-06-10T15:41:05.166Z","facilityType":"clinic","facilityLabel":"🩺 診所","phone":"+886 4 2285 1533","website":null,"wheelchair":false,"needsAddr":false},{"id":12300322773,"name":"澄新牙醫診所","lat":24.1260162,"lng":120.6753098,"address":"402004臺中市南區學府路58號1樓、2樓及60號1樓","hasBabyChanging":false,"hasAccessible":false,"source":"OpenStreetMap","updatedAt":"2026-06-10T15:41:05.166Z","facilityType":"dentist","facilityLabel":"🦷 牙醫","phone":"+886 4 2285 9898","website":null,"wheelchair":false,"needsAddr":false},{"id":12300322774,"name":"佳宏牙醫診所","lat":24.1274094,"lng":120.675041,"address":"402006臺中市南區學府路88號1樓","hasBabyChanging":false,"hasAccessible":false,"source":"OpenStreetMap","updatedAt":"2026-06-10T15:41:05.166Z","facilityType":"dentist","facilityLabel":"🦷 牙醫","phone":"+886 4 2285 1688","website":null,"wheelchair":false,"needsAddr":false},{"id":12300322775,"name":"興大中醫診所","lat":24.1275806,"lng":120.6749492,"address":"402004臺中市南區學府路96號1樓","hasBabyChanging":false,"hasAccessible":false,"source":"OpenStreetMap","updatedAt":"2026-06-10T15:41:05.166Z","facilityType":"clinic","facilityLabel":"🩺 診所","phone":"+886 4 2287 8799","website":null,"wheelchair":false,"needsAddr":false},{"id":12300322776,"name":"田園藥局","lat":24.1289382,"lng":120.6742742,"address":"402205臺中市南區學府路150號1樓","hasBabyChanging":false,"hasAccessible":false,"source":"OpenStreetMap","updatedAt":"2026-06-10T15:41:05.166Z","facilityType":"pharmacy","facilityLabel":"💊 藥局","phone":"+886 4 2222 0605","website":null,"wheelchair":false,"needsAddr":false},{"id":12300322777,"name":"白耳鼻喉科診所","lat":24.1289619,"lng":120.6742671,"address":"402205臺中市南區學府路150號1樓(部分)、2樓及152號1樓","hasBabyChanging":false,"hasAccessible":false,"source":"OpenStreetMap","updatedAt":"2026-06-10T15:41:05.166Z","facilityType":"clinic","facilityLabel":"👂 耳鼻喉科","phone":"+886 4 2222 0600","website":null,"wheelchair":false,"needsAddr":false},{"id":12300322778,"name":"世禾牙醫診所","lat":24.1290633,"lng":120.6742115,"address":"402205臺中市南區學府路158號1、2樓","hasBabyChanging":false,"hasAccessible":false,"source":"OpenStreetMap","updatedAt":"2026-06-10T15:41:05.166Z","facilityType":"dentist","facilityLabel":"🦷 牙醫","phone":"+886 4 2220 3605","website":null,"wheelchair":false,"needsAddr":false},{"id":12300322779,"name":"學府藥局","lat":24.1298157,"lng":120.6738733,"address":"402004臺中市南區學府路180號","hasBabyChanging":false,"hasAccessible":false,"source":"OpenStreetMap","updatedAt":"2026-06-10T15:41:05.166Z","facilityType":"pharmacy","facilityLabel":"💊 藥局","phone":"+886 4 2218 7028","website":null,"wheelchair":false,"needsAddr":false},{"id":12300322780,"name":"永昇骨科診所","lat":24.1300265,"lng":120.6737368,"address":"402008臺中市南區學府路196號1、2樓及198號1、2樓","hasBabyChanging":false,"hasAccessible":false,"source":"OpenStreetMap","updatedAt":"2026-06-10T15:41:05.166Z","facilityType":"clinic","facilityLabel":"🩺 診所","phone":"+886 4 2223 0877","website":null,"wheelchair":false,"needsAddr":false},{"id":12300322781,"name":"長榮藥局","lat":24.1295872,"lng":120.6721636,"address":"402008臺中市南區新華街186號1樓","hasBabyChanging":false,"hasAccessible":false,"source":"OpenStreetMap","updatedAt":"2026-06-10T15:41:05.166Z","facilityType":"pharmacy","facilityLabel":"💊 藥局","phone":"+886 4 2222 0210","website":null,"wheelchair":false,"needsAddr":false},{"id":12300322782,"name":"楊永銓中醫診所","lat":24.1303641,"lng":120.6737022,"address":"402008臺中市南區復興路三段148之1號","hasBabyChanging":false,"hasAccessible":false,"source":"OpenStreetMap","updatedAt":"2026-06-10T15:41:05.166Z","facilityType":"clinic","facilityLabel":"🩺 診所","phone":"+886 4 2220 1965","website":null,"wheelchair":false,"needsAddr":false},{"id":12300322783,"name":"楊基瓏耳鼻喉科診所","lat":24.1303682,"lng":120.6737156,"address":"402008臺中市南區復興路三段148之2號","hasBabyChanging":false,"hasAccessible":false,"source":"OpenStreetMap","updatedAt":"2026-06-10T15:41:05.166Z","facilityType":"clinic","facilityLabel":"👂 耳鼻喉科","phone":"+886 4 2224 3343","website":null,"wheelchair":false,"needsAddr":false},{"id":12300322784,"name":"宥善中醫診所","lat":24.1309037,"lng":120.6739138,"address":"402008臺中市南區復興路三段181號1樓","hasBabyChanging":false,"hasAccessible":false,"source":"OpenStreetMap","updatedAt":"2026-06-10T15:41:05.166Z","facilityType":"clinic","facilityLabel":"🩺 診所","phone":"+886 4 2229 1313","website":null,"wheelchair":false,"needsAddr":false},{"id":12300322785,"name":"復興家庭醫學科診所","lat":24.1316154,"lng":120.6756783,"address":"402008臺中市南區復興路三段235號","hasBabyChanging":false,"hasAccessible":false,"source":"OpenStreetMap","updatedAt":"2026-06-10T15:41:05.166Z","facilityType":"clinic","facilityLabel":"🩺 診所","phone":"+886 4 2220 0482","website":null,"wheelchair":false,"needsAddr":false},{"id":12300322786,"name":"嘉仁牙醫診所","lat":24.131788,"lng":120.6772211,"address":"402001臺中市南區復興路三段272號","hasBabyChanging":false,"hasAccessible":false,"source":"OpenStreetMap","updatedAt":"2026-06-10T15:41:05.166Z","facilityType":"dentist","facilityLabel":"🦷 牙醫","phone":"+886 4 2220 5114","website":null,"wheelchair":false,"needsAddr":false},{"id":12300322787,"name":"惠眾牙醫診所","lat":24.1319446,"lng":120.6775894,"address":"402001臺中市南區復興路三段292號","hasBabyChanging":false,"hasAccessible":false,"source":"OpenStreetMap","updatedAt":"2026-06-10T15:41:05.166Z","facilityType":"dentist","facilityLabel":"🦷 牙醫","phone":"+886 4 2223 3126","website":null,"wheelchair":false,"needsAddr":false},{"id":12300322788,"name":"台杏藥局","lat":24.1326236,"lng":120.6779619,"address":"402001臺中市南區復興路三段337號","hasBabyChanging":false,"hasAccessible":false,"source":"OpenStreetMap","updatedAt":"2026-06-10T15:41:05.166Z","facilityType":"pharmacy","facilityLabel":"💊 藥局","phone":"+886 4 2221 8087","website":null,"wheelchair":false,"needsAddr":false},{"id":12300322789,"name":"林恆立耳鼻喉科診所","lat":24.132643,"lng":120.6780067,"address":"402001臺中市南區復興路三段339號1樓","hasBabyChanging":false,"hasAccessible":false,"source":"OpenStreetMap","updatedAt":"2026-06-10T15:41:05.166Z","facilityType":"clinic","facilityLabel":"👂 耳鼻喉科","phone":"+886 4 2220 0602","website":null,"wheelchair":false,"needsAddr":false},{"id":12300322790,"name":"正義藥局","lat":24.1326753,"lng":120.6782491,"address":"402001臺中市南區復興路三段347、349號1樓","hasBabyChanging":false,"hasAccessible":false,"source":"OpenStreetMap","updatedAt":"2026-06-10T15:41:05.166Z","facilityType":"pharmacy","facilityLabel":"💊 藥局","phone":"+886 4 2225 6121","website":null,"wheelchair":false,"needsAddr":false},{"id":12300322791,"name":"群英牙醫診所","lat":24.1331954,"lng":120.6794036,"address":"402001臺中市南區復興路三段385號1樓","hasBabyChanging":false,"hasAccessible":false,"source":"OpenStreetMap","updatedAt":"2026-06-10T15:41:05.166Z","facilityType":"dentist","facilityLabel":"🦷 牙醫","phone":"+886 4 2222 5405","website":null,"wheelchair":false,"needsAddr":false},{"id":12300322792,"name":"長春中醫診所","lat":24.1328507,"lng":120.6797291,"address":"402001臺中市南區復興路三段360、360之1號1樓","hasBabyChanging":false,"hasAccessible":false,"source":"OpenStreetMap","updatedAt":"2026-06-10T15:41:05.166Z","facilityType":"clinic","facilityLabel":"🩺 診所","phone":"+886 4 2222 0647","website":null,"wheelchair":false,"needsAddr":false},{"id":12300322793,"name":"林煌正牙醫診所","lat":24.1334508,"lng":120.6800102,"address":"402001臺中市南區復興路三段415號","hasBabyChanging":false,"hasAccessible":false,"source":"OpenStreetMap","updatedAt":"2026-06-10T15:41:05.166Z","facilityType":"dentist","facilityLabel":"🦷 牙醫","phone":"+886 4 2223 6868","website":null,"wheelchair":false,"needsAddr":false},{"id":12300322794,"name":"芳川牙醫診所","lat":24.1343605,"lng":120.682206,"address":"402001臺中市南區復興路三段515號","hasBabyChanging":false,"hasAccessible":false,"source":"OpenStreetMap","updatedAt":"2026-06-10T15:41:05.166Z","facilityType":"dentist","facilityLabel":"🦷 牙醫","phone":"+886 4 2222 4770","website":null,"wheelchair":false,"needsAddr":false},{"id":12300322795,"name":"星光眼科診所","lat":24.1341559,"lng":120.6828217,"address":"402001臺中市南區復興路三段386號1樓、2樓","hasBabyChanging":false,"hasAccessible":false,"source":"OpenStreetMap","updatedAt":"2026-06-10T15:41:05.166Z","facilityType":"clinic","facilityLabel":"🩺 診所","phone":"+886 4 2225 4508","website":null,"wheelchair":false,"needsAddr":false},{"id":12300322796,"name":"劉平昌診所","lat":24.1254531,"lng":120.6676218,"address":"402016臺中市南區福新街63號","hasBabyChanging":false,"hasAccessible":false,"source":"OpenStreetMap","updatedAt":"2026-06-10T15:41:05.166Z","facilityType":"clinic","facilityLabel":"🩺 診所","phone":"+886 4 2261 1184","website":null,"wheelchair":false,"needsAddr":false},{"id":12300322797,"name":"正心藥局","lat":24.1254082,"lng":120.6685308,"address":"402015臺中市南區南平路316號1樓","hasBabyChanging":false,"hasAccessible":false,"source":"OpenStreetMap","updatedAt":"2026-06-10T15:41:05.166Z","facilityType":"pharmacy","facilityLabel":"💊 藥局","phone":"+886 4 2265 2720","website":null,"wheelchair":false,"needsAddr":false},{"id":12300322798,"name":"德仁診所","lat":24.1253874,"lng":120.6684998,"address":"402015臺中市南區南平路314、316號1樓","hasBabyChanging":false,"hasAccessible":false,"source":"OpenStreetMap","updatedAt":"2026-06-10T15:41:05.166Z","facilityType":"clinic","facilityLabel":"🩺 診所","phone":"+886 4 2265 2718","website":null,"wheelchair":false,"needsAddr":false},{"id":12300322799,"name":"沐恩藥局","lat":24.1235426,"lng":120.6654158,"address":"402015臺中市南區南平路173之1號1樓","hasBabyChanging":false,"hasAccessible":false,"source":"OpenStreetMap","updatedAt":"2026-06-10T15:41:05.166Z","facilityType":"pharmacy","facilityLabel":"💊 藥局","phone":"+886 4 2265 0712","website":null,"wheelchair":false,"needsAddr":false},{"id":12300322800,"name":"欣悅診所","lat":24.1234499,"lng":120.6653323,"address":"402015臺中市南區南平路171號1樓、2樓","hasBabyChanging":false,"hasAccessible":false,"source":"OpenStreetMap","updatedAt":"2026-06-10T15:41:05.166Z","facilityType":"clinic","facilityLabel":"🩺 診所","phone":"+886 4 2265 9507","website":null,"wheelchair":false,"needsAddr":false},{"id":12300345201,"name":"仁美藥局","lat":24.1234003,"lng":120.6653006,"address":"402015臺中市南區南平路169號","hasBabyChanging":false,"hasAccessible":false,"source":"OpenStreetMap","updatedAt":"2026-06-10T15:41:05.166Z","facilityType":"pharmacy","facilityLabel":"💊 藥局","phone":"+886 4 2265 2495","website":null,"wheelchair":false,"needsAddr":false},{"id":12300345202,"name":"南平診所","lat":24.1233537,"lng":120.665245,"address":"402015臺中市南區南平路167號1樓","hasBabyChanging":false,"hasAccessible":false,"source":"OpenStreetMap","updatedAt":"2026-06-10T15:41:05.166Z","facilityType":"clinic","facilityLabel":"👶 小兒科","phone":"+886 4 2263 0192","website":null,"wheelchair":false,"needsAddr":false},{"id":12300345203,"name":"新安診所","lat":24.1222326,"lng":120.6637936,"address":"402015臺中市南區南平路91號","hasBabyChanging":false,"hasAccessible":false,"source":"OpenStreetMap","updatedAt":"2026-06-10T15:41:05.166Z","facilityType":"clinic","facilityLabel":"🩺 診所","phone":"+886 4 2261 3031","website":null,"wheelchair":false,"needsAddr":false},{"id":12300345204,"name":"榮鳳藥局","lat":24.1191129,"lng":120.6599671,"address":"402017臺中市南區南平路3之5號","hasBabyChanging":false,"hasAccessible":false,"source":"OpenStreetMap","updatedAt":"2026-06-10T15:41:05.166Z","facilityType":"pharmacy","facilityLabel":"💊 藥局","phone":"+886 4 2261 4366","website":null,"wheelchair":false,"needsAddr":false},{"id":12300345205,"name":"健新藥局","lat":24.1183457,"lng":120.6607407,"address":"402216臺中市南區工學北路69號1樓","hasBabyChanging":false,"hasAccessible":false,"source":"OpenStreetMap","updatedAt":"2026-06-10T15:41:05.166Z","facilityType":"pharmacy","facilityLabel":"💊 藥局","phone":"+886 4 2265 2727","website":null,"wheelchair":false,"needsAddr":false},{"id":12300345206,"name":"工學北中醫診所","lat":24.1184817,"lng":120.6609562,"address":"402216臺中市南區工學北路65之1號1樓","hasBabyChanging":false,"hasAccessible":false,"source":"OpenStreetMap","updatedAt":"2026-06-10T15:41:05.166Z","facilityType":"clinic","facilityLabel":"🩺 診所","phone":"+886 4 2265 2930","website":null,"wheelchair":false,"needsAddr":false},{"id":12300345207,"name":"工學北骨科診所","lat":24.1184899,"lng":120.6609698,"address":"402216臺中市南區工學北路65號1樓","hasBabyChanging":false,"hasAccessible":false,"source":"OpenStreetMap","updatedAt":"2026-06-10T15:41:05.166Z","facilityType":"clinic","facilityLabel":"🩺 診所","phone":"+886 4 2265 2930","website":null,"wheelchair":false,"needsAddr":false},{"id":12300345208,"name":"明視眼科診所","lat":24.1164895,"lng":120.6585463,"address":"402218臺中市南區工學北路161號1-2樓、地下室1樓","hasBabyChanging":false,"hasAccessible":false,"source":"OpenStreetMap","updatedAt":"2026-06-10T15:41:05.166Z","facilityType":"clinic","facilityLabel":"🩺 診所","phone":"+886 4 2265 7355","website":null,"wheelchair":false,"needsAddr":false},{"id":12300345209,"name":"權泓牙醫診所","lat":24.1177787,"lng":120.6565454,"address":"402020臺中市南區德富路217之1號","hasBabyChanging":false,"hasAccessible":false,"source":"OpenStreetMap","updatedAt":"2026-06-10T15:41:05.166Z","facilityType":"dentist","facilityLabel":"🦷 牙醫","phone":"+886 4 2260 8811","website":null,"wheelchair":false,"needsAddr":false},{"id":12300345210,"name":"愛力能復健科診所","lat":24.1102051,"lng":120.6575915,"address":"402024臺中市南區福田路77巷2號1樓","hasBabyChanging":false,"hasAccessible":false,"source":"OpenStreetMap","updatedAt":"2026-06-10T15:41:05.166Z","facilityType":"clinic","facilityLabel":"🦽 復健科","phone":"+886 4 2263 5700","website":null,"wheelchair":false,"needsAddr":false},{"id":12300345211,"name":"樹義牙醫診所","lat":24.1106909,"lng":120.6548709,"address":"402024臺中市南區福田三街269號","hasBabyChanging":false,"hasAccessible":false,"source":"OpenStreetMap","updatedAt":"2026-06-10T15:41:05.166Z","facilityType":"dentist","facilityLabel":"🦷 牙醫","phone":"+886 4 2265 3578","website":null,"wheelchair":false,"needsAddr":false},{"id":12300345212,"name":"馥芊中醫診所","lat":24.1125886,"lng":120.6574316,"address":"402024臺中市南區福田五街6號1樓","hasBabyChanging":false,"hasAccessible":false,"source":"OpenStreetMap","updatedAt":"2026-06-10T15:41:05.166Z","facilityType":"clinic","facilityLabel":"🩺 診所","phone":"+886 4 2265 9530","website":null,"wheelchair":false,"needsAddr":false},{"id":12300345213,"name":"鴻儀大藥局","lat":24.1140353,"lng":120.6527687,"address":"402026臺中市南區大慶街二段3之4號","hasBabyChanging":false,"hasAccessible":false,"source":"OpenStreetMap","updatedAt":"2026-06-10T15:41:05.166Z","facilityType":"pharmacy","facilityLabel":"💊 藥局","phone":"+886 4 2261 1769","website":null,"wheelchair":false,"needsAddr":false},{"id":12300345214,"name":"大慶藥局","lat":24.1156222,"lng":120.650394,"address":"402026臺中市南區大慶街二段27號1樓","hasBabyChanging":false,"hasAccessible":false,"source":"OpenStreetMap","updatedAt":"2026-06-10T15:41:05.166Z","facilityType":"pharmacy","facilityLabel":"💊 藥局","phone":"+886 4 2262 6202","website":null,"wheelchair":false,"needsAddr":false},{"id":12300345215,"name":"幼恩牙醫診所","lat":24.1160014,"lng":120.6658537,"address":"402022臺中市南區工學一街176號1樓","hasBabyChanging":false,"hasAccessible":false,"source":"OpenStreetMap","updatedAt":"2026-06-10T15:41:05.166Z","facilityType":"dentist","facilityLabel":"🦷 牙醫","phone":"+886 4 2260 0781","website":null,"wheelchair":false,"needsAddr":false},{"id":12300345216,"name":"薇風診所","lat":24.1170841,"lng":120.6675504,"address":"402022臺中市南區工學路8之3號1樓","hasBabyChanging":false,"hasAccessible":false,"source":"OpenStreetMap","updatedAt":"2026-06-10T15:41:05.166Z","facilityType":"clinic","facilityLabel":"🩺 診所","phone":"+886 4 2260 7228","website":null,"wheelchair":false,"needsAddr":false},{"id":12300345217,"name":"健康中醫診所","lat":24.1170888,"lng":120.6671108,"address":"402022臺中市南區工學路10之7號1樓","hasBabyChanging":false,"hasAccessible":false,"source":"OpenStreetMap","updatedAt":"2026-06-10T15:41:05.166Z","facilityType":"clinic","facilityLabel":"🩺 診所","phone":"+886 4 2261 5595","website":null,"wheelchair":false,"needsAddr":false},{"id":12300345218,"name":"永和耳鼻喉科診所","lat":24.1166914,"lng":120.6670235,"address":"402022臺中市南區工學路13之22號1樓","hasBabyChanging":false,"hasAccessible":false,"source":"OpenStreetMap","updatedAt":"2026-06-10T15:41:05.166Z","facilityType":"clinic","facilityLabel":"👂 耳鼻喉科","phone":"+886 4 2261 7938","website":null,"wheelchair":false,"needsAddr":false},{"id":12300345219,"name":"協美牙醫診所","lat":24.1171049,"lng":120.6665122,"address":"402022臺中市南區工學路22號1樓","hasBabyChanging":false,"hasAccessible":false,"source":"OpenStreetMap","updatedAt":"2026-06-10T15:41:05.166Z","facilityType":"dentist","facilityLabel":"🦷 牙醫","phone":"+886 4 2265 3768","website":null,"wheelchair":false,"needsAddr":false},{"id":12300345220,"name":"芳群牙醫診所","lat":24.1166667,"lng":120.6664447,"address":"402022臺中市南區工學路25號","hasBabyChanging":false,"hasAccessible":false,"source":"OpenStreetMap","updatedAt":"2026-06-10T15:41:05.166Z","facilityType":"dentist","facilityLabel":"🦷 牙醫","phone":"+886 4 2265 5775","website":null,"wheelchair":false,"needsAddr":false},{"id":12300345221,"name":"樺生藥局","lat":24.1166697,"lng":120.6661561,"address":"402022臺中市南區工學路39號","hasBabyChanging":false,"hasAccessible":false,"source":"OpenStreetMap","updatedAt":"2026-06-10T15:41:05.166Z","facilityType":"pharmacy","facilityLabel":"💊 藥局","phone":"+886 4 2262 5317","website":null,"wheelchair":false,"needsAddr":false},{"id":12300345222,"name":"保健藥局","lat":24.1166441,"lng":120.6658693,"address":"402022臺中市南區工學路53號","hasBabyChanging":false,"hasAccessible":false,"source":"OpenStreetMap","updatedAt":"2026-06-10T15:41:05.166Z","facilityType":"pharmacy","facilityLabel":"💊 藥局","phone":"+886 4 2262 2869","website":null,"wheelchair":false,"needsAddr":false},{"id":12300345223,"name":"德翔診所","lat":24.1170962,"lng":120.6660282,"address":"402022臺中市南區工學路46號1樓","hasBabyChanging":false,"hasAccessible":false,"source":"OpenStreetMap","updatedAt":"2026-06-10T15:41:05.166Z","facilityType":"clinic","facilityLabel":"🩺 診所","phone":"+886 4 2263 9708","website":null,"wheelchair":false,"needsAddr":false},{"id":12300345224,"name":"保健堂中醫診所","lat":24.1170944,"lng":120.6659079,"address":"402022臺中市南區工學路52號","hasBabyChanging":false,"hasAccessible":false,"source":"OpenStreetMap","updatedAt":"2026-06-10T15:41:05.166Z","facilityType":"clinic","facilityLabel":"🩺 診所","phone":"+886 4 2265 9089","website":null,"wheelchair":false,"needsAddr":false},{"id":12300345225,"name":"祐強診所","lat":24.1170619,"lng":120.6609472,"address":"402214臺中市南區工學路128號1、2樓","hasBabyChanging":false,"hasAccessible":false,"source":"OpenStreetMap","updatedAt":"2026-06-10T15:41:05.166Z","facilityType":"clinic","facilityLabel":"🩺 診所","phone":"+886 4 2261 7128","website":null,"wheelchair":false,"needsAddr":false},{"id":12300345226,"name":"瑞銘小兒科診所","lat":24.1170551,"lng":120.6606605,"address":"402214臺中市南區工學路140號1樓、2樓(部分)、142號1樓、2樓(部分)","hasBabyChanging":false,"hasAccessible":false,"source":"OpenStreetMap","updatedAt":"2026-06-10T15:41:05.166Z","facilityType":"clinic","facilityLabel":"👶 小兒科","phone":"+886 4 2265 2116","website":null,"wheelchair":false,"needsAddr":false},{"id":12300345227,"name":"工學台安藥局","lat":24.116866,"lng":120.6591461,"address":"402022臺中市南區工學路159號1樓","hasBabyChanging":false,"hasAccessible":false,"source":"OpenStreetMap","updatedAt":"2026-06-10T15:41:05.166Z","facilityType":"pharmacy","facilityLabel":"💊 藥局","phone":"+886 4 2260 2161","website":null,"wheelchair":false,"needsAddr":false},{"id":12300345228,"name":"陳德義小兒科診所","lat":24.116453,"lng":120.6665995,"address":"402018臺中市南區美村南路147號1樓","hasBabyChanging":false,"hasAccessible":false,"source":"OpenStreetMap","updatedAt":"2026-06-10T15:41:05.166Z","facilityType":"clinic","facilityLabel":"👶 小兒科","phone":"+886 4 2265 0913","website":null,"wheelchair":false,"needsAddr":false},{"id":12300345229,"name":"健康人生藥局","lat":24.1172523,"lng":120.666601,"address":"402018臺中市南區美村南路131號","hasBabyChanging":false,"hasAccessible":false,"source":"OpenStreetMap","updatedAt":"2026-06-10T15:41:05.166Z","facilityType":"pharmacy","facilityLabel":"💊 藥局","phone":"+886 4 2263 3936","website":null,"wheelchair":false,"needsAddr":false},{"id":12300345230,"name":"酉安中醫診所","lat":24.1176111,"lng":120.6666033,"address":"402018臺中市南區美村南路113號1樓","hasBabyChanging":false,"hasAccessible":false,"source":"OpenStreetMap","updatedAt":"2026-06-10T15:41:05.166Z","facilityType":"clinic","facilityLabel":"🩺 診所","phone":"+886 4 2262 1211","website":null,"wheelchair":false,"needsAddr":false},{"id":12300345231,"name":"黃秋勇中醫診所","lat":24.1179776,"lng":120.6666123,"address":"402018臺中市南區美村南路105之1號1樓","hasBabyChanging":false,"hasAccessible":false,"source":"OpenStreetMap","updatedAt":"2026-06-10T15:41:05.166Z","facilityType":"clinic","facilityLabel":"🩺 診所","phone":"+886 4 2263 7976","website":null,"wheelchair":false,"needsAddr":false},{"id":12300345232,"name":"安興牙醫診所","lat":24.1155661,"lng":120.666608,"address":"402018臺中市南區美村南路181號","hasBabyChanging":false,"hasAccessible":false,"source":"OpenStreetMap","updatedAt":"2026-06-10T15:41:05.166Z","facilityType":"dentist","facilityLabel":"🦷 牙醫","phone":"+886 4 2261 5112","website":null,"wheelchair":false,"needsAddr":false},{"id":12300345233,"name":"尚尚藥局","lat":24.1151564,"lng":120.6665707,"address":"402018臺中市南區美村南路197號1樓","hasBabyChanging":false,"hasAccessible":false,"source":"OpenStreetMap","updatedAt":"2026-06-10T15:41:05.166Z","facilityType":"pharmacy","facilityLabel":"💊 藥局","phone":"+886 4 2260 6831","website":null,"wheelchair":false,"needsAddr":false},{"id":12300345234,"name":"冠威牙醫診所","lat":24.1151645,"lng":120.6666266,"address":"402018臺中市南區美村南路199號1樓","hasBabyChanging":false,"hasAccessible":false,"source":"OpenStreetMap","updatedAt":"2026-06-10T15:41:05.166Z","facilityType":"dentist","facilityLabel":"🦷 牙醫","phone":"+886 4 2262 5288","website":null,"wheelchair":false,"needsAddr":false},{"id":12300345235,"name":"順生診所","lat":24.1150535,"lng":120.6666142,"address":"402018臺中市南區美村南路203號1樓","hasBabyChanging":false,"hasAccessible":false,"source":"OpenStreetMap","updatedAt":"2026-06-10T15:41:05.166Z","facilityType":"clinic","facilityLabel":"🩺 診所","phone":"+886 4 2261 3275","website":null,"wheelchair":false,"needsAddr":false},{"id":12300345236,"name":"大樹美村藥局","lat":24.1148198,"lng":120.6669668,"address":"402018臺中市南區美村南路124號1樓","hasBabyChanging":false,"hasAccessible":false,"source":"OpenStreetMap","updatedAt":"2026-06-10T15:41:05.166Z","facilityType":"pharmacy","facilityLabel":"💊 藥局","phone":"+886 4 2262 1113","website":null,"wheelchair":false,"needsAddr":false},{"id":12300345237,"name":"欣欣耳鼻喉科診所","lat":24.1180163,"lng":120.6670495,"address":"402018臺中市南區美村南路34號1樓","hasBabyChanging":false,"hasAccessible":false,"source":"OpenStreetMap","updatedAt":"2026-06-10T15:41:05.166Z","facilityType":"clinic","facilityLabel":"👂 耳鼻喉科","phone":"+886 4 2265 3777","website":null,"wheelchair":false,"needsAddr":false},{"id":12300345238,"name":"長頸鹿耳鼻喉科診所","lat":24.121781,"lng":120.6666329,"address":"402018臺中市南區美村南路9號1樓","hasBabyChanging":false,"hasAccessible":false,"source":"OpenStreetMap","updatedAt":"2026-06-10T15:41:05.166Z","facilityType":"clinic","facilityLabel":"👂 耳鼻喉科","phone":"+886 4 2262 2252","website":null,"wheelchair":false,"needsAddr":false},{"id":12300345239,"name":"優盛牙醫診所","lat":24.1177165,"lng":120.6669923,"address":"402018臺中市南區美村南路52號1、2、3樓","hasBabyChanging":false,"hasAccessible":false,"source":"OpenStreetMap","updatedAt":"2026-06-10T15:41:05.166Z","facilityType":"dentist","facilityLabel":"🦷 牙醫","phone":"+886 4 2265 0799","website":null,"wheelchair":false,"needsAddr":false},{"id":12300345240,"name":"林忠立診所","lat":24.1175844,"lng":120.6669944,"address":"402018臺中市南區美村南路58、60號1樓","hasBabyChanging":false,"hasAccessible":false,"source":"OpenStreetMap","updatedAt":"2026-06-10T15:41:05.166Z","facilityType":"clinic","facilityLabel":"🩺 診所","phone":"+886 4 2261 9948","website":null,"wheelchair":false,"needsAddr":false},{"id":12300345241,"name":"和生藥局","lat":24.1173105,"lng":120.666972,"address":"402018臺中市南區美村南路68之2號1樓","hasBabyChanging":false,"hasAccessible":false,"source":"OpenStreetMap","updatedAt":"2026-06-10T15:41:05.166Z","facilityType":"pharmacy","facilityLabel":"💊 藥局","phone":"+886 4 2265 3346","website":null,"wheelchair":false,"needsAddr":false},{"id":12300345242,"name":"怡人牙醫診所","lat":24.1250662,"lng":120.663397,"address":"402251臺中市南區美村路二段186號1、2樓","hasBabyChanging":false,"hasAccessible":false,"source":"OpenStreetMap","updatedAt":"2026-06-10T15:41:05.166Z","facilityType":"dentist","facilityLabel":"🦷 牙醫","phone":"+886 4 2260 9168","website":null,"wheelchair":false,"needsAddr":false},{"id":12300345243,"name":"永佳診所","lat":24.1261233,"lng":120.6627955,"address":"402016臺中市南區美村路二段156號1、2樓","hasBabyChanging":false,"hasAccessible":false,"source":"OpenStreetMap","updatedAt":"2026-06-10T15:41:05.166Z","facilityType":"clinic","facilityLabel":"🩺 診所","phone":"+886 4 2265 5226","website":null,"wheelchair":false,"needsAddr":false},{"id":12300345244,"name":"皇佳藥局","lat":24.1261933,"lng":120.6627669,"address":"402016臺中市南區美村路二段152號1樓","hasBabyChanging":false,"hasAccessible":false,"source":"OpenStreetMap","updatedAt":"2026-06-10T15:41:05.166Z","facilityType":"pharmacy","facilityLabel":"💊 藥局","phone":"+886 4 2263 4093","website":null,"wheelchair":false,"needsAddr":false},{"id":12300345245,"name":"康是美美村藥局","lat":24.1302784,"lng":120.6617281,"address":"402027臺中市南區美村路二段40、42號1、2樓","hasBabyChanging":false,"hasAccessible":false,"source":"OpenStreetMap","updatedAt":"2026-06-10T15:41:05.166Z","facilityType":"pharmacy","facilityLabel":"💊 藥妝","phone":"+886 4 2378 5703","website":null,"wheelchair":false,"needsAddr":false},{"id":12300345246,"name":"李昭德診所","lat":24.1308081,"lng":120.6615428,"address":"402027臺中市南區柳川東路一段99號及100號1、2樓","hasBabyChanging":false,"hasAccessible":false,"source":"OpenStreetMap","updatedAt":"2026-06-10T15:41:05.166Z","facilityType":"clinic","facilityLabel":"🩺 診所","phone":"+886 4 2371 8383","website":null,"wheelchair":false,"needsAddr":false},{"id":12300345247,"name":"宏美德生診所","lat":24.1308138,"lng":120.661567,"address":"402027臺中市南區柳川東路一段99號、100號2樓","hasBabyChanging":false,"hasAccessible":false,"source":"OpenStreetMap","updatedAt":"2026-06-10T15:41:05.166Z","facilityType":"clinic","facilityLabel":"🩺 診所","phone":"+886 4 2371 8383","website":null,"wheelchair":false,"needsAddr":false},{"id":12300345248,"name":"淵元兒科診所","lat":24.1340936,"lng":120.6563696,"address":"402005臺中市南區南屯路一段271號1樓","hasBabyChanging":false,"hasAccessible":false,"source":"OpenStreetMap","updatedAt":"2026-06-10T15:41:05.166Z","facilityType":"clinic","facilityLabel":"👶 小兒科","phone":"+886 4 2375 5460","website":null,"wheelchair":false,"needsAddr":false},{"id":12300345249,"name":"圓扶原中醫診所","lat":24.1339471,"lng":120.6567051,"address":"402005臺中市南區南屯路一段259號1樓","hasBabyChanging":false,"hasAccessible":false,"source":"OpenStreetMap","updatedAt":"2026-06-10T15:41:05.166Z","facilityType":"clinic","facilityLabel":"🩺 診所","phone":"+886 4 2376 2099","website":null,"wheelchair":false,"needsAddr":false},{"id":12300345250,"name":"睿豊診所","lat":24.1249386,"lng":120.658427,"address":"402022臺中市南區建國南路一段261號1樓","hasBabyChanging":false,"hasAccessible":false,"source":"OpenStreetMap","updatedAt":"2026-06-10T15:41:05.166Z","facilityType":"clinic","facilityLabel":"🩺 診所","phone":"+886 4 2260 8588","website":null,"wheelchair":false,"needsAddr":false},{"id":12300345251,"name":"術德中醫診所","lat":24.1189763,"lng":120.6521046,"address":"402028臺中市南區文心南路560號1樓、562號1樓","hasBabyChanging":false,"hasAccessible":false,"source":"OpenStreetMap","updatedAt":"2026-06-10T15:41:05.166Z","facilityType":"clinic","facilityLabel":"🩺 診所","phone":"+886 4 2265 7713","website":null,"wheelchair":false,"needsAddr":false},{"id":12300345252,"name":"新享診所","lat":24.1114601,"lng":120.6595291,"address":"402263臺中市南區文心南路888之1號（1樓）","hasBabyChanging":false,"hasAccessible":false,"source":"OpenStreetMap","updatedAt":"2026-06-10T15:41:05.166Z","facilityType":"clinic","facilityLabel":"🩺 診所","phone":"+886 4 2261 3536","website":null,"wheelchair":false,"needsAddr":false},{"id":12300345253,"name":"元氣家藥局","lat":24.1114281,"lng":120.6595677,"address":"402263臺中市南區文心南路888之3號1樓","hasBabyChanging":false,"hasAccessible":false,"source":"OpenStreetMap","updatedAt":"2026-06-10T15:41:05.166Z","facilityType":"pharmacy","facilityLabel":"💊 藥局","phone":"+886 4 2263 1660","website":null,"wheelchair":false,"needsAddr":false},{"id":12300345254,"name":"民和中醫診所","lat":24.1104094,"lng":120.6593729,"address":"402028臺中市南區文心南路901巷26號1、2樓","hasBabyChanging":false,"hasAccessible":false,"source":"OpenStreetMap","updatedAt":"2026-06-10T15:41:05.166Z","facilityType":"clinic","facilityLabel":"🩺 診所","phone":"+886 4 2261 1789","website":null,"wheelchair":false,"needsAddr":false},{"id":12300345255,"name":"文星外科診所","lat":24.1096094,"lng":120.6606455,"address":"402028臺中市南區文心南路951號1樓","hasBabyChanging":false,"hasAccessible":false,"source":"OpenStreetMap","updatedAt":"2026-06-10T15:41:05.166Z","facilityType":"clinic","facilityLabel":"🩺 診所","phone":"+886 4 2263 6645","website":null,"wheelchair":false,"needsAddr":false},{"id":12300345256,"name":"順天堂中醫診所","lat":24.1168099,"lng":120.6567531,"address":"402024臺中市南區文心南十路210號1樓","hasBabyChanging":false,"hasAccessible":false,"source":"OpenStreetMap","updatedAt":"2026-06-10T15:41:05.166Z","facilityType":"clinic","facilityLabel":"🩺 診所","phone":"+886 4 2260 0077","website":null,"wheelchair":false,"needsAddr":false},{"id":12300345257,"name":"草馨大藥局","lat":24.121716,"lng":120.6540263,"address":"402019臺中市南區東興路一段129號1樓","hasBabyChanging":false,"hasAccessible":false,"source":"OpenStreetMap","updatedAt":"2026-06-10T15:41:05.166Z","facilityType":"pharmacy","facilityLabel":"💊 藥局","phone":"+886 4 2265 1976","website":null,"wheelchair":false,"needsAddr":false},{"id":12300345258,"name":"穎眾兒科診所","lat":24.1181472,"lng":120.6574363,"address":"402019臺中市南區東興路一段7號1樓","hasBabyChanging":false,"hasAccessible":false,"source":"OpenStreetMap","updatedAt":"2026-06-10T15:41:05.166Z","facilityType":"clinic","facilityLabel":"👶 小兒科","phone":"+886 4 2260 3549","website":null,"wheelchair":false,"needsAddr":false},{"id":12300345259,"name":"穆希牙醫診所","lat":24.1199725,"lng":120.6541007,"address":"402020臺中市南區德富路92號1、2樓","hasBabyChanging":false,"hasAccessible":false,"source":"OpenStreetMap","updatedAt":"2026-06-10T15:41:05.166Z","facilityType":"dentist","facilityLabel":"🦷 牙醫","phone":"+886 4 2265 8919","website":null,"wheelchair":false,"needsAddr":false},{"id":12300345260,"name":"鴻源藥局","lat":24.1214261,"lng":120.653183,"address":"402020臺中市南區德富路9號1樓","hasBabyChanging":false,"hasAccessible":false,"source":"OpenStreetMap","updatedAt":"2026-06-10T15:41:05.166Z","facilityType":"pharmacy","facilityLabel":"💊 藥局","phone":"+886 4 2265 5436","website":null,"wheelchair":false,"needsAddr":false},{"id":12300345261,"name":"御中醫診所","lat":24.1216925,"lng":120.6596235,"address":"402020臺中市南區復興北路30號1樓","hasBabyChanging":false,"hasAccessible":false,"source":"OpenStreetMap","updatedAt":"2026-06-10T15:41:05.166Z","facilityType":"clinic","facilityLabel":"🩺 診所","phone":"+886 4 2265 1917","website":null,"wheelchair":false,"needsAddr":false},{"id":12384222957,"name":"屈臣氏","lat":24.1227614,"lng":120.6611373,"address":null,"hasBabyChanging":false,"hasAccessible":false,"source":"OpenStreetMap","updatedAt":"2026-06-10T15:41:05.166Z","facilityType":"pharmacy","facilityLabel":"💊 藥妝","phone":null,"website":null,"wheelchair":false,"needsAddr":true},{"id":13081886144,"name":"康是美","lat":24.1258036,"lng":120.6753074,"address":null,"hasBabyChanging":false,"hasAccessible":false,"source":"OpenStreetMap","updatedAt":"2026-06-10T15:41:05.166Z","facilityType":"pharmacy","facilityLabel":"💊 藥妝","phone":null,"website":null,"wheelchair":false,"needsAddr":true},{"id":260711122,"name":"中山醫學大學附設醫院(大慶院區)","lat":24.121601,"lng":120.6501226,"address":"402306臺中市南區建國北路一段110號","hasBabyChanging":false,"hasAccessible":false,"source":"OpenStreetMap","updatedAt":"2026-06-10T15:41:05.166Z","facilityType":"hospital","facilityLabel":"🏥 醫院","phone":"+886 4 2473 9595","website":null,"wheelchair":false,"needsAddr":false},{"id":360032498,"name":"中山醫學大學附設醫院中興分院","lat":24.1181551,"lng":120.6585124,"address":"40256臺中市南區復興路二段11號","hasBabyChanging":false,"hasAccessible":false,"source":"OpenStreetMap","updatedAt":"2026-06-10T15:41:05.166Z","facilityType":"hospital","facilityLabel":"🏥 醫院","phone":null,"website":null,"wheelchair":false,"needsAddr":false},{"id":360032889,"name":"宏恩醫院龍安分院","lat":24.1193421,"lng":120.6552315,"address":"402020臺中市南區德富路145巷2號","hasBabyChanging":false,"hasAccessible":false,"source":"OpenStreetMap","updatedAt":"2026-06-10T15:41:05.166Z","facilityType":"hospital","facilityLabel":"🏥 醫院","phone":"+886 4 3701 7188","website":null,"wheelchair":false,"needsAddr":false},{"id":421919518,"name":"獸醫館","lat":24.1181388,"lng":120.6779633,"address":null,"hasBabyChanging":false,"hasAccessible":false,"source":"OpenStreetMap","updatedAt":"2026-06-10T15:41:05.166Z","facilityType":"vet","facilityLabel":"🐾 動物醫院","phone":null,"website":null,"wheelchair":false,"needsAddr":true},{"id":677304932,"name":"中興大學獸醫教學醫院","lat":24.1182872,"lng":120.6788614,"address":null,"hasBabyChanging":false,"hasAccessible":false,"source":"OpenStreetMap","updatedAt":"2026-06-10T15:41:05.166Z","facilityType":"vet","facilityLabel":"🐾 動物醫院","phone":null,"website":null,"wheelchair":false,"needsAddr":true},{"id":2657775903,"name":"薰衣草診所","lat":24.1498804,"lng":120.6553169,"address":"403026臺中市西區精誠路145號1樓、2樓","hasBabyChanging":false,"hasAccessible":false,"source":"OpenStreetMap","updatedAt":"2026-06-10T15:41:05.166Z","facilityType":"clinic","facilityLabel":"🩺 診所","phone":"+886 4 2320 6499","website":null,"wheelchair":false,"needsAddr":false},{"id":2659007885,"name":"廖錫勳皮膚科診所","lat":24.1506619,"lng":120.6545173,"address":"403428臺中市西區公益路361號","hasBabyChanging":false,"hasAccessible":false,"source":"OpenStreetMap","updatedAt":"2026-06-10T15:41:05.166Z","facilityType":"clinic","facilityLabel":"🩺 診所","phone":"+886 4 2327 0198","website":null,"wheelchair":false,"needsAddr":false},{"id":2659007916,"name":"長榮牙醫診所","lat":24.1506014,"lng":120.6531768,"address":"403422臺中市西區公益路389號","hasBabyChanging":false,"hasAccessible":false,"source":"OpenStreetMap","updatedAt":"2026-06-10T15:41:05.166Z","facilityType":"dentist","facilityLabel":"🦷 牙醫","phone":"+886 4 2320 5566","website":null,"wheelchair":false,"needsAddr":false},{"id":4096750588,"name":"康是美","lat":24.1555937,"lng":120.6562842,"address":null,"hasBabyChanging":false,"hasAccessible":false,"source":"OpenStreetMap","updatedAt":"2026-06-10T15:41:05.166Z","facilityType":"pharmacy","facilityLabel":"💊 藥妝","phone":null,"website":null,"wheelchair":false,"needsAddr":true},{"id":4242328614,"name":"控八控控中醫診所","lat":24.1409713,"lng":120.667186,"address":null,"hasBabyChanging":false,"hasAccessible":false,"source":"OpenStreetMap","updatedAt":"2026-06-10T15:41:05.166Z","facilityType":"clinic","facilityLabel":"🩺 診所","phone":"+886 8 0025 6000","website":"http://www.0800256000.com/","wheelchair":false,"needsAddr":true},{"id":4242336988,"name":"新美福藥局","lat":24.1405528,"lng":120.667701,"address":null,"hasBabyChanging":false,"hasAccessible":false,"source":"OpenStreetMap","updatedAt":"2026-06-10T15:41:05.166Z","facilityType":"pharmacy","facilityLabel":"💊 藥局","phone":null,"website":null,"wheelchair":false,"needsAddr":true},{"id":4284806098,"name":"中一中藥房","lat":24.1467659,"lng":120.6602696,"address":null,"hasBabyChanging":false,"hasAccessible":false,"source":"OpenStreetMap","updatedAt":"2026-06-10T15:41:05.166Z","facilityType":"pharmacy","facilityLabel":"💊 藥局","phone":null,"website":null,"wheelchair":false,"needsAddr":true},{"id":4528816913,"name":"陳神洲外科診所","lat":24.1368412,"lng":120.6614711,"address":"403029臺中市西區美村路一段626號","hasBabyChanging":false,"hasAccessible":false,"source":"OpenStreetMap","updatedAt":"2026-06-10T15:41:05.166Z","facilityType":"clinic","facilityLabel":"🩺 診所","phone":"+886 4 2372 2761","website":null,"wheelchair":false,"needsAddr":false},{"id":4613639491,"name":"永達牙醫診所","lat":24.1503908,"lng":120.661424,"address":"403015臺中市西區美村路一段156號1樓","hasBabyChanging":false,"hasAccessible":false,"source":"OpenStreetMap","updatedAt":"2026-06-10T15:41:05.166Z","facilityType":"dentist","facilityLabel":"🦷 牙醫","phone":"+886 4 2302 3568","website":null,"wheelchair":false,"needsAddr":false},{"id":4650590689,"name":"屈臣氏","lat":24.1524501,"lng":120.6549957,"address":null,"hasBabyChanging":false,"hasAccessible":true,"source":"OpenStreetMap","updatedAt":"2026-06-10T15:41:05.166Z","facilityType":"pharmacy","facilityLabel":"💊 藥妝","phone":null,"website":null,"wheelchair":true,"needsAddr":true},{"id":4685530308,"name":"小確幸診所","lat":24.1520709,"lng":120.66545,"address":null,"hasBabyChanging":false,"hasAccessible":false,"source":"OpenStreetMap","updatedAt":"2026-06-10T15:41:05.166Z","facilityType":"clinic","facilityLabel":"🩺 診所","phone":null,"website":null,"wheelchair":false,"needsAddr":true},{"id":4685586392,"name":"陽光花園診所","lat":24.1533053,"lng":120.6660772,"address":null,"hasBabyChanging":false,"hasAccessible":false,"source":"OpenStreetMap","updatedAt":"2026-06-10T15:41:05.166Z","facilityType":"clinic","facilityLabel":"🩺 診所","phone":null,"website":null,"wheelchair":false,"needsAddr":true},{"id":4692418971,"name":"陳瑞山牙醫診所","lat":24.1498312,"lng":120.6706131,"address":"403018臺中市西區臺灣大道二段105號4樓","hasBabyChanging":false,"hasAccessible":false,"source":"OpenStreetMap","updatedAt":"2026-06-10T15:41:05.166Z","facilityType":"dentist","facilityLabel":"🦷 牙醫","phone":"+886 4 2302 3007","website":null,"wheelchair":false,"needsAddr":false},{"id":4754491527,"name":"屈臣氏","lat":24.1352968,"lng":120.6615388,"address":null,"hasBabyChanging":false,"hasAccessible":false,"source":"OpenStreetMap","updatedAt":"2026-06-10T15:41:05.166Z","facilityType":"pharmacy","facilityLabel":"💊 藥妝","phone":null,"website":null,"wheelchair":false,"needsAddr":true},{"id":4754491550,"name":"康是美","lat":24.1567384,"lng":120.6630393,"address":"40353臺中市西區健行路1042號","hasBabyChanging":false,"hasAccessible":false,"source":"OpenStreetMap","updatedAt":"2026-06-10T15:41:05.166Z","facilityType":"pharmacy","facilityLabel":"💊 藥妝","phone":"+886-4-2323-1067","website":"https://www.cosmed.com.tw/","wheelchair":false,"needsAddr":false},{"id":4754491554,"name":"屈臣氏","lat":24.1546718,"lng":120.6617428,"address":null,"hasBabyChanging":false,"hasAccessible":false,"source":"OpenStreetMap","updatedAt":"2026-06-10T15:41:05.166Z","facilityType":"pharmacy","facilityLabel":"💊 藥妝","phone":null,"website":null,"wheelchair":false,"needsAddr":true},{"id":5070515351,"name":"博視眼科診所","lat":24.1567756,"lng":120.6588035,"address":"403020臺中市西區臺灣大道二段533號1樓","hasBabyChanging":false,"hasAccessible":false,"source":"OpenStreetMap","updatedAt":"2026-06-10T15:41:05.166Z","facilityType":"clinic","facilityLabel":"🩺 診所","phone":"+886 4 2320 6666","website":"https://www.great-vision.com.tw/","wheelchair":false,"needsAddr":false},{"id":5301732231,"name":"屈臣氏","lat":24.1466094,"lng":120.6535733,"address":"臺中市西區向上路一段459號","hasBabyChanging":false,"hasAccessible":false,"source":"OpenStreetMap","updatedAt":"2026-06-10T15:41:05.166Z","facilityType":"pharmacy","facilityLabel":"💊 藥妝","phone":null,"website":null,"wheelchair":false,"needsAddr":false},{"id":6183510288,"name":"愛生牙醫診所","lat":24.1476228,"lng":120.6553289,"address":"403026臺中市西區精誠路221之1號1樓","hasBabyChanging":false,"hasAccessible":false,"source":"OpenStreetMap","updatedAt":"2026-06-10T15:41:05.166Z","facilityType":"dentist","facilityLabel":"🦷 牙醫","phone":"+886 4 2328 8575","website":null,"wheelchair":false,"needsAddr":false},{"id":6416274505,"name":"佑民牙醫診所","lat":24.1353973,"lng":120.6614906,"address":"403029臺中市西區美村路一段676號1樓","hasBabyChanging":false,"hasAccessible":false,"source":"OpenStreetMap","updatedAt":"2026-06-10T15:41:05.166Z","facilityType":"dentist","facilityLabel":"🦷 牙醫","phone":"+886 4 2373 1923","website":null,"wheelchair":false,"needsAddr":false},{"id":6418273187,"name":"陳世杰診所","lat":24.1461797,"lng":120.6600078,"address":"403014臺中市西區中美街155號1樓","hasBabyChanging":false,"hasAccessible":false,"source":"OpenStreetMap","updatedAt":"2026-06-10T15:41:05.166Z","facilityType":"clinic","facilityLabel":"🩺 診所","phone":"+886 4 2305 8331","website":null,"wheelchair":false,"needsAddr":false},{"id":8066019171,"name":"豐采協同牙醫診所","lat":24.1464834,"lng":120.6582238,"address":"403008臺中市西區向上路一段293號1樓","hasBabyChanging":false,"hasAccessible":false,"source":"OpenStreetMap","updatedAt":"2026-06-10T15:41:05.166Z","facilityType":"dentist","facilityLabel":"🦷 牙醫","phone":"+886 4 2302 0111","website":null,"wheelchair":false,"needsAddr":false},{"id":8066019172,"name":"雙安耳鼻喉科診所","lat":24.1468896,"lng":120.6579393,"address":"403008臺中市西區向上路一段270號","hasBabyChanging":false,"hasAccessible":false,"source":"OpenStreetMap","updatedAt":"2026-06-10T15:41:05.166Z","facilityType":"clinic","facilityLabel":"👂 耳鼻喉科","phone":"+886 4 2302 0805","website":null,"wheelchair":false,"needsAddr":false},{"id":8066019173,"name":"三泰診所","lat":24.1468902,"lng":120.6580463,"address":"403008臺中市西區向上路一段268號1樓","hasBabyChanging":false,"hasAccessible":false,"source":"OpenStreetMap","updatedAt":"2026-06-10T15:41:05.166Z","facilityType":"clinic","facilityLabel":"🩺 診所","phone":"+886 4 2301 5377","website":null,"wheelchair":false,"needsAddr":false},{"id":8382500117,"name":"中山福倫藥局","lat":24.1466653,"lng":120.672823,"address":"403010臺中市西區中山路483號1、2樓","hasBabyChanging":false,"hasAccessible":false,"source":"OpenStreetMap","updatedAt":"2026-06-10T15:41:05.166Z","facilityType":"pharmacy","facilityLabel":"💊 藥局","phone":"+886 4 2202 6818","website":null,"wheelchair":false,"needsAddr":false},{"id":8829707159,"name":"鑫祐藥局","lat":24.1476701,"lng":120.6700276,"address":"403009臺中市西區民權路302之5號","hasBabyChanging":false,"hasAccessible":false,"source":"OpenStreetMap","updatedAt":"2026-06-10T15:41:05.166Z","facilityType":"pharmacy","facilityLabel":"💊 藥局","phone":"+886 4 2302 7778","website":null,"wheelchair":false,"needsAddr":false},{"id":8829707160,"name":"明錦診所","lat":24.1477534,"lng":120.6700103,"address":null,"hasBabyChanging":false,"hasAccessible":false,"source":"OpenStreetMap","updatedAt":"2026-06-10T15:41:05.166Z","facilityType":"clinic","facilityLabel":"🩺 診所","phone":null,"website":null,"wheelchair":false,"needsAddr":true},{"id":10029819517,"name":"真愛美學牙醫診所","lat":24.14896,"lng":120.6548435,"address":"403026臺中市西區精誠路260號1樓","hasBabyChanging":false,"hasAccessible":false,"source":"OpenStreetMap","updatedAt":"2026-06-10T15:41:05.166Z","facilityType":"dentist","facilityLabel":"🦷 牙醫","phone":"+886 4 2321 5899","website":null,"wheelchair":false,"needsAddr":false},{"id":10118960489,"name":"麥茵茲美形診所","lat":24.1539225,"lng":120.6647787,"address":"臺中市西區民龍里6鄰臺灣大道二段343號","hasBabyChanging":false,"hasAccessible":false,"source":"OpenStreetMap","updatedAt":"2026-06-10T15:41:05.166Z","facilityType":"clinic","facilityLabel":"🩺 診所","phone":null,"website":"https://www.mainz.com.tw/info4/","wheelchair":false,"needsAddr":false},{"id":10892869220,"name":"美術藥局","lat":24.1393835,"lng":120.6618615,"address":"403011臺中市西區美村路一段567號","hasBabyChanging":false,"hasAccessible":false,"source":"OpenStreetMap","updatedAt":"2026-06-10T15:41:05.166Z","facilityType":"pharmacy","facilityLabel":"💊 藥局","phone":"+886 4 2372 5286","website":null,"wheelchair":false,"needsAddr":false},{"id":11262071265,"name":"一二三藥房","lat":24.1333942,"lng":120.6759959,"address":"臺中市西區民生里23鄰建國路1之1號","hasBabyChanging":false,"hasAccessible":false,"source":"OpenStreetMap","updatedAt":"2026-06-10T15:41:05.166Z","facilityType":"clinic","facilityLabel":"🩺 診所","phone":null,"website":null,"wheelchair":false,"needsAddr":false},{"id":12210904200,"name":"維一診所","lat":24.1631661,"lng":120.6621453,"address":null,"hasBabyChanging":false,"hasAccessible":false,"source":"OpenStreetMap","updatedAt":"2026-06-10T15:41:05.166Z","facilityType":"clinic","facilityLabel":"🩺 診所","phone":null,"website":null,"wheelchair":false,"needsAddr":true},{"id":12211072601,"name":"厚恩中醫診所","lat":24.1631017,"lng":120.6621312,"address":"403023臺中市西區太原路一段218號1樓","hasBabyChanging":false,"hasAccessible":false,"source":"OpenStreetMap","updatedAt":"2026-06-10T15:41:05.166Z","facilityType":"clinic","facilityLabel":"🩺 診所","phone":"+886 4 2316 6178","website":null,"wheelchair":false,"needsAddr":false},{"id":12244427388,"name":"康貝兒小兒科診所","lat":24.1465374,"lng":120.6514465,"address":"403019臺中市西區向上路一段553號1樓","hasBabyChanging":false,"hasAccessible":false,"source":"OpenStreetMap","updatedAt":"2026-06-10T15:41:05.166Z","facilityType":"clinic","facilityLabel":"👶 小兒科","phone":"+886 4 2472 0515","website":null,"wheelchair":false,"needsAddr":false},{"id":12244427389,"name":"周家齊診所","lat":24.1469519,"lng":120.6517748,"address":"403019臺中市西區向上路一段508號1、2樓","hasBabyChanging":false,"hasAccessible":false,"source":"OpenStreetMap","updatedAt":"2026-06-10T15:41:05.166Z","facilityType":"clinic","facilityLabel":"🩺 診所","phone":"+886 4 2326 6611","website":null,"wheelchair":false,"needsAddr":false},{"id":12244427390,"name":"友富大藥局","lat":24.1469536,"lng":120.6519185,"address":"403019臺中市西區向上路一段500號1樓","hasBabyChanging":false,"hasAccessible":false,"source":"OpenStreetMap","updatedAt":"2026-06-10T15:41:05.166Z","facilityType":"pharmacy","facilityLabel":"💊 藥局","phone":"+886 4 2319 9668","website":null,"wheelchair":false,"needsAddr":false},{"id":12244427391,"name":"明裕藥局","lat":24.1465633,"lng":120.6525769,"address":"403019臺中市西區向上路一段507號1樓","hasBabyChanging":false,"hasAccessible":false,"source":"OpenStreetMap","updatedAt":"2026-06-10T15:41:05.166Z","facilityType":"pharmacy","facilityLabel":"💊 藥局","phone":"+886 4 2472 3480","website":null,"wheelchair":false,"needsAddr":false},{"id":12244427392,"name":"晉強診所","lat":24.1469139,"lng":120.6535865,"address":"403008臺中市西區向上路一段456號1樓","hasBabyChanging":false,"hasAccessible":false,"source":"OpenStreetMap","updatedAt":"2026-06-10T15:41:05.166Z","facilityType":"clinic","facilityLabel":"🩺 診所","phone":"+886 4 2320 7570","website":null,"wheelchair":false,"needsAddr":false},{"id":12244427393,"name":"向上復健科診所","lat":24.1464759,"lng":120.6538572,"address":"403008臺中市西區向上路一段451號2樓、453號1樓","hasBabyChanging":false,"hasAccessible":false,"source":"OpenStreetMap","updatedAt":"2026-06-10T15:41:05.166Z","facilityType":"clinic","facilityLabel":"🦽 復健科","phone":"+886 4 2471 6768","website":null,"wheelchair":false,"needsAddr":false},{"id":12244427394,"name":"振聲藥局","lat":24.1465091,"lng":120.654087,"address":"403008臺中市西區向上路一段447號1樓","hasBabyChanging":false,"hasAccessible":false,"source":"OpenStreetMap","updatedAt":"2026-06-10T15:41:05.166Z","facilityType":"pharmacy","facilityLabel":"💊 藥局","phone":"+886 4 2472 1100","website":null,"wheelchair":false,"needsAddr":false},{"id":12244427395,"name":"劉耳鼻喉科診所","lat":24.1465107,"lng":120.654299,"address":"403008臺中市西區向上路一段437號1樓","hasBabyChanging":false,"hasAccessible":false,"source":"OpenStreetMap","updatedAt":"2026-06-10T15:41:05.166Z","facilityType":"clinic","facilityLabel":"👂 耳鼻喉科","phone":"+886 4 2473 4068","website":null,"wheelchair":false,"needsAddr":false},{"id":12244427396,"name":"范牙醫診所","lat":24.1465156,"lng":120.6545013,"address":"403008臺中市西區向上路一段429號1樓","hasBabyChanging":false,"hasAccessible":false,"source":"OpenStreetMap","updatedAt":"2026-06-10T15:41:05.166Z","facilityType":"dentist","facilityLabel":"🦷 牙醫","phone":"+886 4 2471 4916","website":null,"wheelchair":false,"needsAddr":false},{"id":12244427397,"name":"向陽眼科診所","lat":24.1469406,"lng":120.6542156,"address":"403008臺中市西區向上路一段438之1號","hasBabyChanging":false,"hasAccessible":false,"source":"OpenStreetMap","updatedAt":"2026-06-10T15:41:05.166Z","facilityType":"clinic","facilityLabel":"🩺 診所","phone":"+886 4 2328 6639","website":null,"wheelchair":false,"needsAddr":false},{"id":12244427398,"name":"雲玥中醫診所","lat":24.1469107,"lng":120.6553868,"address":"403008臺中市西區向上路一段406號1、2樓","hasBabyChanging":false,"hasAccessible":false,"source":"OpenStreetMap","updatedAt":"2026-06-10T15:41:05.166Z","facilityType":"clinic","facilityLabel":"🩺 診所","phone":"+886 4 2320 2165","website":null,"wheelchair":false,"needsAddr":false},{"id":12244427399,"name":"廣澤皮膚科診所","lat":24.1469252,"lng":120.6556636,"address":"403008臺中市西區向上路一段392號1樓","hasBabyChanging":false,"hasAccessible":false,"source":"OpenStreetMap","updatedAt":"2026-06-10T15:41:05.166Z","facilityType":"clinic","facilityLabel":"🩺 診所","phone":"+886 4 2328 5578","website":null,"wheelchair":false,"needsAddr":false},{"id":12244427400,"name":"佑全台中向上藥局","lat":24.1469188,"lng":120.6559005,"address":"403008臺中市西區向上路一段386號、388號1樓","hasBabyChanging":false,"hasAccessible":false,"source":"OpenStreetMap","updatedAt":"2026-06-10T15:41:05.166Z","facilityType":"pharmacy","facilityLabel":"💊 藥局","phone":"+886 4 2320 4732","website":null,"wheelchair":false,"needsAddr":false},{"id":12244442801,"name":"劉昭賢精神科診所","lat":24.1469188,"lng":120.6565313,"address":"403008臺中市西區向上路一段360號1樓","hasBabyChanging":false,"hasAccessible":false,"source":"OpenStreetMap","updatedAt":"2026-06-10T15:41:05.166Z","facilityType":"clinic","facilityLabel":"🧠 精神科","phone":"+886 4 2322 3123","website":null,"wheelchair":false,"needsAddr":false},{"id":12244442802,"name":"劉彥山診所","lat":24.1464678,"lng":120.6560584,"address":"403008臺中市西區向上路一段361號","hasBabyChanging":false,"hasAccessible":false,"source":"OpenStreetMap","updatedAt":"2026-06-10T15:41:05.166Z","facilityType":"clinic","facilityLabel":"👶 小兒科","phone":"+886 4 2472 6518","website":null,"wheelchair":false,"needsAddr":false},{"id":12244442803,"name":"向上中西藥局","lat":24.1464678,"lng":120.6561028,"address":"403008臺中市西區向上路一段359號1樓","hasBabyChanging":false,"hasAccessible":false,"source":"OpenStreetMap","updatedAt":"2026-06-10T15:41:05.166Z","facilityType":"pharmacy","facilityLabel":"💊 藥局","phone":"+886 4 2475 6688","website":null,"wheelchair":false,"needsAddr":false},{"id":12244442804,"name":"廖瓊玲婦產科診所","lat":24.1464902,"lng":120.6582888,"address":"403008臺中市西區向上路一段291號1樓及2樓","hasBabyChanging":false,"hasAccessible":false,"source":"OpenStreetMap","updatedAt":"2026-06-10T15:41:05.166Z","facilityType":"clinic","facilityLabel":"🩺 診所","phone":"+886 4 2301 1617","website":null,"wheelchair":false,"needsAddr":false},{"id":12244442805,"name":"賴憲宏皮膚科診所","lat":24.146494,"lng":120.6584192,"address":"403008臺中市西區向上路一段279號1樓","hasBabyChanging":false,"hasAccessible":false,"source":"OpenStreetMap","updatedAt":"2026-06-10T15:41:05.166Z","facilityType":"clinic","facilityLabel":"🩺 診所","phone":"+886 4 2302 7868","website":null,"wheelchair":false,"needsAddr":false},{"id":12244442806,"name":"匯康藥局","lat":24.1464928,"lng":120.6584748,"address":"403008臺中市西區向上路一段277號1樓","hasBabyChanging":false,"hasAccessible":false,"source":"OpenStreetMap","updatedAt":"2026-06-10T15:41:05.166Z","facilityType":"pharmacy","facilityLabel":"💊 藥局","phone":"+886 4 2301 4038","website":null,"wheelchair":false,"needsAddr":false},{"id":12244442807,"name":"李潤宇診所","lat":24.1465052,"lng":120.6593176,"address":"403008臺中市西區向上路一段251、253號1樓","hasBabyChanging":false,"hasAccessible":false,"source":"OpenStreetMap","updatedAt":"2026-06-10T15:41:05.166Z","facilityType":"clinic","facilityLabel":"🩺 診所","phone":"+886 4 2301 6659","website":null,"wheelchair":false,"needsAddr":false},{"id":12244442808,"name":"陳正和耳鼻喉科診所","lat":24.1469294,"lng":120.6592317,"address":"403008臺中市西區向上路一段226號","hasBabyChanging":false,"hasAccessible":false,"source":"OpenStreetMap","updatedAt":"2026-06-10T15:41:05.166Z","facilityType":"clinic","facilityLabel":"👂 耳鼻喉科","phone":"+886 4 2301 2729","website":null,"wheelchair":false,"needsAddr":false},{"id":12244442809,"name":"向上中醫診所","lat":24.146872,"lng":120.6589909,"address":"403008臺中市西區向上路一段236號","hasBabyChanging":false,"hasAccessible":false,"source":"OpenStreetMap","updatedAt":"2026-06-10T15:41:05.166Z","facilityType":"clinic","facilityLabel":"🩺 診所","phone":"+886 4 2301 6036","website":null,"wheelchair":false,"needsAddr":false},{"id":12244442810,"name":"美麗兒小兒科診所","lat":24.1468826,"lng":120.6585895,"address":"403008臺中市西區向上路一段246號1樓","hasBabyChanging":false,"hasAccessible":false,"source":"OpenStreetMap","updatedAt":"2026-06-10T15:41:05.166Z","facilityType":"clinic","facilityLabel":"👶 小兒科","phone":"+886 4 2301 0333","website":null,"wheelchair":false,"needsAddr":false},{"id":12244442811,"name":"雙喜婦產科診所","lat":24.1468896,"lng":120.6578859,"address":"403008臺中市西區向上路一段270之1號","hasBabyChanging":false,"hasAccessible":false,"source":"OpenStreetMap","updatedAt":"2026-06-10T15:41:05.166Z","facilityType":"clinic","facilityLabel":"🩺 診所","phone":"+886 4 2301 9667","website":null,"wheelchair":false,"needsAddr":false},{"id":12244442812,"name":"幸福大藥局","lat":24.1468647,"lng":120.6605015,"address":"403008臺中市西區向上路一段194號1樓","hasBabyChanging":false,"hasAccessible":false,"source":"OpenStreetMap","updatedAt":"2026-06-10T15:41:05.166Z","facilityType":"pharmacy","facilityLabel":"💊 藥局","phone":"+886 4 2302 6149","website":null,"wheelchair":false,"needsAddr":false},{"id":12244442813,"name":"九和大藥局向上店","lat":24.1468652,"lng":120.6605456,"address":"403008臺中市西區向上路一段192號1樓","hasBabyChanging":false,"hasAccessible":false,"source":"OpenStreetMap","updatedAt":"2026-06-10T15:41:05.166Z","facilityType":"pharmacy","facilityLabel":"💊 藥局","phone":"+886 4 2302 0148","website":null,"wheelchair":false,"needsAddr":false},{"id":12244442814,"name":"劉增安診所","lat":24.1468637,"lng":120.6606346,"address":"403008臺中市西區向上路一段188號","hasBabyChanging":false,"hasAccessible":false,"source":"OpenStreetMap","updatedAt":"2026-06-10T15:41:05.166Z","facilityType":"clinic","facilityLabel":"🩺 診所","phone":"+886 4 2302 1750","website":null,"wheelchair":false,"needsAddr":false},{"id":12244442815,"name":"麗新健保大藥局","lat":24.1469191,"lng":120.6612498,"address":"403008臺中市西區向上路一段162號","hasBabyChanging":false,"hasAccessible":false,"source":"OpenStreetMap","updatedAt":"2026-06-10T15:41:05.166Z","facilityType":"pharmacy","facilityLabel":"💊 藥局","phone":"+886 4 2301 7100","website":null,"wheelchair":false,"needsAddr":false},{"id":12244442816,"name":"博因中醫診所","lat":24.1469035,"lng":120.6623444,"address":"403008臺中市西區向上路一段134號1樓、136號1樓","hasBabyChanging":false,"hasAccessible":false,"source":"OpenStreetMap","updatedAt":"2026-06-10T15:41:05.166Z","facilityType":"clinic","facilityLabel":"🩺 診所","phone":"+886 4 2301 2333","website":null,"wheelchair":false,"needsAddr":false},{"id":12244442817,"name":"模範中醫診所","lat":24.1465376,"lng":120.6629772,"address":"403008臺中市西區向上路一段97號","hasBabyChanging":false,"hasAccessible":false,"source":"OpenStreetMap","updatedAt":"2026-06-10T15:41:05.166Z","facilityType":"clinic","facilityLabel":"🩺 診所","phone":"+886 4 2302 6570","website":null,"wheelchair":false,"needsAddr":false},{"id":12244442818,"name":"清慧中醫診所","lat":24.146525,"lng":120.6640746,"address":"403012臺中市西區向上路一段83號1樓、2樓","hasBabyChanging":false,"hasAccessible":false,"source":"OpenStreetMap","updatedAt":"2026-06-10T15:41:05.166Z","facilityType":"clinic","facilityLabel":"🩺 診所","phone":"+886 4 2301 6361","website":null,"wheelchair":false,"needsAddr":false},{"id":12244442819,"name":"三愛牙醫診所","lat":24.1458502,"lng":120.6641403,"address":"403008臺中市西區向上路一段79巷34號1樓","hasBabyChanging":false,"hasAccessible":false,"source":"OpenStreetMap","updatedAt":"2026-06-10T15:41:05.166Z","facilityType":"dentist","facilityLabel":"🦷 牙醫","phone":"+886 4 2302 5777","website":null,"wheelchair":false,"needsAddr":false},{"id":12244442820,"name":"林西藥局","lat":24.1469005,"lng":120.6661202,"address":"403008臺中市西區向上路一段46之1號","hasBabyChanging":false,"hasAccessible":false,"source":"OpenStreetMap","updatedAt":"2026-06-10T15:41:05.166Z","facilityType":"pharmacy","facilityLabel":"💊 藥局","phone":"+886 4 2301 4023","website":null,"wheelchair":false,"needsAddr":false},{"id":12244442821,"name":"杏倫皮膚科診所","lat":24.146909,"lng":120.666266,"address":"403008臺中市西區向上路一段42號1樓","hasBabyChanging":false,"hasAccessible":false,"source":"OpenStreetMap","updatedAt":"2026-06-10T15:41:05.166Z","facilityType":"clinic","facilityLabel":"🩺 診所","phone":"+886 4 2301 9098","website":null,"wheelchair":false,"needsAddr":false},{"id":12244442822,"name":"陳德憲診所","lat":24.1473533,"lng":120.6661296,"address":"403005臺中市西區模範街3巷9之1號","hasBabyChanging":false,"hasAccessible":false,"source":"OpenStreetMap","updatedAt":"2026-06-10T15:41:05.166Z","facilityType":"clinic","facilityLabel":"🩺 診所","phone":"+886 4 2302 7033","website":null,"wheelchair":false,"needsAddr":false},{"id":12244442823,"name":"存德中醫診所","lat":24.1477605,"lng":120.6660515,"address":"403005臺中市西區模範街9巷11號1樓","hasBabyChanging":false,"hasAccessible":false,"source":"OpenStreetMap","updatedAt":"2026-06-10T15:41:05.166Z","facilityType":"clinic","facilityLabel":"🩺 診所","phone":"+886 4 2302 5888","website":null,"wheelchair":false,"needsAddr":false},{"id":12244442824,"name":"柯達牙醫診所","lat":24.1477217,"lng":120.6668421,"address":"403005臺中市西區模範街12巷2號","hasBabyChanging":false,"hasAccessible":false,"source":"OpenStreetMap","updatedAt":"2026-06-10T15:41:05.166Z","facilityType":"dentist","facilityLabel":"🦷 牙醫","phone":"+886 4 2302 6337","website":null,"wheelchair":false,"needsAddr":false},{"id":12244442825,"name":"詹外科診所","lat":24.1493433,"lng":120.6695429,"address":"403001臺中市西區民權路231號","hasBabyChanging":false,"hasAccessible":false,"source":"OpenStreetMap","updatedAt":"2026-06-10T15:41:05.166Z","facilityType":"clinic","facilityLabel":"🩺 診所","phone":"+886 4 2301 1955","website":null,"wheelchair":false,"needsAddr":false},{"id":12244442826,"name":"弘道中醫診所","lat":24.1488689,"lng":120.6693637,"address":"403001臺中市西區民權路229巷1號1樓","hasBabyChanging":false,"hasAccessible":false,"source":"OpenStreetMap","updatedAt":"2026-06-10T15:41:05.166Z","facilityType":"clinic","facilityLabel":"🩺 診所","phone":"+886 4 2302 0201","website":null,"wheelchair":false,"needsAddr":false},{"id":12244442827,"name":"沈牙醫診所","lat":24.1470796,"lng":120.6695828,"address":"403001臺中市西區民權路211之4號","hasBabyChanging":false,"hasAccessible":false,"source":"OpenStreetMap","updatedAt":"2026-06-10T15:41:05.166Z","facilityType":"dentist","facilityLabel":"🦷 牙醫","phone":"+886 4 2305 1283","website":null,"wheelchair":false,"needsAddr":false},{"id":12244442828,"name":"世華牙醫診所","lat":24.145627,"lng":120.6707523,"address":"403251臺中市西區民權路187號","hasBabyChanging":false,"hasAccessible":false,"source":"OpenStreetMap","updatedAt":"2026-06-10T15:41:05.166Z","facilityType":"dentist","facilityLabel":"🦷 牙醫","phone":"+886 4 2229 5003","website":null,"wheelchair":false,"needsAddr":false},{"id":12244442829,"name":"林鼎堂中醫診所","lat":24.1467561,"lng":120.6700756,"address":"403009臺中市西區民權路288之1號1樓","hasBabyChanging":false,"hasAccessible":false,"source":"OpenStreetMap","updatedAt":"2026-06-10T15:41:05.166Z","facilityType":"clinic","facilityLabel":"🩺 診所","phone":"+886 4 2301 1678","website":null,"wheelchair":false,"needsAddr":false},{"id":12244442830,"name":"向日葵復健科診所","lat":24.1423675,"lng":120.6744074,"address":"403001臺中市西區民權路161號1、2、3樓","hasBabyChanging":false,"hasAccessible":false,"source":"OpenStreetMap","updatedAt":"2026-06-10T15:41:05.166Z","facilityType":"clinic","facilityLabel":"🦽 復健科","phone":"+886 4 2227 1717","website":null,"wheelchair":false,"needsAddr":false},{"id":12244442831,"name":"基安中醫診所","lat":24.1416614,"lng":120.6728242,"address":"403004臺中市西區中華路一段3之3號","hasBabyChanging":false,"hasAccessible":false,"source":"OpenStreetMap","updatedAt":"2026-06-10T15:41:05.166Z","facilityType":"clinic","facilityLabel":"🩺 診所","phone":"+886 4 2222 5822","website":null,"wheelchair":false,"needsAddr":false},{"id":12244442832,"name":"名華藥局","lat":24.1421008,"lng":120.6731942,"address":"403004臺中市西區中華路一段7號1樓","hasBabyChanging":false,"hasAccessible":false,"source":"OpenStreetMap","updatedAt":"2026-06-10T15:41:05.166Z","facilityType":"pharmacy","facilityLabel":"💊 藥局","phone":"+886 4 2223 1187","website":null,"wheelchair":false,"needsAddr":false},{"id":12244442833,"name":"敦品牙醫診所","lat":24.1421948,"lng":120.673948,"address":"403004臺中市西區中華路一段8之5號","hasBabyChanging":false,"hasAccessible":false,"source":"OpenStreetMap","updatedAt":"2026-06-10T15:41:05.166Z","facilityType":"dentist","facilityLabel":"🦷 牙醫","phone":"+886 4 2221 7969","website":null,"wheelchair":false,"needsAddr":false},{"id":12244442834,"name":"林孟賢婦產科診所","lat":24.1422774,"lng":120.6713857,"address":"403002臺中市西區民生路145之4號","hasBabyChanging":false,"hasAccessible":false,"source":"OpenStreetMap","updatedAt":"2026-06-10T15:41:05.166Z","facilityType":"clinic","facilityLabel":"🩺 診所","phone":"+886 4 2222 7755","website":null,"wheelchair":false,"needsAddr":false},{"id":12244442835,"name":"婕康藥妝藥局","lat":24.1427032,"lng":120.6709575,"address":"403002臺中市西區民生路159號1樓","hasBabyChanging":false,"hasAccessible":false,"source":"OpenStreetMap","updatedAt":"2026-06-10T15:41:05.166Z","facilityType":"pharmacy","facilityLabel":"💊 藥局","phone":"+886 4 2229 8777","website":null,"wheelchair":false,"needsAddr":false},{"id":12244442836,"name":"信安中醫診所","lat":24.1460775,"lng":120.6514299,"address":"403019臺中市西區大進街210號1樓","hasBabyChanging":false,"hasAccessible":false,"source":"OpenStreetMap","updatedAt":"2026-06-10T15:41:05.166Z","facilityType":"dentist","facilityLabel":"🦷 牙醫","phone":"+886 4 2471 6398","website":null,"wheelchair":false,"needsAddr":false},{"id":12244442837,"name":"品登牙醫診所","lat":24.1472275,"lng":120.651421,"address":"403019臺中市西區大進街292號1、2樓","hasBabyChanging":false,"hasAccessible":false,"source":"OpenStreetMap","updatedAt":"2026-06-10T15:41:05.166Z","facilityType":"dentist","facilityLabel":"🦷 牙醫","phone":"+886 4 2320 6620","website":null,"wheelchair":false,"needsAddr":false},{"id":12244442838,"name":"沐澄診所","lat":24.1486924,"lng":120.6519197,"address":"403026臺中市西區大墩十一街109號1、2樓、地下層","hasBabyChanging":false,"hasAccessible":false,"source":"OpenStreetMap","updatedAt":"2026-06-10T15:41:05.166Z","facilityType":"clinic","facilityLabel":"🩺 診所","phone":"+886 4 2320 0101","website":null,"wheelchair":false,"needsAddr":false},{"id":12244442839,"name":"溫寓牙醫診所","lat":24.1486445,"lng":120.651622,"address":"403026臺中市西區大墩十一街115號1、2樓","hasBabyChanging":false,"hasAccessible":false,"source":"OpenStreetMap","updatedAt":"2026-06-10T15:41:05.166Z","facilityType":"dentist","facilityLabel":"🦷 牙醫","phone":"+886 4 2320 6068","website":null,"wheelchair":false,"needsAddr":false},{"id":12244442840,"name":"東興中醫診所","lat":24.1489276,"lng":120.6532858,"address":"403019臺中市西區東興路三段126之3號1樓","hasBabyChanging":false,"hasAccessible":false,"source":"OpenStreetMap","updatedAt":"2026-06-10T15:41:05.166Z","facilityType":"clinic","facilityLabel":"🩺 診所","phone":"+886 4 2310 0485","website":null,"wheelchair":false,"needsAddr":false},{"id":12244442841,"name":"陳家驊骨科診所","lat":24.1493239,"lng":120.653275,"address":"403019臺中市西區東興路三段136號1、2樓","hasBabyChanging":false,"hasAccessible":false,"source":"OpenStreetMap","updatedAt":"2026-06-10T15:41:05.166Z","facilityType":"clinic","facilityLabel":"🩺 診所","phone":"+886 4 2310 8085","website":null,"wheelchair":false,"needsAddr":false},{"id":12244442842,"name":"施英富婦產科診所","lat":24.1529047,"lng":120.6532216,"address":"403016臺中市西區東興路三段226、228、230號1、2樓","hasBabyChanging":false,"hasAccessible":false,"source":"OpenStreetMap","updatedAt":"2026-06-10T15:41:05.166Z","facilityType":"clinic","facilityLabel":"🩺 診所","phone":"+886 4 2329 3176","website":null,"wheelchair":false,"needsAddr":false},{"id":12244442843,"name":"智欣診所","lat":24.1552414,"lng":120.6537809,"address":"403016臺中市西區東興路三段272號1樓","hasBabyChanging":false,"hasAccessible":false,"source":"OpenStreetMap","updatedAt":"2026-06-10T15:41:05.166Z","facilityType":"clinic","facilityLabel":"🩺 診所","phone":"+886 4 2328 7410","website":null,"wheelchair":false,"needsAddr":false},{"id":12244442844,"name":"智悅藥局","lat":24.1552111,"lng":120.6537134,"address":"403016臺中市西區東興路三段272之1號1樓","hasBabyChanging":false,"hasAccessible":false,"source":"OpenStreetMap","updatedAt":"2026-06-10T15:41:05.166Z","facilityType":"pharmacy","facilityLabel":"💊 藥局","phone":"+886 4 2328 7410","website":null,"wheelchair":false,"needsAddr":false},{"id":12244442846,"name":"崇益堂中醫診所","lat":24.154833,"lng":120.655128,"address":"403016臺中市西區大隆路15號1樓","hasBabyChanging":false,"hasAccessible":false,"source":"OpenStreetMap","updatedAt":"2026-06-10T15:41:05.166Z","facilityType":"clinic","facilityLabel":"🩺 診所","phone":"+886 4 2328 0939","website":null,"wheelchair":false,"needsAddr":false},{"id":12244442847,"name":"保順中醫診所","lat":24.1554858,"lng":120.6547971,"address":"403016臺中市西區大隆路32號1樓及夾層","hasBabyChanging":false,"hasAccessible":false,"source":"OpenStreetMap","updatedAt":"2026-06-10T15:41:05.166Z","facilityType":"clinic","facilityLabel":"🩺 診所","phone":"+886 4 2323 2568","website":null,"wheelchair":false,"needsAddr":false},{"id":12244442848,"name":"佑恩藥師藥局","lat":24.1522399,"lng":120.6553325,"address":"403016臺中市西區精誠路67號1樓","hasBabyChanging":false,"hasAccessible":false,"source":"OpenStreetMap","updatedAt":"2026-06-10T15:41:05.166Z","facilityType":"pharmacy","facilityLabel":"💊 藥局","phone":"+886 4 2310 0058","website":null,"wheelchair":false,"needsAddr":false},{"id":12244442849,"name":"盧牙醫診所","lat":24.1527152,"lng":120.6549173,"address":"403016臺中市西區精誠路140號","hasBabyChanging":false,"hasAccessible":false,"source":"OpenStreetMap","updatedAt":"2026-06-10T15:41:05.166Z","facilityType":"dentist","facilityLabel":"🦷 牙醫","phone":"+886 4 2325 7517","website":null,"wheelchair":false,"needsAddr":false},{"id":12244442850,"name":"德恩藥師藥局","lat":24.1494868,"lng":120.6549196,"address":"403026臺中市西區精誠路252號1樓","hasBabyChanging":false,"hasAccessible":false,"source":"OpenStreetMap","updatedAt":"2026-06-10T15:41:05.166Z","facilityType":"pharmacy","facilityLabel":"💊 藥局","phone":"+886 4 2310 2358","website":null,"wheelchair":false,"needsAddr":false},{"id":12244442851,"name":"精誠藥局","lat":24.1484565,"lng":120.655331,"address":"403026臺中市西區精誠路195號1樓","hasBabyChanging":false,"hasAccessible":false,"source":"OpenStreetMap","updatedAt":"2026-06-10T15:41:05.166Z","facilityType":"pharmacy","facilityLabel":"💊 藥局","phone":"+886 4 2325 6226","website":null,"wheelchair":false,"needsAddr":false},{"id":12244442852,"name":"心和牙醫診所","lat":24.1460213,"lng":120.655331,"address":"403026臺中市西區精誠路277號1樓、地下1樓","hasBabyChanging":false,"hasAccessible":false,"source":"OpenStreetMap","updatedAt":"2026-06-10T15:41:05.166Z","facilityType":"dentist","facilityLabel":"🦷 牙醫","phone":"+886 4 2475 6557","website":null,"wheelchair":false,"needsAddr":false},{"id":12244442853,"name":"玉峰牙醫診所","lat":24.1459367,"lng":120.6549242,"address":"403026臺中市西區精誠路388號","hasBabyChanging":false,"hasAccessible":false,"source":"OpenStreetMap","updatedAt":"2026-06-10T15:41:05.166Z","facilityType":"dentist","facilityLabel":"🦷 牙醫","phone":"+886 4 2473 0349","website":null,"wheelchair":false,"needsAddr":false},{"id":12244442854,"name":"皇家牙醫診所","lat":24.1458018,"lng":120.6553287,"address":"403026臺中市西區精誠路285號1樓","hasBabyChanging":false,"hasAccessible":false,"source":"OpenStreetMap","updatedAt":"2026-06-10T15:41:05.166Z","facilityType":"dentist","facilityLabel":"🦷 牙醫","phone":"+886 4 2473 8000","website":null,"wheelchair":false,"needsAddr":false},{"id":12244442855,"name":"昕展牙醫診所","lat":24.1450769,"lng":120.6536308,"address":"403426臺中市西區向上南路一段166之5號1、2樓","hasBabyChanging":false,"hasAccessible":false,"source":"OpenStreetMap","updatedAt":"2026-06-10T15:41:05.166Z","facilityType":"dentist","facilityLabel":"🦷 牙醫","phone":"+886 4 2473 0325","website":null,"wheelchair":false,"needsAddr":false},{"id":12244442856,"name":"弘恩牙醫診所","lat":24.1451551,"lng":120.6526404,"address":"403019臺中市西區向上南路一段178號","hasBabyChanging":false,"hasAccessible":false,"source":"OpenStreetMap","updatedAt":"2026-06-10T15:41:05.166Z","facilityType":"dentist","facilityLabel":"🦷 牙醫","phone":"+886 4 2472 1726","website":null,"wheelchair":false,"needsAddr":false},{"id":12244442857,"name":"淨涵中醫診所","lat":24.1448197,"lng":120.6558774,"address":"403019臺中市西區向上南路一段131之3號1樓","hasBabyChanging":false,"hasAccessible":false,"source":"OpenStreetMap","updatedAt":"2026-06-10T15:41:05.166Z","facilityType":"clinic","facilityLabel":"🩺 診所","phone":"+886 4 2471 4299","website":null,"wheelchair":false,"needsAddr":false},{"id":12244442858,"name":"瑞美牙醫診所","lat":24.1450978,"lng":120.656568,"address":"403019臺中市西區向上南路一段108、110號1樓","hasBabyChanging":false,"hasAccessible":false,"source":"OpenStreetMap","updatedAt":"2026-06-10T15:41:05.166Z","facilityType":"dentist","facilityLabel":"🦷 牙醫","phone":"+886 4 2472 3077","website":null,"wheelchair":false,"needsAddr":false},{"id":12244442859,"name":"康澄診所","lat":24.1447815,"lng":120.6510762,"address":"403019臺中市西區向上南路一段215號1樓、2樓及217號1樓、2樓","hasBabyChanging":false,"hasAccessible":false,"source":"OpenStreetMap","updatedAt":"2026-06-10T15:41:05.166Z","facilityType":"clinic","facilityLabel":"🩺 診所","phone":"+886 4 2472 0510","website":null,"wheelchair":false,"needsAddr":false},{"id":12244442860,"name":"文心美學牙醫診所","lat":24.1447391,"lng":120.6501854,"address":"403019臺中市西區向上南路一段247號1樓","hasBabyChanging":false,"hasAccessible":false,"source":"OpenStreetMap","updatedAt":"2026-06-10T15:41:05.166Z","facilityType":"dentist","facilityLabel":"🦷 牙醫","phone":"+886 4 2472 0016","website":null,"wheelchair":false,"needsAddr":false},{"id":12244442861,"name":"中美偕診所","lat":24.1457371,"lng":120.6600388,"address":"403014臺中市西區中美街145號","hasBabyChanging":false,"hasAccessible":false,"source":"OpenStreetMap","updatedAt":"2026-06-10T15:41:05.166Z","facilityType":"clinic","facilityLabel":"🩺 診所","phone":"+886 4 2301 4008","website":null,"wheelchair":false,"needsAddr":false},{"id":12244442862,"name":"祥祐中醫診所","lat":24.1458705,"lng":120.6600433,"address":"403014臺中市西區中美街149號1樓","hasBabyChanging":false,"hasAccessible":false,"source":"OpenStreetMap","updatedAt":"2026-06-10T15:41:05.166Z","facilityType":"clinic","facilityLabel":"🩺 診所","phone":"+886 4 2305 5387","website":null,"wheelchair":false,"needsAddr":false},{"id":12244442863,"name":"元泉藥局","lat":24.1487374,"lng":120.6600451,"address":"403014臺中市西區中美街257號","hasBabyChanging":false,"hasAccessible":false,"source":"OpenStreetMap","updatedAt":"2026-06-10T15:41:05.166Z","facilityType":"pharmacy","facilityLabel":"💊 藥局","phone":"+886 4 2301 5503","website":null,"wheelchair":false,"needsAddr":false},{"id":12244442864,"name":"瑞仁牙醫診所","lat":24.1480801,"lng":120.6603388,"address":"403014臺中市西區中美街228號","hasBabyChanging":false,"hasAccessible":false,"source":"OpenStreetMap","updatedAt":"2026-06-10T15:41:05.166Z","facilityType":"dentist","facilityLabel":"🦷 牙醫","phone":"+886 4 2301 1360","website":null,"wheelchair":false,"needsAddr":false},{"id":12244442865,"name":"圓運動中醫診所","lat":24.1494702,"lng":120.6603472,"address":"403014臺中市西區中美街280號1樓","hasBabyChanging":false,"hasAccessible":false,"source":"OpenStreetMap","updatedAt":"2026-06-10T15:41:05.166Z","facilityType":"clinic","facilityLabel":"🩺 診所","phone":"+886 4 2302 3080","website":null,"wheelchair":false,"needsAddr":false},{"id":12244442866,"name":"林正興牙醫診所","lat":24.1495099,"lng":120.6603461,"address":"403014臺中市西區中美街282號","hasBabyChanging":false,"hasAccessible":false,"source":"OpenStreetMap","updatedAt":"2026-06-10T15:41:05.166Z","facilityType":"dentist","facilityLabel":"🦷 牙醫","phone":"+886 4 2302 1505","website":null,"wheelchair":false,"needsAddr":false},{"id":12244442867,"name":"陽光藥局","lat":24.1497631,"lng":120.6600418,"address":"403014臺中市西區中美街305號1樓","hasBabyChanging":false,"hasAccessible":false,"source":"OpenStreetMap","updatedAt":"2026-06-10T15:41:05.166Z","facilityType":"pharmacy","facilityLabel":"💊 藥局","phone":"+886 4 2302 0711","website":null,"wheelchair":false,"needsAddr":false},{"id":12244442868,"name":"立全中醫診所","lat":24.1499323,"lng":120.6600205,"address":"403014臺中市西區中美街319號1樓","hasBabyChanging":false,"hasAccessible":false,"source":"OpenStreetMap","updatedAt":"2026-06-10T15:41:05.166Z","facilityType":"clinic","facilityLabel":"🩺 診所","phone":"+886 4 2301 4931","website":null,"wheelchair":false,"needsAddr":false},{"id":12244442869,"name":"豐樂牙醫診所","lat":24.1445145,"lng":120.6600588,"address":"403014臺中市西區中美街113號1樓","hasBabyChanging":false,"hasAccessible":false,"source":"OpenStreetMap","updatedAt":"2026-06-10T15:41:05.166Z","facilityType":"dentist","facilityLabel":"🦷 牙醫","phone":"+886 4 2301 0833","website":null,"wheelchair":false,"needsAddr":false},{"id":12244442870,"name":"沐陽牙醫診所","lat":24.143378,"lng":120.6603412,"address":"403014臺中市西區中美街56號1、2樓","hasBabyChanging":false,"hasAccessible":false,"source":"OpenStreetMap","updatedAt":"2026-06-10T15:41:05.166Z","facilityType":"dentist","facilityLabel":"🦷 牙醫","phone":"+886 4 2376 2009","website":null,"wheelchair":false,"needsAddr":false},{"id":12244442871,"name":"超仁診所","lat":24.142624,"lng":120.6575628,"address":"403021臺中市西區忠明南路373號1樓、2樓","hasBabyChanging":false,"hasAccessible":false,"source":"OpenStreetMap","updatedAt":"2026-06-10T15:41:05.166Z","facilityType":"clinic","facilityLabel":"🩺 診所","phone":"+886 4 2376 9118","website":null,"wheelchair":false,"needsAddr":false},{"id":12244442872,"name":"康仕美牙醫診所","lat":24.1427565,"lng":120.6576059,"address":"403021臺中市西區忠明南路371號1樓","hasBabyChanging":false,"hasAccessible":false,"source":"OpenStreetMap","updatedAt":"2026-06-10T15:41:05.166Z","facilityType":"dentist","facilityLabel":"🦷 牙醫","phone":"+886 4 2377 0088","website":null,"wheelchair":false,"needsAddr":false},{"id":12244442873,"name":"貝爾牙醫診所","lat":24.1435575,"lng":120.6577671,"address":"403525臺中市西區忠明南路347之1號1樓","hasBabyChanging":false,"hasAccessible":false,"source":"OpenStreetMap","updatedAt":"2026-06-10T15:41:05.166Z","facilityType":"dentist","facilityLabel":"🦷 牙醫","phone":"+886 4 2376 3993","website":null,"wheelchair":false,"needsAddr":false},