{"city":"台北市","category":"medical","updatedAt":"2026-06-11T02:19:43.584Z","rev":1,"count":1527,"items":[{"id":1735966197,"name":"信康藥局","lat":25.0295699,"lng":121.5185491,"address":null,"hasBabyChanging":false,"hasAccessible":false,"source":"OpenStreetMap","updatedAt":"2026-06-10T15:41:05.166Z","facilityType":"pharmacy","facilityLabel":"💊 藥局","phone":null,"website":null,"wheelchair":false,"needsAddr":true},{"id":1735966198,"name":"健康人生藥局","lat":25.029345,"lng":121.5187372,"address":null,"hasBabyChanging":false,"hasAccessible":false,"source":"OpenStreetMap","updatedAt":"2026-06-10T15:41:05.166Z","facilityType":"pharmacy","facilityLabel":"💊 藥局","phone":null,"website":null,"wheelchair":false,"needsAddr":true},{"id":1971320881,"name":"古亭適康復健科診所","lat":25.0241626,"lng":121.5241555,"address":"100台北市中正區南昌路二段200號","hasBabyChanging":false,"hasAccessible":false,"source":"OpenStreetMap","updatedAt":"2026-06-10T15:41:05.166Z","facilityType":"clinic","facilityLabel":"🦽 復健科","phone":null,"website":null,"wheelchair":false,"needsAddr":false},{"id":2292591622,"name":"屈臣氏","lat":25.0148506,"lng":121.5339113,"address":"100台北市中正區羅斯福路四段56號","hasBabyChanging":false,"hasAccessible":false,"source":"OpenStreetMap","updatedAt":"2026-06-10T15:41:05.166Z","facilityType":"pharmacy","facilityLabel":"💊 藥妝","phone":null,"website":null,"wheelchair":false,"needsAddr":false},{"id":2318385495,"name":"寶雅生活館","lat":25.0268373,"lng":121.5222396,"address":"臺北市中正區羅斯福路二段100號1樓","hasBabyChanging":false,"hasAccessible":false,"source":"OpenStreetMap","updatedAt":"2026-06-10T15:41:05.166Z","facilityType":"pharmacy","facilityLabel":"💊 藥局","phone":"+886 2 2365 9977","website":null,"wheelchair":false,"needsAddr":false},{"id":2419112989,"name":"屈臣氏","lat":25.044165,"lng":121.5130665,"address":"10044臺北市中正區重慶南路一段56號","hasBabyChanging":false,"hasAccessible":false,"source":"OpenStreetMap","updatedAt":"2026-06-10T15:41:05.166Z","facilityType":"pharmacy","facilityLabel":"💊 藥妝","phone":"+886 2 2382 5935","website":"https://www.watsons.com.tw/","wheelchair":false,"needsAddr":false},{"id":2441153353,"name":"啟琮牙醫","lat":25.0435698,"lng":121.5134665,"address":"100台北市中正區襄陽路43號","hasBabyChanging":false,"hasAccessible":false,"source":"OpenStreetMap","updatedAt":"2026-06-10T15:41:05.166Z","facilityType":"dentist","facilityLabel":"🦷 牙醫","phone":"+886 2 23113623","website":null,"wheelchair":false,"needsAddr":false},{"id":2518367569,"name":"屈臣氏","lat":25.0454224,"lng":121.5149119,"address":"10047臺北市中正區館前路18號1樓","hasBabyChanging":false,"hasAccessible":false,"source":"OpenStreetMap","updatedAt":"2026-06-10T15:41:05.166Z","facilityType":"pharmacy","facilityLabel":"💊 藥妝","phone":"+886 2 2389 8169","website":"https://www.watsons.com.tw/","wheelchair":false,"needsAddr":false},{"id":2621123542,"name":"博齡牙醫診所","lat":25.0149991,"lng":121.5336864,"address":null,"hasBabyChanging":false,"hasAccessible":false,"source":"OpenStreetMap","updatedAt":"2026-06-10T15:41:05.166Z","facilityType":"dentist","facilityLabel":"🦷 牙醫","phone":null,"website":null,"wheelchair":false,"needsAddr":true},{"id":2658813024,"name":"橙品牙醫","lat":25.0379058,"lng":121.5324645,"address":"台北市中正區仁愛路二段110號2樓","hasBabyChanging":false,"hasAccessible":false,"source":"OpenStreetMap","updatedAt":"2026-06-10T15:41:05.166Z","facilityType":"dentist","facilityLabel":"🦷 牙醫","phone":"+886 2-2357-0689","website":null,"wheelchair":false,"needsAddr":false},{"id":2679828592,"name":"長齡牙醫","lat":25.0206215,"lng":121.5274778,"address":"100臺北市中正區師大路163號","hasBabyChanging":false,"hasAccessible":false,"source":"OpenStreetMap","updatedAt":"2026-06-10T15:41:05.166Z","facilityType":"dentist","facilityLabel":"🦷 牙醫","phone":null,"website":null,"wheelchair":false,"needsAddr":false},{"id":2680126440,"name":"蕭耳鼻喉科診所","lat":25.0227892,"lng":121.523507,"address":"10085臺北市中正區汀州路二段261號","hasBabyChanging":false,"hasAccessible":false,"source":"OpenStreetMap","updatedAt":"2026-06-10T15:41:05.166Z","facilityType":"clinic","facilityLabel":"👂 耳鼻喉科","phone":"+886-2-2365-3284","website":null,"wheelchair":false,"needsAddr":false},{"id":2680131939,"name":"朱小兒科診所","lat":25.0220394,"lng":121.5240943,"address":"10088臺北市中正區汀州路二段220號1樓","hasBabyChanging":false,"hasAccessible":false,"source":"OpenStreetMap","updatedAt":"2026-06-10T15:41:05.166Z","facilityType":"clinic","facilityLabel":"👶 小兒科","phone":"+886-2-2365-1810","website":null,"wheelchair":false,"needsAddr":false},{"id":2680141282,"name":"惠森復健科診所","lat":25.0211099,"lng":121.5254319,"address":"100臺北市中正區師大路172號","hasBabyChanging":false,"hasAccessible":false,"source":"OpenStreetMap","updatedAt":"2026-06-10T15:41:05.166Z","facilityType":"clinic","facilityLabel":"🦽 復健科","phone":null,"website":null,"wheelchair":false,"needsAddr":false},{"id":2751198266,"name":"立達診所","lat":25.0445926,"lng":121.5231261,"address":"林森南路","hasBabyChanging":false,"hasAccessible":false,"source":"OpenStreetMap","updatedAt":"2026-06-10T15:41:05.166Z","facilityType":"clinic","facilityLabel":"🩺 診所","phone":null,"website":null,"wheelchair":false,"needsAddr":false},{"id":2755478370,"name":"金旺動物醫院","lat":25.0432051,"lng":121.5250372,"address":"臺北市中正區青島東路 1","hasBabyChanging":false,"hasAccessible":false,"source":"OpenStreetMap","updatedAt":"2026-06-10T15:41:05.166Z","facilityType":"vet","facilityLabel":"🐾 動物醫院","phone":null,"website":null,"wheelchair":false,"needsAddr":false},{"id":2776684642,"name":"九大牙醫","lat":25.0428123,"lng":121.530284,"address":null,"hasBabyChanging":false,"hasAccessible":false,"source":"OpenStreetMap","updatedAt":"2026-06-10T15:41:05.166Z","facilityType":"dentist","facilityLabel":"🦷 牙醫","phone":null,"website":null,"wheelchair":false,"needsAddr":true},{"id":2782015577,"name":"順天堂藥局","lat":25.0454515,"lng":121.5171173,"address":null,"hasBabyChanging":false,"hasAccessible":false,"source":"OpenStreetMap","updatedAt":"2026-06-10T15:41:05.166Z","facilityType":"pharmacy","facilityLabel":"💊 藥局","phone":null,"website":null,"wheelchair":false,"needsAddr":true},{"id":2861217008,"name":"柯滄銘婦產科","lat":25.0429342,"lng":121.522622,"address":"100臺北市中正區林森南路10號","hasBabyChanging":false,"hasAccessible":false,"source":"OpenStreetMap","updatedAt":"2026-06-10T15:41:05.166Z","facilityType":"clinic","facilityLabel":"🩺 診所","phone":"+886-2-3393-3939","website":null,"wheelchair":false,"needsAddr":false},{"id":3007181107,"name":"康是美","lat":25.0422383,"lng":121.5093085,"address":null,"hasBabyChanging":false,"hasAccessible":false,"source":"OpenStreetMap","updatedAt":"2026-06-10T15:41:05.166Z","facilityType":"pharmacy","facilityLabel":"💊 藥妝","phone":null,"website":null,"wheelchair":false,"needsAddr":true},{"id":3110408102,"name":"杏一","lat":25.0298037,"lng":121.5201062,"address":"100027臺北市中正區福州街1號","hasBabyChanging":false,"hasAccessible":true,"source":"OpenStreetMap","updatedAt":"2026-06-10T15:41:05.166Z","facilityType":"pharmacy","facilityLabel":"💊 藥局","phone":"+886 2 2343 2503","website":"https://www.medfirst.com.tw/","wheelchair":true,"needsAddr":false},{"id":3192047697,"name":"杏安牙醫診所","lat":25.0224371,"lng":121.5241028,"address":"10088臺北市中正區金門街9-6號","hasBabyChanging":false,"hasAccessible":false,"source":"OpenStreetMap","updatedAt":"2026-06-10T15:41:05.166Z","facilityType":"dentist","facilityLabel":"🦷 牙醫","phone":"+886-2-2368-7807","website":null,"wheelchair":false,"needsAddr":false},{"id":3311218080,"name":"遠大中醫診所","lat":25.0276954,"lng":121.521692,"address":"100臺北市中正區羅斯福路二段56號","hasBabyChanging":false,"hasAccessible":false,"source":"OpenStreetMap","updatedAt":"2026-06-10T15:41:05.166Z","facilityType":"clinic","facilityLabel":"🩺 診所","phone":null,"website":null,"wheelchair":false,"needsAddr":false},{"id":3506510794,"name":"日藥本舖","lat":25.0339473,"lng":121.5298022,"address":null,"hasBabyChanging":false,"hasAccessible":false,"source":"OpenStreetMap","updatedAt":"2026-06-10T15:41:05.166Z","facilityType":"pharmacy","facilityLabel":"💊 藥局","phone":null,"website":null,"wheelchair":false,"needsAddr":true},{"id":3597899314,"name":"大樹藥局","lat":25.0347439,"lng":121.5074504,"address":"100057臺北市中正區延平南路210號1樓","hasBabyChanging":false,"hasAccessible":false,"source":"OpenStreetMap","updatedAt":"2026-06-10T15:41:05.166Z","facilityType":"pharmacy","facilityLabel":"💊 藥局","phone":"+886 2 2382 6211","website":"https://www.greattree.com.tw","wheelchair":false,"needsAddr":false},{"id":3649178826,"name":"屈臣氏","lat":25.0397811,"lng":121.5325421,"address":"100臺北市中正區新生南路一段104號","hasBabyChanging":false,"hasAccessible":false,"source":"OpenStreetMap","updatedAt":"2026-06-10T15:41:05.166Z","facilityType":"pharmacy","facilityLabel":"💊 藥妝","phone":"+886 2 2357 7916","website":null,"wheelchair":false,"needsAddr":false},{"id":3724770027,"name":"禾馨婦產科","lat":25.0430542,"lng":121.5139668,"address":"100台北市中正區懷寧街78號","hasBabyChanging":false,"hasAccessible":false,"source":"OpenStreetMap","updatedAt":"2026-06-10T15:41:05.166Z","facilityType":"clinic","facilityLabel":"🩺 診所","phone":"+886-2-23612323","website":"https://www.mfmclinic.com.tw/","wheelchair":false,"needsAddr":false},{"id":3725463405,"name":"中華西藥房","lat":25.0422118,"lng":121.5138336,"address":null,"hasBabyChanging":false,"hasAccessible":false,"source":"OpenStreetMap","updatedAt":"2026-06-10T15:41:05.166Z","facilityType":"pharmacy","facilityLabel":"💊 藥局","phone":null,"website":null,"wheelchair":false,"needsAddr":true},{"id":3811141034,"name":"平安身心健康診所","lat":25.0187594,"lng":121.5298476,"address":"100臺北市中正區羅斯福路三段218號","hasBabyChanging":false,"hasAccessible":false,"source":"OpenStreetMap","updatedAt":"2026-06-10T15:41:05.166Z","facilityType":"clinic","facilityLabel":"🩺 診所","phone":null,"website":null,"wheelchair":false,"needsAddr":false},{"id":3814144246,"name":"紹毅內兒科","lat":25.0438326,"lng":121.531131,"address":"100臺北市中正區八德路一段52號","hasBabyChanging":false,"hasAccessible":false,"source":"OpenStreetMap","updatedAt":"2026-06-10T15:41:05.166Z","facilityType":"clinic","facilityLabel":"👶 小兒科","phone":null,"website":null,"wheelchair":false,"needsAddr":false},{"id":3815225762,"name":"71恩典藥局","lat":25.034498,"lng":121.5267685,"address":"100台北市中正區信義路二段71號","hasBabyChanging":false,"hasAccessible":false,"source":"OpenStreetMap","updatedAt":"2026-06-10T15:41:05.166Z","facilityType":"pharmacy","facilityLabel":"💊 藥局","phone":"+886 2 2322 3371","website":"https://www.facebook.com/71gracepharmacy/?fref=ts","wheelchair":false,"needsAddr":false},{"id":3862353611,"name":"蔡明勳診所","lat":25.0280148,"lng":121.5214573,"address":null,"hasBabyChanging":false,"hasAccessible":false,"source":"OpenStreetMap","updatedAt":"2026-06-10T15:41:05.166Z","facilityType":"clinic","facilityLabel":"🩺 診所","phone":null,"website":null,"wheelchair":false,"needsAddr":true},{"id":3867793891,"name":"立赫藥局","lat":25.0432156,"lng":121.5326046,"address":"100臺北市中正區新生南路一段16之2號","hasBabyChanging":false,"hasAccessible":false,"source":"OpenStreetMap","updatedAt":"2026-06-10T15:41:05.166Z","facilityType":"pharmacy","facilityLabel":"💊 藥局","phone":null,"website":null,"wheelchair":false,"needsAddr":false},{"id":3881536252,"name":"屈臣氏","lat":25.044594,"lng":121.5161697,"address":null,"hasBabyChanging":false,"hasAccessible":false,"source":"OpenStreetMap","updatedAt":"2026-06-10T15:41:05.166Z","facilityType":"pharmacy","facilityLabel":"💊 藥妝","phone":null,"website":null,"wheelchair":false,"needsAddr":true},{"id":3887820753,"name":"劉秉城診所","lat":25.0402698,"lng":121.5324873,"address":null,"hasBabyChanging":false,"hasAccessible":false,"source":"OpenStreetMap","updatedAt":"2026-06-10T15:41:05.166Z","facilityType":"clinic","facilityLabel":"🩺 診所","phone":null,"website":null,"wheelchair":false,"needsAddr":true},{"id":3887820857,"name":"大安皮膚專科","lat":25.0338505,"lng":121.5321457,"address":null,"hasBabyChanging":false,"hasAccessible":false,"source":"OpenStreetMap","updatedAt":"2026-06-10T15:41:05.166Z","facilityType":"clinic","facilityLabel":"🩺 診所","phone":null,"website":null,"wheelchair":false,"needsAddr":true},{"id":3888706246,"name":"長虹診所","lat":25.0455422,"lng":121.5174026,"address":"10041臺北市中正區公園路13號","hasBabyChanging":false,"hasAccessible":false,"source":"OpenStreetMap","updatedAt":"2026-06-10T15:41:05.166Z","facilityType":"clinic","facilityLabel":"🩺 診所","phone":"+886 2 2312 2266","website":"https://www.laserone.com.tw/","wheelchair":false,"needsAddr":false},{"id":3888706247,"name":"台北諾貝爾眼科診所","lat":25.0455017,"lng":121.5173943,"address":"10041臺北市中正區公園路13號5樓","hasBabyChanging":false,"hasAccessible":false,"source":"OpenStreetMap","updatedAt":"2026-06-10T15:41:05.166Z","facilityType":"clinic","facilityLabel":"🩺 診所","phone":"+886 2 2370 5666","website":"https://www.nobeleye.com.tw/","wheelchair":false,"needsAddr":false},{"id":3908055732,"name":"碩田牙醫診所","lat":25.0446322,"lng":121.5229727,"address":null,"hasBabyChanging":false,"hasAccessible":false,"source":"OpenStreetMap","updatedAt":"2026-06-10T15:41:05.166Z","facilityType":"dentist","facilityLabel":"🦷 牙醫","phone":null,"website":null,"wheelchair":false,"needsAddr":true},{"id":3908055747,"name":"樸鼎牙醫","lat":25.0454854,"lng":121.5244659,"address":"100臺北市中正區林森北路9巷12號","hasBabyChanging":false,"hasAccessible":false,"source":"OpenStreetMap","updatedAt":"2026-06-10T15:41:05.166Z","facilityType":"dentist","facilityLabel":"🦷 牙醫","phone":null,"website":null,"wheelchair":false,"needsAddr":false},{"id":3908149160,"name":"光陽生技保健","lat":25.0470569,"lng":121.5196733,"address":null,"hasBabyChanging":false,"hasAccessible":false,"source":"OpenStreetMap","updatedAt":"2026-06-10T15:41:05.166Z","facilityType":"pharmacy","facilityLabel":"💊 藥局","phone":null,"website":null,"wheelchair":false,"needsAddr":true},{"id":3924745257,"name":"仁愛中醫診所","lat":25.0340752,"lng":121.5075762,"address":"100057臺北市中正區延平南路187號","hasBabyChanging":false,"hasAccessible":false,"source":"OpenStreetMap","updatedAt":"2026-06-10T15:41:05.166Z","facilityType":"clinic","facilityLabel":"🩺 診所","phone":"+886 2 2382 2431","website":null,"wheelchair":false,"needsAddr":false},{"id":4118442361,"name":"正康藥局","lat":25.0450674,"lng":121.5142661,"address":null,"hasBabyChanging":false,"hasAccessible":true,"source":"OpenStreetMap","updatedAt":"2026-06-10T15:41:05.166Z","facilityType":"pharmacy","facilityLabel":"💊 藥局","phone":null,"website":null,"wheelchair":true,"needsAddr":true},{"id":4123034911,"name":"康是美","lat":25.0452738,"lng":121.5147241,"address":null,"hasBabyChanging":false,"hasAccessible":false,"source":"OpenStreetMap","updatedAt":"2026-06-10T15:41:05.166Z","facilityType":"pharmacy","facilityLabel":"💊 藥妝","phone":"+886-2-23120975","website":"https://www.cosmed.com.tw","wheelchair":false,"needsAddr":true},{"id":4149587188,"name":"怡和診所","lat":25.0223664,"lng":121.5237152,"address":null,"hasBabyChanging":false,"hasAccessible":false,"source":"OpenStreetMap","updatedAt":"2026-06-10T15:41:05.166Z","facilityType":"clinic","facilityLabel":"🩺 診所","phone":null,"website":null,"wheelchair":false,"needsAddr":true},{"id":4150685055,"name":"尚義牙醫診所","lat":25.044167,"lng":121.5140176,"address":"台北市中正區懷寧街62號","hasBabyChanging":false,"hasAccessible":false,"source":"OpenStreetMap","updatedAt":"2026-06-10T15:41:05.166Z","facilityType":"dentist","facilityLabel":"🦷 牙醫","phone":"+886-2-23711832","website":null,"wheelchair":false,"needsAddr":false},{"id":4269582560,"name":"永恆牙醫診所","lat":25.0193543,"lng":121.5278253,"address":null,"hasBabyChanging":false,"hasAccessible":false,"source":"OpenStreetMap","updatedAt":"2026-06-10T15:41:05.166Z","facilityType":"dentist","facilityLabel":"🦷 牙醫","phone":null,"website":null,"wheelchair":false,"needsAddr":true},{"id":4325693421,"name":"中心藥局","lat":25.0165922,"lng":121.5302769,"address":"100臺北市中正區汀州路三段121號","hasBabyChanging":false,"hasAccessible":false,"source":"OpenStreetMap","updatedAt":"2026-06-10T15:41:05.166Z","facilityType":"pharmacy","facilityLabel":"💊 藥局","phone":null,"website":null,"wheelchair":false,"needsAddr":false},{"id":4325693451,"name":"古亭藥局","lat":25.0166804,"lng":121.530118,"address":"100臺北市中正區汀州路三段117號","hasBabyChanging":false,"hasAccessible":false,"source":"OpenStreetMap","updatedAt":"2026-06-10T15:41:05.166Z","facilityType":"pharmacy","facilityLabel":"💊 藥局","phone":null,"website":null,"wheelchair":false,"needsAddr":false},{"id":4325693462,"name":"喜樂牙醫","lat":25.0417831,"lng":121.5325492,"address":null,"hasBabyChanging":false,"hasAccessible":false,"source":"OpenStreetMap","updatedAt":"2026-06-10T15:41:05.166Z","facilityType":"dentist","facilityLabel":"🦷 牙醫","phone":null,"website":null,"wheelchair":false,"needsAddr":true},{"id":4325693911,"name":"杏一藥局","lat":25.0167011,"lng":121.5300768,"address":"100臺北市中正區汀州路三段115號","hasBabyChanging":false,"hasAccessible":true,"source":"OpenStreetMap","updatedAt":"2026-06-10T15:41:05.166Z","facilityType":"pharmacy","facilityLabel":"💊 藥局","phone":null,"website":null,"wheelchair":true,"needsAddr":false},{"id":4325693916,"name":"東華藥師藥局","lat":25.0167297,"lng":121.5300408,"address":"100臺北市中正區汀州路三段113號","hasBabyChanging":false,"hasAccessible":true,"source":"OpenStreetMap","updatedAt":"2026-06-10T15:41:05.166Z","facilityType":"pharmacy","facilityLabel":"💊 藥局","phone":null,"website":null,"wheelchair":true,"needsAddr":false},{"id":4325693940,"name":"溫亞中西醫醫美聯合診所","lat":25.0422787,"lng":121.5314453,"address":null,"hasBabyChanging":false,"hasAccessible":false,"source":"OpenStreetMap","updatedAt":"2026-06-10T15:41:05.166Z","facilityType":"clinic","facilityLabel":"🩺 診所","phone":null,"website":null,"wheelchair":false,"needsAddr":true},{"id":4328118424,"name":"喬雅美妝","lat":25.0132555,"lng":121.5352394,"address":"100臺北市中正區羅斯福路四段108巷2號","hasBabyChanging":false,"hasAccessible":true,"source":"OpenStreetMap","updatedAt":"2026-06-10T15:41:05.166Z","facilityType":"pharmacy","facilityLabel":"💊 藥局","phone":null,"website":null,"wheelchair":true,"needsAddr":false},{"id":4520657317,"name":"屈臣氏","lat":25.0266018,"lng":121.5210583,"address":null,"hasBabyChanging":false,"hasAccessible":true,"source":"OpenStreetMap","updatedAt":"2026-06-10T15:41:05.166Z","facilityType":"pharmacy","facilityLabel":"💊 藥妝","phone":null,"website":null,"wheelchair":true,"needsAddr":true},{"id":4520684966,"name":"富麗牙醫","lat":25.0266359,"lng":121.519019,"address":null,"hasBabyChanging":false,"hasAccessible":true,"source":"OpenStreetMap","updatedAt":"2026-06-10T15:41:05.166Z","facilityType":"dentist","facilityLabel":"🦷 牙醫","phone":"+88623940123","website":"www.fullysmile.com","wheelchair":true,"needsAddr":true},{"id":4520782391,"name":"屈臣氏","lat":25.0307609,"lng":121.5178799,"address":"10074臺北市中正區寧波西街46號","hasBabyChanging":false,"hasAccessible":false,"source":"OpenStreetMap","updatedAt":"2026-06-10T15:41:05.166Z","facilityType":"pharmacy","facilityLabel":"💊 藥妝","phone":"+886-2-2395-9463","website":"https://www.watsons.com.tw/","wheelchair":false,"needsAddr":false},{"id":4520792445,"name":"牙醫診所","lat":25.0281852,"lng":121.5196228,"address":null,"hasBabyChanging":false,"hasAccessible":false,"source":"OpenStreetMap","updatedAt":"2026-06-10T15:41:05.166Z","facilityType":"dentist","facilityLabel":"🦷 牙醫","phone":null,"website":null,"wheelchair":false,"needsAddr":true},{"id":4524328185,"name":"大和工坊","lat":25.0163453,"lng":121.5323584,"address":"100臺北市中正區羅斯福路三段300號","hasBabyChanging":false,"hasAccessible":false,"source":"OpenStreetMap","updatedAt":"2026-06-10T15:41:05.166Z","facilityType":"pharmacy","facilityLabel":"💊 藥局","phone":null,"website":null,"wheelchair":false,"needsAddr":false},{"id":4524863848,"name":"古亭動物醫院","lat":25.0260142,"lng":121.5229023,"address":null,"hasBabyChanging":false,"hasAccessible":false,"source":"OpenStreetMap","updatedAt":"2026-06-10T15:41:05.166Z","facilityType":"vet","facilityLabel":"🐾 動物醫院","phone":null,"website":null,"wheelchair":false,"needsAddr":true},{"id":4524864572,"name":"玉霖牙醫診所","lat":25.0407585,"lng":121.5325273,"address":null,"hasBabyChanging":false,"hasAccessible":false,"source":"OpenStreetMap","updatedAt":"2026-06-10T15:41:05.166Z","facilityType":"dentist","facilityLabel":"🦷 牙醫","phone":null,"website":null,"wheelchair":false,"needsAddr":true},{"id":4774964434,"name":"永康身心診所","lat":25.0356306,"lng":121.5277302,"address":"100臺北市中正區文祥里12鄰金山南路一段127號","hasBabyChanging":false,"hasAccessible":false,"source":"OpenStreetMap","updatedAt":"2026-06-10T15:41:05.166Z","facilityType":"clinic","facilityLabel":"🩺 診所","phone":"+886-2-2358-1818","website":"https://www.psyclinic.com.tw/C_02.php","wheelchair":false,"needsAddr":false},{"id":4778414521,"name":"臺北市社區心理衛生中心","lat":25.0416851,"lng":121.529657,"address":"臺北市金山南路一段5號","hasBabyChanging":false,"hasAccessible":false,"source":"OpenStreetMap","updatedAt":"2026-06-10T15:41:05.166Z","facilityType":"clinic","facilityLabel":"🩺 診所","phone":"+886-2-3393-7885","website":"http://mental.health.gov.tw/","wheelchair":false,"needsAddr":false},{"id":4801848625,"name":"藥局","lat":25.0345194,"lng":121.5299852,"address":null,"hasBabyChanging":false,"hasAccessible":false,"source":"OpenStreetMap","updatedAt":"2026-06-10T15:41:05.166Z","facilityType":"pharmacy","facilityLabel":"💊 藥局","phone":null,"website":null,"wheelchair":false,"needsAddr":true},{"id":4838087658,"name":"寶雅","lat":25.0276581,"lng":121.507974,"address":null,"hasBabyChanging":false,"hasAccessible":false,"source":"OpenStreetMap","updatedAt":"2026-06-10T15:41:05.166Z","facilityType":"pharmacy","facilityLabel":"💊 藥局","phone":null,"website":null,"wheelchair":false,"needsAddr":true},{"id":4838087672,"name":"康是美","lat":25.0465125,"lng":121.5177871,"address":null,"hasBabyChanging":false,"hasAccessible":false,"source":"OpenStreetMap","updatedAt":"2026-06-10T15:41:05.166Z","facilityType":"pharmacy","facilityLabel":"💊 藥妝","phone":null,"website":null,"wheelchair":false,"needsAddr":true},{"id":4838087683,"name":"乳油木之家","lat":25.0460374,"lng":121.5174718,"address":null,"hasBabyChanging":false,"hasAccessible":false,"source":"OpenStreetMap","updatedAt":"2026-06-10T15:41:05.166Z","facilityType":"pharmacy","facilityLabel":"💊 藥局","phone":null,"website":null,"wheelchair":false,"needsAddr":true},{"id":4838087778,"name":"星和診所","lat":25.0463447,"lng":121.5147581,"address":null,"hasBabyChanging":false,"hasAccessible":false,"source":"OpenStreetMap","updatedAt":"2026-06-10T15:41:05.166Z","facilityType":"clinic","facilityLabel":"🩺 診所","phone":null,"website":null,"wheelchair":false,"needsAddr":true},{"id":4892276638,"name":"協豐藥局","lat":25.0421311,"lng":121.5110534,"address":"臺北市中正區衡陽路78號","hasBabyChanging":false,"hasAccessible":false,"source":"OpenStreetMap","updatedAt":"2026-06-10T15:41:05.166Z","facilityType":"pharmacy","facilityLabel":"💊 藥局","phone":null,"website":null,"wheelchair":false,"needsAddr":false},{"id":5109347775,"name":"SASA","lat":25.0150313,"lng":121.5337207,"address":"100臺北市中正區羅斯福路四段48號","hasBabyChanging":false,"hasAccessible":true,"source":"OpenStreetMap","updatedAt":"2026-06-10T15:41:05.166Z","facilityType":"pharmacy","facilityLabel":"💊 藥局","phone":null,"website":null,"wheelchair":true,"needsAddr":false},{"id":5110245056,"name":"躍獅南寧藥局","lat":25.0305573,"lng":121.5178439,"address":"100臺北市中正區南昌路一段81號","hasBabyChanging":false,"hasAccessible":false,"source":"OpenStreetMap","updatedAt":"2026-06-10T15:41:05.166Z","facilityType":"pharmacy","facilityLabel":"💊 藥局","phone":null,"website":null,"wheelchair":false,"needsAddr":false},{"id":5110488991,"name":"仁崇牙醫","lat":25.0387921,"lng":121.532494,"address":null,"hasBabyChanging":false,"hasAccessible":false,"source":"OpenStreetMap","updatedAt":"2026-06-10T15:41:05.166Z","facilityType":"dentist","facilityLabel":"🦷 牙醫","phone":null,"website":null,"wheelchair":false,"needsAddr":true},{"id":5293207814,"name":"佑康大藥局","lat":25.0250769,"lng":121.5184445,"address":null,"hasBabyChanging":false,"hasAccessible":true,"source":"OpenStreetMap","updatedAt":"2026-06-10T15:41:05.166Z","facilityType":"pharmacy","facilityLabel":"💊 藥局","phone":null,"website":null,"wheelchair":true,"needsAddr":true},{"id":5964684931,"name":"民生藥局","lat":25.040615,"lng":121.5305391,"address":null,"hasBabyChanging":false,"hasAccessible":true,"source":"OpenStreetMap","updatedAt":"2026-06-10T15:41:05.166Z","facilityType":"pharmacy","facilityLabel":"💊 藥局","phone":null,"website":null,"wheelchair":true,"needsAddr":true},{"id":6357749107,"name":"康是美","lat":25.0247478,"lng":121.5223637,"address":null,"hasBabyChanging":false,"hasAccessible":false,"source":"OpenStreetMap","updatedAt":"2026-06-10T15:41:05.166Z","facilityType":"pharmacy","facilityLabel":"💊 藥妝","phone":null,"website":null,"wheelchair":false,"needsAddr":true},{"id":6654755471,"name":"仁安牙醫診所","lat":25.0415488,"lng":121.5266482,"address":null,"hasBabyChanging":false,"hasAccessible":false,"source":"OpenStreetMap","updatedAt":"2026-06-10T15:41:05.166Z","facilityType":"dentist","facilityLabel":"🦷 牙醫","phone":"+886 2 2397 3393","website":null,"wheelchair":false,"needsAddr":true},{"id":6723076770,"name":"新生活診所","lat":25.0359929,"lng":121.5324435,"address":null,"hasBabyChanging":false,"hasAccessible":false,"source":"OpenStreetMap","updatedAt":"2026-06-10T15:41:05.166Z","facilityType":"clinic","facilityLabel":"🩺 診所","phone":null,"website":null,"wheelchair":false,"needsAddr":true},{"id":6886599778,"name":"寶雅","lat":25.0458979,"lng":121.5144928,"address":null,"hasBabyChanging":false,"hasAccessible":false,"source":"OpenStreetMap","updatedAt":"2026-06-10T15:41:05.166Z","facilityType":"pharmacy","facilityLabel":"💊 藥局","phone":null,"website":null,"wheelchair":false,"needsAddr":true},{"id":6936432800,"name":"動物醫院","lat":25.0357179,"lng":121.5273828,"address":null,"hasBabyChanging":false,"hasAccessible":false,"source":"OpenStreetMap","updatedAt":"2026-06-10T15:41:05.166Z","facilityType":"vet","facilityLabel":"🐾 動物醫院","phone":null,"website":null,"wheelchair":false,"needsAddr":true},{"id":7004130373,"name":"吉星藥局","lat":25.0435384,"lng":121.5154357,"address":"臺北市中正區襄陽路19號","hasBabyChanging":false,"hasAccessible":false,"source":"OpenStreetMap","updatedAt":"2026-06-10T15:41:05.166Z","facilityType":"pharmacy","facilityLabel":"💊 藥局","phone":null,"website":null,"wheelchair":false,"needsAddr":false},{"id":7308176817,"name":"慈聖牙醫","lat":25.031887,"lng":121.5191634,"address":"臺北市中正區羅斯福路一段55號","hasBabyChanging":false,"hasAccessible":false,"source":"OpenStreetMap","updatedAt":"2026-06-10T15:41:05.166Z","facilityType":"dentist","facilityLabel":"🦷 牙醫","phone":null,"website":null,"wheelchair":false,"needsAddr":false},{"id":7728576864,"name":"和逸牙醫診所","lat":25.0236596,"lng":121.5212808,"address":null,"hasBabyChanging":false,"hasAccessible":false,"source":"OpenStreetMap","updatedAt":"2026-06-10T15:41:05.166Z","facilityType":"dentist","facilityLabel":"🦷 牙醫","phone":null,"website":null,"wheelchair":false,"needsAddr":true},{"id":7732638682,"name":"杏一藥局","lat":25.0406414,"lng":121.5222712,"address":null,"hasBabyChanging":false,"hasAccessible":false,"source":"OpenStreetMap","updatedAt":"2026-06-10T15:41:05.166Z","facilityType":"pharmacy","facilityLabel":"💊 藥局","phone":null,"website":null,"wheelchair":false,"needsAddr":true},{"id":7783350918,"name":"怡安堂中醫診所","lat":25.0357839,"lng":121.5278421,"address":null,"hasBabyChanging":false,"hasAccessible":false,"source":"OpenStreetMap","updatedAt":"2026-06-10T15:41:05.166Z","facilityType":"clinic","facilityLabel":"🩺 診所","phone":null,"website":null,"wheelchair":false,"needsAddr":true},{"id":7815464124,"name":"康是美","lat":25.0477068,"lng":121.5187305,"address":null,"hasBabyChanging":false,"hasAccessible":false,"source":"OpenStreetMap","updatedAt":"2026-06-10T15:41:05.166Z","facilityType":"pharmacy","facilityLabel":"💊 藥妝","phone":null,"website":null,"wheelchair":false,"needsAddr":true},{"id":8272809179,"name":"中力藥局","lat":25.0435489,"lng":121.5155809,"address":"臺北市中正區襄陽路13之5號","hasBabyChanging":false,"hasAccessible":false,"source":"OpenStreetMap","updatedAt":"2026-06-10T15:41:05.166Z","facilityType":"pharmacy","facilityLabel":"💊 藥局","phone":null,"website":null,"wheelchair":false,"needsAddr":false},{"id":8280854490,"name":"上海聯合藥房","lat":25.0421738,"lng":121.5126529,"address":"臺北市中正區衡陽路32號","hasBabyChanging":false,"hasAccessible":false,"source":"OpenStreetMap","updatedAt":"2026-06-10T15:41:05.166Z","facilityType":"pharmacy","facilityLabel":"💊 藥局","phone":null,"website":null,"wheelchair":false,"needsAddr":false},{"id":8280854491,"name":"合泰大藥局","lat":25.0421733,"lng":121.5127835,"address":"100台北市中正區衡陽路26號","hasBabyChanging":false,"hasAccessible":false,"source":"OpenStreetMap","updatedAt":"2026-06-10T15:41:05.166Z","facilityType":"pharmacy","facilityLabel":"💊 藥局","phone":null,"website":null,"wheelchair":false,"needsAddr":false},{"id":8280854498,"name":"雅德斯牙醫","lat":25.0436531,"lng":121.5131091,"address":"100003台北市中正區重慶南路一段66號一樓","hasBabyChanging":false,"hasAccessible":false,"source":"OpenStreetMap","updatedAt":"2026-06-10T15:41:05.166Z","facilityType":"dentist","facilityLabel":"🦷 牙醫","phone":"+886 2 2 2314 0806","website":"https://www.artisticdc.com/locations/%E9%9B%85%E5%BE%B7%E6%80%9D%E7%89%99%E9%86%AB%E8%A8%BA%E6%89%80%E5%8F%B0%E5%8C%97%E6%97%97%E8%89%A6%E5%BA%97/","wheelchair":false,"needsAddr":false},{"id":8372652839,"name":"蔡瑞芳眼科診所","lat":25.0314221,"lng":121.5195394,"address":null,"hasBabyChanging":false,"hasAccessible":false,"source":"OpenStreetMap","updatedAt":"2026-06-10T15:41:05.166Z","facilityType":"clinic","facilityLabel":"🩺 診所","phone":null,"website":null,"wheelchair":false,"needsAddr":true},{"id":8377664119,"name":"德華牙醫","lat":25.041963,"lng":121.5130214,"address":"臺北市中正區重慶南路一段110號","hasBabyChanging":false,"hasAccessible":false,"source":"OpenStreetMap","updatedAt":"2026-06-10T15:41:05.166Z","facilityType":"dentist","facilityLabel":"🦷 牙醫","phone":null,"website":null,"wheelchair":false,"needsAddr":false},{"id":8383628408,"name":"長頸鹿藥師藥局","lat":25.0295395,"lng":121.5183218,"address":"台北市中正區南昌路一段130號一樓","hasBabyChanging":false,"hasAccessible":false,"source":"OpenStreetMap","updatedAt":"2026-06-10T15:41:05.166Z","facilityType":"pharmacy","facilityLabel":"💊 藥局","phone":null,"website":null,"wheelchair":false,"needsAddr":false},{"id":8817567464,"name":"好心肝診所","lat":25.0443388,"lng":121.5167897,"address":"100008臺北市中正區公園路30號二樓","hasBabyChanging":false,"hasAccessible":false,"source":"OpenStreetMap","updatedAt":"2026-06-10T15:41:05.166Z","facilityType":"clinic","facilityLabel":"🩺 診所","phone":"+886 2 2370-0827","website":"https://www.glc.tw/","wheelchair":false,"needsAddr":false},{"id":8817567465,"name":"好甘心診所","lat":25.0443398,"lng":121.5167267,"address":"100008臺北市中正區公園路30號九樓","hasBabyChanging":false,"hasAccessible":false,"source":"OpenStreetMap","updatedAt":"2026-06-10T15:41:05.166Z","facilityType":"clinic","facilityLabel":"🩺 診所","phone":null,"website":null,"wheelchair":false,"needsAddr":false},{"id":8996338251,"name":"戰痘診所","lat":25.0435429,"lng":121.51552,"address":"臺北市中正區襄陽路17號","hasBabyChanging":false,"hasAccessible":false,"source":"OpenStreetMap","updatedAt":"2026-06-10T15:41:05.166Z","facilityType":"clinic","facilityLabel":"🩺 診所","phone":null,"website":null,"wheelchair":false,"needsAddr":false},{"id":9249920777,"name":"小千醫生診所","lat":25.0410634,"lng":121.5316455,"address":null,"hasBabyChanging":false,"hasAccessible":false,"source":"OpenStreetMap","updatedAt":"2026-06-10T15:41:05.166Z","facilityType":"clinic","facilityLabel":"🩺 診所","phone":"+886 2 2393 09","website":null,"wheelchair":false,"needsAddr":true},{"id":9652216792,"name":"臺大醫院牙科部","lat":25.0437261,"lng":121.5176015,"address":null,"hasBabyChanging":false,"hasAccessible":false,"source":"OpenStreetMap","updatedAt":"2026-06-10T15:41:05.166Z","facilityType":"dentist","facilityLabel":"🦷 牙醫","phone":null,"website":null,"wheelchair":false,"needsAddr":true},{"id":9652612481,"name":"臺大兒童醫院","lat":25.0441374,"lng":121.518724,"address":null,"hasBabyChanging":false,"hasAccessible":false,"source":"OpenStreetMap","updatedAt":"2026-06-10T15:41:05.166Z","facilityType":"hospital","facilityLabel":"🏥 醫院","phone":null,"website":null,"wheelchair":false,"needsAddr":true},{"id":9653481946,"name":"景福門診","lat":25.0403161,"lng":121.5189372,"address":null,"hasBabyChanging":false,"hasAccessible":false,"source":"OpenStreetMap","updatedAt":"2026-06-10T15:41:05.166Z","facilityType":"clinic","facilityLabel":"🩺 診所","phone":null,"website":null,"wheelchair":false,"needsAddr":true},{"id":9709480251,"name":"活力健康藥妝藥局","lat":25.0279298,"lng":121.5061866,"address":null,"hasBabyChanging":false,"hasAccessible":false,"source":"OpenStreetMap","updatedAt":"2026-06-10T15:41:05.166Z","facilityType":"pharmacy","facilityLabel":"💊 藥局","phone":null,"website":null,"wheelchair":false,"needsAddr":true},{"id":9717834312,"name":"杏一","lat":25.0345627,"lng":121.5076634,"address":"100057臺北市中正區延平南路175號1樓","hasBabyChanging":false,"hasAccessible":false,"source":"OpenStreetMap","updatedAt":"2026-06-10T15:41:05.166Z","facilityType":"pharmacy","facilityLabel":"💊 藥局","phone":"+886 2 2312 1610","website":null,"wheelchair":false,"needsAddr":false},{"id":9717863340,"name":"國杏藥師示範藥局","lat":25.0348683,"lng":121.5078553,"address":"100057臺北市中正區延平南路171巷3號","hasBabyChanging":false,"hasAccessible":false,"source":"OpenStreetMap","updatedAt":"2026-06-10T15:41:05.166Z","facilityType":"pharmacy","facilityLabel":"💊 藥局","phone":"+886 2 2381 1322","website":null,"wheelchair":false,"needsAddr":false},{"id":9717863362,"name":"和平藥局","lat":25.0350384,"lng":121.5063717,"address":null,"hasBabyChanging":false,"hasAccessible":false,"source":"OpenStreetMap","updatedAt":"2026-06-10T15:41:05.166Z","facilityType":"pharmacy","facilityLabel":"💊 藥局","phone":null,"website":null,"wheelchair":false,"needsAddr":true},{"id":9725205229,"name":"躍獅藥局","lat":25.0348009,"lng":121.5074077,"address":null,"hasBabyChanging":false,"hasAccessible":false,"source":"OpenStreetMap","updatedAt":"2026-06-10T15:41:05.166Z","facilityType":"pharmacy","facilityLabel":"💊 藥局","phone":null,"website":null,"wheelchair":false,"needsAddr":true},{"id":9725205287,"name":"君品牙醫診所","lat":25.0338931,"lng":121.5073288,"address":"100057臺北市中正區延平南路232號1樓、230巷1號1樓","hasBabyChanging":false,"hasAccessible":false,"source":"OpenStreetMap","updatedAt":"2026-06-10T15:41:05.166Z","facilityType":"dentist","facilityLabel":"🦷 牙醫","phone":"+886 2 2371 4092","website":null,"wheelchair":false,"needsAddr":false},{"id":9850794448,"name":"泰生堂參藥行","lat":25.0458759,"lng":121.5101531,"address":null,"hasBabyChanging":false,"hasAccessible":false,"source":"OpenStreetMap","updatedAt":"2026-06-10T15:41:05.166Z","facilityType":"pharmacy","facilityLabel":"💊 藥局","phone":null,"website":null,"wheelchair":false,"needsAddr":true},{"id":9906890909,"name":"三泰化工原料","lat":25.0446377,"lng":121.5102399,"address":"臺北市中正區延平南路82號","hasBabyChanging":false,"hasAccessible":false,"source":"OpenStreetMap","updatedAt":"2026-06-10T15:41:05.166Z","facilityType":"pharmacy","facilityLabel":"💊 藥局","phone":null,"website":null,"wheelchair":false,"needsAddr":false},{"id":9965180056,"name":"博愛動物醫院","lat":25.0293187,"lng":121.5218311,"address":null,"hasBabyChanging":false,"hasAccessible":false,"source":"OpenStreetMap","updatedAt":"2026-06-10T15:41:05.166Z","facilityType":"vet","facilityLabel":"🐾 動物醫院","phone":null,"website":null,"wheelchair":false,"needsAddr":true},{"id":9988968311,"name":"李明潤中醫診所","lat":25.0314277,"lng":121.5188956,"address":null,"hasBabyChanging":false,"hasAccessible":false,"source":"OpenStreetMap","updatedAt":"2026-06-10T15:41:05.166Z","facilityType":"clinic","facilityLabel":"🩺 診所","phone":null,"website":null,"wheelchair":false,"needsAddr":true},{"id":10536333055,"name":"建祥武昌藥局","lat":25.044159,"lng":121.5121216,"address":"100003臺北市中正區武昌街一段29號1樓","hasBabyChanging":false,"hasAccessible":false,"source":"OpenStreetMap","updatedAt":"2026-06-10T15:41:05.166Z","facilityType":"pharmacy","facilityLabel":"💊 藥局","phone":"+886 2 2331 4038","website":null,"wheelchair":false,"needsAddr":false},{"id":10536333056,"name":"天心中醫診所","lat":25.0441634,"lng":121.511998,"address":"100003臺北市中正區武昌街一段33號（1樓至3樓）、35號2樓、4樓","hasBabyChanging":false,"hasAccessible":false,"source":"OpenStreetMap","updatedAt":"2026-06-10T15:41:05.166Z","facilityType":"clinic","facilityLabel":"🩺 診所","phone":"+886 2 2361 5050","website":null,"wheelchair":false,"needsAddr":false},{"id":10738770846,"name":"慶輝牙醫診所","lat":25.0295989,"lng":121.5149058,"address":null,"hasBabyChanging":false,"hasAccessible":false,"source":"OpenStreetMap","updatedAt":"2026-06-10T15:41:05.166Z","facilityType":"dentist","facilityLabel":"🦷 牙醫","phone":null,"website":null,"wheelchair":false,"needsAddr":true},{"id":10775080650,"name":"志明牙醫診所","lat":25.0298935,"lng":121.5161739,"address":null,"hasBabyChanging":false,"hasAccessible":false,"source":"OpenStreetMap","updatedAt":"2026-06-10T15:41:05.166Z","facilityType":"dentist","facilityLabel":"🦷 牙醫","phone":null,"website":null,"wheelchair":false,"needsAddr":true},{"id":11247787064,"name":"家禾牙醫診所","lat":25.0332698,"lng":121.5077637,"address":"100057臺北市中正區延平南路195巷5號","hasBabyChanging":false,"hasAccessible":false,"source":"OpenStreetMap","updatedAt":"2026-06-10T15:41:05.166Z","facilityType":"dentist","facilityLabel":"🦷 牙醫","phone":"+886 2 2388 8906","website":null,"wheelchair":false,"needsAddr":false},{"id":11559675942,"name":"大盛藥局","lat":25.0464231,"lng":121.5105326,"address":"100005臺北市中正區中華路一段21巷16號","hasBabyChanging":false,"hasAccessible":false,"source":"OpenStreetMap","updatedAt":"2026-06-10T15:41:05.166Z","facilityType":"pharmacy","facilityLabel":"💊 藥局","phone":"+886 2 2371 3838","website":null,"wheelchair":false,"needsAddr":false},{"id":11932579069,"name":"立光診所","lat":25.0446559,"lng":121.5113721,"address":"100臺北市中正區博愛路76號二樓","hasBabyChanging":false,"hasAccessible":false,"source":"OpenStreetMap","updatedAt":"2026-06-10T15:41:05.166Z","facilityType":"clinic","facilityLabel":"🩺 診所","phone":"+886 2 2311 2276","website":"https://www.lk-dr.com/","wheelchair":false,"needsAddr":false},{"id":11944155474,"name":"站前諾貝爾眼科診所","lat":25.0460037,"lng":121.5172112,"address":null,"hasBabyChanging":false,"hasAccessible":false,"source":"OpenStreetMap","updatedAt":"2026-06-10T15:41:05.166Z","facilityType":"clinic","facilityLabel":"🩺 診所","phone":null,"website":null,"wheelchair":false,"needsAddr":true},{"id":12185852065,"name":"日藥本舖","lat":25.042186,"lng":121.5126887,"address":"100臺北市中正區建國里1鄰衡陽路30之1號","hasBabyChanging":false,"hasAccessible":false,"source":"OpenStreetMap","updatedAt":"2026-06-10T15:41:05.166Z","facilityType":"pharmacy","facilityLabel":"💊 藥局","phone":"+886 2 2311 6518","website":"https://www.jpmed.com.tw/","wheelchair":false,"needsAddr":false},{"id":12185852066,"name":"力安妥診所","lat":25.0421716,"lng":121.5125744,"address":"100臺北市中正區建國里1鄰衡陽路34號","hasBabyChanging":false,"hasAccessible":false,"source":"OpenStreetMap","updatedAt":"2026-06-10T15:41:05.166Z","facilityType":"clinic","facilityLabel":"🩺 診所","phone":null,"website":null,"wheelchair":false,"needsAddr":false},{"id":12248645164,"name":"大安藥局","lat":25.0412012,"lng":121.5323956,"address":"臺北市大安區新生南路一段56巷2號","hasBabyChanging":false,"hasAccessible":false,"source":"OpenStreetMap","updatedAt":"2026-06-10T15:41:05.166Z","facilityType":"pharmacy","facilityLabel":"💊 藥局","phone":null,"website":null,"wheelchair":false,"needsAddr":false},{"id":12839118388,"name":"台鹽生技","lat":25.0144748,"lng":121.533478,"address":"100臺北市中正區水源里1鄰羅斯福路四段52巷18號","hasBabyChanging":false,"hasAccessible":false,"source":"OpenStreetMap","updatedAt":"2026-06-10T15:41:05.166Z","facilityType":"pharmacy","facilityLabel":"💊 藥局","phone":null,"website":null,"wheelchair":false,"needsAddr":false},{"id":12901746327,"name":"璞悅美學診所","lat":25.0430304,"lng":121.5293118,"address":null,"hasBabyChanging":false,"hasAccessible":false,"source":"OpenStreetMap","updatedAt":"2026-06-10T15:41:05.166Z","facilityType":"clinic","facilityLabel":"🩺 診所","phone":null,"website":null,"wheelchair":false,"needsAddr":true},{"id":13131018960,"name":"健康人生藥局","lat":25.014199,"lng":121.5336629,"address":null,"hasBabyChanging":false,"hasAccessible":false,"source":"OpenStreetMap","updatedAt":"2026-06-10T15:41:05.166Z","facilityType":"pharmacy","facilityLabel":"💊 藥局","phone":null,"website":null,"wheelchair":false,"needsAddr":true},{"id":13427810413,"name":"濰視眼科 台北館前院","lat":25.0454244,"lng":121.5151343,"address":"臺北市中正區館前路43號二樓","hasBabyChanging":false,"hasAccessible":false,"source":"OpenStreetMap","updatedAt":"2026-06-10T15:41:05.166Z","facilityType":"clinic","facilityLabel":"🩺 診所","phone":null,"website":null,"wheelchair":false,"needsAddr":false},{"id":13617230876,"name":"牙科健保","lat":25.0306301,"lng":121.5172979,"address":null,"hasBabyChanging":false,"hasAccessible":false,"source":"OpenStreetMap","updatedAt":"2026-06-10T15:41:05.166Z","facilityType":"dentist","facilityLabel":"🦷 牙醫","phone":null,"website":null,"wheelchair":false,"needsAddr":true},{"id":161621394,"name":"郵政醫院","lat":25.0285989,"lng":121.518826,"address":"100027臺北市中正區福州街14號","hasBabyChanging":false,"hasAccessible":true,"source":"OpenStreetMap","updatedAt":"2026-06-10T15:41:05.166Z","facilityType":"hospital","facilityLabel":"🏥 醫院","phone":"+886 2 2395 6755","website":"http://www.postal.com.tw/","wheelchair":true,"needsAddr":false},{"id":197316116,"name":"臺北市立聯合醫院和平婦幼院區和平院址","lat":25.0353885,"lng":121.5070087,"address":"10065臺北市中正區中華路二段33號","hasBabyChanging":false,"hasAccessible":true,"source":"OpenStreetMap","updatedAt":"2026-06-10T15:41:05.166Z","facilityType":"hospital","facilityLabel":"🏥 醫院","phone":"+886-2-2388-9595","website":"http://www.tpech.gov.tw/mp.asp?mp=109161","wheelchair":true,"needsAddr":false},{"id":271212412,"name":"遠東聯合診所","lat":25.0428883,"lng":121.51101,"address":"100臺北市中正區光復里9鄰永綏街8號","hasBabyChanging":false,"hasAccessible":false,"source":"OpenStreetMap","updatedAt":"2026-06-10T15:41:05.166Z","facilityType":"clinic","facilityLabel":"🩺 診所","phone":null,"website":null,"wheelchair":false,"needsAddr":false},{"id":345564146,"name":"中正區健康服務中心","lat":25.0303982,"lng":121.5158713,"address":"臺北市牯嶺街24號","hasBabyChanging":false,"hasAccessible":false,"source":"OpenStreetMap","updatedAt":"2026-06-10T15:41:05.166Z","facilityType":"hospital","facilityLabel":"🏥 醫院","phone":"+886-2-2321-5158","website":"http://www.zzhc.gov.taipei/","wheelchair":false,"needsAddr":false},{"id":1004862600,"name":"臺北市立聯合醫院和平婦幼院區婦幼院址","lat":25.0290074,"lng":121.5193103,"address":"10078臺北市中正區福州街12號","hasBabyChanging":false,"hasAccessible":true,"source":"OpenStreetMap","updatedAt":"2026-06-10T15:41:05.166Z","facilityType":"hospital","facilityLabel":"🏥 醫院","phone":"+886 2 2391 6470","website":"https://tpech.gov.taipei/mp.asp?mp=109161","wheelchair":true,"needsAddr":false},{"id":1412521219,"name":"三軍總醫院台北門診中心","lat":25.0400445,"lng":121.5243083,"address":"100025臺北市中正區紹興南街7號","hasBabyChanging":false,"hasAccessible":false,"source":"OpenStreetMap","updatedAt":"2026-06-10T15:41:05.166Z","facilityType":"clinic","facilityLabel":"🩺 診所","phone":"+886 2 2391 9830","website":"https://tpoc.tsgh.ndmctsgh.edu.tw/","wheelchair":false,"needsAddr":false},{"id":4637783,"name":"國立臺灣大學醫學院附設醫院","lat":25.0419013,"lng":121.5191531,"address":"10048臺北市中正區常德街1號","hasBabyChanging":false,"hasAccessible":false,"source":"OpenStreetMap","updatedAt":"2026-06-10T15:41:05.166Z","facilityType":"hospital","facilityLabel":"🏥 醫院","phone":null,"website":null,"wheelchair":false,"needsAddr":false},{"id":7362376,"name":"三總汀州院區","lat":25.0164292,"lng":121.5292441,"address":"10086臺北市中正區汀州路三段40號","hasBabyChanging":false,"hasAccessible":false,"source":"OpenStreetMap","updatedAt":"2026-06-10T15:41:05.166Z","facilityType":"hospital","facilityLabel":"🏥 醫院","phone":"+886 2 2365 9055","website":"http://wwwu.tsgh.ndmctsgh.edu.tw/TM2/default.aspx","wheelchair":false,"needsAddr":false},{"id":2144167931,"name":"路易牙醫","lat":25.0494089,"lng":121.5191569,"address":null,"hasBabyChanging":false,"hasAccessible":false,"source":"OpenStreetMap","updatedAt":"2026-06-10T15:41:05.166Z","facilityType":"dentist","facilityLabel":"🦷 牙醫","phone":null,"website":null,"wheelchair":false,"needsAddr":true},{"id":2575286347,"name":"森田牙醫","lat":25.0543721,"lng":121.5141648,"address":"103台北市大同區重慶北路二段8號","hasBabyChanging":false,"hasAccessible":false,"source":"OpenStreetMap","updatedAt":"2026-06-10T15:41:05.166Z","facilityType":"dentist","facilityLabel":"🦷 牙醫","phone":null,"website":null,"wheelchair":false,"needsAddr":false},{"id":3811446151,"name":"大樹藥局","lat":25.0573347,"lng":121.5191774,"address":"103018臺北市大同區民生西路128號","hasBabyChanging":false,"hasAccessible":false,"source":"OpenStreetMap","updatedAt":"2026-06-10T15:41:05.166Z","facilityType":"pharmacy","facilityLabel":"💊 藥局","phone":"+886 2 2555 8886","website":"https://www.greattree.com.tw","wheelchair":false,"needsAddr":false},{"id":3835272258,"name":"百安堂","lat":25.0566543,"lng":121.5097977,"address":"104台北市大同區迪化街一段116號","hasBabyChanging":false,"hasAccessible":true,"source":"OpenStreetMap","updatedAt":"2026-06-10T15:41:05.166Z","facilityType":"pharmacy","facilityLabel":"💊 藥局","phone":"+886 2 2555 1239","website":null,"wheelchair":true,"needsAddr":false},{"id":3835273957,"name":"誠記蔘藥行","lat":25.0592486,"lng":121.5094025,"address":"台北市迪化一段212號","hasBabyChanging":false,"hasAccessible":true,"source":"OpenStreetMap","updatedAt":"2026-06-10T15:41:05.166Z","facilityType":"pharmacy","facilityLabel":"💊 藥局","phone":null,"website":null,"wheelchair":true,"needsAddr":false},{"id":3835295060,"name":"乾元參藥行","lat":25.0560292,"lng":121.509996,"address":null,"hasBabyChanging":false,"hasAccessible":false,"source":"OpenStreetMap","updatedAt":"2026-06-10T15:41:05.166Z","facilityType":"pharmacy","facilityLabel":"💊 藥局","phone":null,"website":null,"wheelchair":false,"needsAddr":true},{"id":3840470157,"name":"屈臣氏大藥局","lat":25.0546549,"lng":121.5100183,"address":"103臺北市大同區迪化ㄧ街34號","hasBabyChanging":false,"hasAccessible":false,"source":"OpenStreetMap","updatedAt":"2026-06-10T15:41:05.166Z","facilityType":"pharmacy","facilityLabel":"💊 藥妝","phone":null,"website":null,"wheelchair":false,"needsAddr":false},{"id":3992167360,"name":"港香蘭佐治藥鋪","lat":25.0535189,"lng":121.5148198,"address":"104台北市大同區南京西路274號","hasBabyChanging":false,"hasAccessible":false,"source":"OpenStreetMap","updatedAt":"2026-06-10T15:41:05.166Z","facilityType":"pharmacy","facilityLabel":"💊 藥局","phone":null,"website":null,"wheelchair":false,"needsAddr":false},{"id":4018209444,"name":"杏一","lat":25.0504022,"lng":121.510696,"address":"103012臺北市大同區鄭州路131號1樓","hasBabyChanging":false,"hasAccessible":false,"source":"OpenStreetMap","updatedAt":"2026-06-10T15:41:05.166Z","facilityType":"pharmacy","facilityLabel":"💊 藥局","phone":"+886 2 2550 2911","website":"https://www.medfirst.com.tw/","wheelchair":false,"needsAddr":false},{"id":4201906092,"name":"城乙化工","lat":25.0500946,"lng":121.5152895,"address":"103015臺北市大同區太原路15之1號","hasBabyChanging":false,"hasAccessible":false,"source":"OpenStreetMap","updatedAt":"2026-06-10T15:41:05.166Z","facilityType":"pharmacy","facilityLabel":"💊 藥局","phone":"+886 2 2550 8004","website":"https://www.meru.com.tw/","wheelchair":false,"needsAddr":false},{"id":4205229661,"name":"康是美","lat":25.0509333,"lng":121.5173387,"address":null,"hasBabyChanging":false,"hasAccessible":false,"source":"OpenStreetMap","updatedAt":"2026-06-10T15:41:05.166Z","facilityType":"pharmacy","facilityLabel":"💊 藥妝","phone":null,"website":null,"wheelchair":false,"needsAddr":true},{"id":4352732292,"name":"生元藥行","lat":25.0540387,"lng":121.5124661,"address":null,"hasBabyChanging":false,"hasAccessible":false,"source":"OpenStreetMap","updatedAt":"2026-06-10T15:41:05.166Z","facilityType":"pharmacy","facilityLabel":"💊 藥局","phone":"0225500331","website":"https://www.sheng-yuan.tw/","wheelchair":false,"needsAddr":true},{"id":4384258995,"name":"屈臣氏","lat":25.0529283,"lng":121.5181976,"address":null,"hasBabyChanging":false,"hasAccessible":false,"source":"OpenStreetMap","updatedAt":"2026-06-10T15:41:05.166Z","facilityType":"pharmacy","facilityLabel":"💊 藥妝","phone":null,"website":null,"wheelchair":false,"needsAddr":true},{"id":4449312465,"name":"梅約聯合診所","lat":25.0503264,"lng":121.5189134,"address":null,"hasBabyChanging":false,"hasAccessible":false,"source":"OpenStreetMap","updatedAt":"2026-06-10T15:41:05.166Z","facilityType":"clinic","facilityLabel":"🩺 診所","phone":"+886-2-2555-7728","website":"https://www.meiyoclinic.com.tw/","wheelchair":false,"needsAddr":true},{"id":4449757824,"name":"春寧診所","lat":25.0503581,"lng":121.5196411,"address":null,"hasBabyChanging":false,"hasAccessible":false,"source":"OpenStreetMap","updatedAt":"2026-06-10T15:41:05.166Z","facilityType":"clinic","facilityLabel":"🩺 診所","phone":null,"website":null,"wheelchair":false,"needsAddr":true},{"id":4449757825,"name":"春鄰藥局","lat":25.0503508,"lng":121.5196793,"address":null,"hasBabyChanging":false,"hasAccessible":false,"source":"OpenStreetMap","updatedAt":"2026-06-10T15:41:05.166Z","facilityType":"pharmacy","facilityLabel":"💊 藥局","phone":null,"website":null,"wheelchair":false,"needsAddr":true},{"id":4524863762,"name":"南西尚安醫美診所","lat":25.0529562,"lng":121.5179205,"address":null,"hasBabyChanging":false,"hasAccessible":false,"source":"OpenStreetMap","updatedAt":"2026-06-10T15:41:05.166Z","facilityType":"clinic","facilityLabel":"🩺 診所","phone":null,"website":null,"wheelchair":false,"needsAddr":true},{"id":4867802923,"name":"張漢權內科診所","lat":25.0526671,"lng":121.5139266,"address":"103007臺北市大同區重慶北路一段92號","hasBabyChanging":false,"hasAccessible":false,"source":"OpenStreetMap","updatedAt":"2026-06-10T15:41:05.166Z","facilityType":"clinic","facilityLabel":"🩺 診所","phone":"+886 2 2550 5998","website":null,"wheelchair":false,"needsAddr":false},{"id":5110488950,"name":"屈臣氏","lat":25.0526413,"lng":121.5194132,"address":"103臺北市大同區南京西路38號三樓","hasBabyChanging":false,"hasAccessible":true,"source":"OpenStreetMap","updatedAt":"2026-06-10T15:41:05.166Z","facilityType":"pharmacy","facilityLabel":"💊 藥妝","phone":null,"website":"https://www.watsons.com.tw/","wheelchair":true,"needsAddr":false},{"id":5174637850,"name":"夏凱納生活診所","lat":25.05664,"lng":121.5175505,"address":"台北市大同區五原路15號","hasBabyChanging":false,"hasAccessible":false,"source":"OpenStreetMap","updatedAt":"2026-06-10T15:41:05.166Z","facilityType":"clinic","facilityLabel":"🩺 診所","phone":null,"website":"http://shekinah.com.tw/","wheelchair":false,"needsAddr":false},{"id":5851984997,"name":"正中藥局","lat":25.0687469,"lng":121.5141609,"address":null,"hasBabyChanging":false,"hasAccessible":false,"source":"OpenStreetMap","updatedAt":"2026-06-10T15:41:05.166Z","facilityType":"pharmacy","facilityLabel":"💊 藥局","phone":null,"website":null,"wheelchair":false,"needsAddr":true},{"id":5851985002,"name":"佳禾藥局","lat":25.0706438,"lng":121.5158124,"address":null,"hasBabyChanging":false,"hasAccessible":false,"source":"OpenStreetMap","updatedAt":"2026-06-10T15:41:05.166Z","facilityType":"pharmacy","facilityLabel":"💊 藥局","phone":null,"website":null,"wheelchair":false,"needsAddr":true},{"id":6326678485,"name":"時春藥局","lat":25.0535048,"lng":121.5190673,"address":"104臺北市大同區赤峰街4號","hasBabyChanging":false,"hasAccessible":false,"source":"OpenStreetMap","updatedAt":"2026-06-10T15:41:05.166Z","facilityType":"pharmacy","facilityLabel":"💊 藥局","phone":null,"website":null,"wheelchair":false,"needsAddr":false},{"id":6418121440,"name":"Exotic animal veterinary hospital","lat":25.063166,"lng":121.5121072,"address":null,"hasBabyChanging":false,"hasAccessible":false,"source":"OpenStreetMap","updatedAt":"2026-06-10T15:41:05.166Z","facilityType":"vet","facilityLabel":"🐾 動物醫院","phone":null,"website":null,"wheelchair":false,"needsAddr":true},{"id":6433456326,"name":"新南大藥房","lat":25.0523847,"lng":121.5124539,"address":"103007臺北市大同區天水路67號","hasBabyChanging":false,"hasAccessible":false,"source":"OpenStreetMap","updatedAt":"2026-06-10T15:41:05.166Z","facilityType":"pharmacy","facilityLabel":"💊 藥局","phone":null,"website":null,"wheelchair":false,"needsAddr":false},{"id":6433456328,"name":"景鈞診所","lat":25.0526191,"lng":121.5125643,"address":"103臺北市大同區天水路38號","hasBabyChanging":false,"hasAccessible":false,"source":"OpenStreetMap","updatedAt":"2026-06-10T15:41:05.166Z","facilityType":"clinic","facilityLabel":"🩺 診所","phone":"+886 2 2555 6033","website":null,"wheelchair":false,"needsAddr":false},{"id":6433456340,"name":"林志宏中醫診所","lat":25.0542975,"lng":121.5116522,"address":"103005臺北市大同區延平北路二段14號","hasBabyChanging":false,"hasAccessible":false,"source":"OpenStreetMap","updatedAt":"2026-06-10T15:41:05.166Z","facilityType":"clinic","facilityLabel":"🩺 診所","phone":"+886 2 2550 0568","website":null,"wheelchair":false,"needsAddr":false},{"id":6433466704,"name":"林仲皮膚科診所","lat":25.0544341,"lng":121.5116424,"address":"103005臺北市大同區延平北路二段20號","hasBabyChanging":false,"hasAccessible":false,"source":"OpenStreetMap","updatedAt":"2026-06-10T15:41:05.166Z","facilityType":"clinic","facilityLabel":"🩺 診所","phone":"+886 2 2552 5138","website":null,"wheelchair":false,"needsAddr":false},{"id":6939523059,"name":"一聖堂中醫診所","lat":25.0572346,"lng":121.518441,"address":null,"hasBabyChanging":false,"hasAccessible":false,"source":"OpenStreetMap","updatedAt":"2026-06-10T15:41:05.166Z","facilityType":"clinic","facilityLabel":"🩺 診所","phone":null,"website":null,"wheelchair":false,"needsAddr":true},{"id":7021145555,"name":"濟民中醫診所","lat":25.0572426,"lng":121.5136092,"address":null,"hasBabyChanging":false,"hasAccessible":false,"source":"OpenStreetMap","updatedAt":"2026-06-10T15:41:05.166Z","facilityType":"clinic","facilityLabel":"🩺 診所","phone":null,"website":null,"wheelchair":false,"needsAddr":true},{"id":7021208395,"name":"正記中醫診所","lat":25.0571671,"lng":121.5136039,"address":null,"hasBabyChanging":false,"hasAccessible":false,"source":"OpenStreetMap","updatedAt":"2026-06-10T15:41:05.166Z","facilityType":"clinic","facilityLabel":"🩺 診所","phone":null,"website":null,"wheelchair":false,"needsAddr":true},{"id":7652736152,"name":"夏立雲診所","lat":25.0591829,"lng":121.5121711,"address":"103010臺北市大同區保安街43號","hasBabyChanging":false,"hasAccessible":false,"source":"OpenStreetMap","updatedAt":"2026-06-10T15:41:05.166Z","facilityType":"clinic","facilityLabel":"🩺 診所","phone":"+886 2 2553 9416","website":null,"wheelchair":false,"needsAddr":false},{"id":7652736153,"name":"包眼科診所","lat":25.0589643,"lng":121.5126301,"address":"103009臺北市大同區保安街54之1號","hasBabyChanging":false,"hasAccessible":false,"source":"OpenStreetMap","updatedAt":"2026-06-10T15:41:05.166Z","facilityType":"clinic","facilityLabel":"🩺 診所","phone":"+886 2 2553 7526","website":null,"wheelchair":false,"needsAddr":false},{"id":7652736154,"name":"聖心婦產科診所","lat":25.0594296,"lng":121.5145737,"address":"103024臺北市大同區保安街1之1號","hasBabyChanging":false,"hasAccessible":false,"source":"OpenStreetMap","updatedAt":"2026-06-10T15:41:05.166Z","facilityType":"clinic","facilityLabel":"🩺 診所","phone":"+886 2 2553 1346","website":null,"wheelchair":false,"needsAddr":false},{"id":7652736155,"name":"保慶藥局","lat":25.0592987,"lng":121.5129335,"address":"103010臺北市大同區保安街21號","hasBabyChanging":false,"hasAccessible":false,"source":"OpenStreetMap","updatedAt":"2026-06-10T15:41:05.166Z","facilityType":"pharmacy","facilityLabel":"💊 藥局","phone":"+886 2 2553 8988","website":null,"wheelchair":false,"needsAddr":false},{"id":7652736160,"name":"林昭安診所","lat":25.059207,"lng":121.5124571,"address":"103010臺北市大同區保安街35號","hasBabyChanging":false,"hasAccessible":false,"source":"OpenStreetMap","updatedAt":"2026-06-10T15:41:05.166Z","facilityType":"clinic","facilityLabel":"🩺 診所","phone":"+886 2 2553 3665","website":null,"wheelchair":false,"needsAddr":false},{"id":7652736161,"name":"博裕牙醫診所","lat":25.0593918,"lng":121.5139484,"address":"103024臺北市大同區保安街3之3號","hasBabyChanging":false,"hasAccessible":false,"source":"OpenStreetMap","updatedAt":"2026-06-10T15:41:05.166Z","facilityType":"dentist","facilityLabel":"🦷 牙醫","phone":"+886 2 2553 8992","website":null,"wheelchair":false,"needsAddr":false},{"id":7652736162,"name":"保全診所","lat":25.0589424,"lng":121.5123918,"address":"103009臺北市大同區保安街64號","hasBabyChanging":false,"hasAccessible":false,"source":"OpenStreetMap","updatedAt":"2026-06-10T15:41:05.166Z","facilityType":"clinic","facilityLabel":"🩺 診所","phone":"+886 2 2557 7037","website":null,"wheelchair":false,"needsAddr":false},{"id":7682149834,"name":"三銘大藥局","lat":25.05575,"lng":121.5099097,"address":"103003臺北市大同區迪化街一段80號","hasBabyChanging":false,"hasAccessible":false,"source":"OpenStreetMap","updatedAt":"2026-06-10T15:41:05.166Z","facilityType":"pharmacy","facilityLabel":"💊 藥局","phone":"+886 2 2558 3392","website":null,"wheelchair":false,"needsAddr":false},{"id":7699945608,"name":"屈臣氏","lat":25.0490435,"lng":121.5187702,"address":null,"hasBabyChanging":false,"hasAccessible":false,"source":"OpenStreetMap","updatedAt":"2026-06-10T15:41:05.166Z","facilityType":"pharmacy","facilityLabel":"💊 藥妝","phone":null,"website":null,"wheelchair":false,"needsAddr":true},{"id":9375575774,"name":"藥局","lat":25.0576619,"lng":121.5193641,"address":null,"hasBabyChanging":false,"hasAccessible":false,"source":"OpenStreetMap","updatedAt":"2026-06-10T15:41:05.166Z","facilityType":"pharmacy","facilityLabel":"💊 藥局","phone":null,"website":null,"wheelchair":false,"needsAddr":true},{"id":10308158108,"name":"人生中醫診所","lat":25.056372,"lng":121.5136707,"address":null,"hasBabyChanging":false,"hasAccessible":false,"source":"OpenStreetMap","updatedAt":"2026-06-10T15:41:05.166Z","facilityType":"clinic","facilityLabel":"🩺 診所","phone":null,"website":null,"wheelchair":false,"needsAddr":true},{"id":10536289431,"name":"朝陽牙醫診所","lat":25.056841,"lng":121.5117339,"address":"103009臺北市大同區延平北路二段109號2樓","hasBabyChanging":false,"hasAccessible":false,"source":"OpenStreetMap","updatedAt":"2026-06-10T15:41:05.166Z","facilityType":"dentist","facilityLabel":"🦷 牙醫","phone":"+886 2 2556 3168","website":null,"wheelchair":false,"needsAddr":false},{"id":10801472278,"name":"365德和蔘茸","lat":25.0570129,"lng":121.5099089,"address":null,"hasBabyChanging":false,"hasAccessible":false,"source":"OpenStreetMap","updatedAt":"2026-06-10T15:41:05.166Z","facilityType":"pharmacy","facilityLabel":"💊 藥局","phone":null,"website":null,"wheelchair":false,"needsAddr":true},{"id":10801488097,"name":"躍獅藥局","lat":25.0575189,"lng":121.511651,"address":null,"hasBabyChanging":false,"hasAccessible":false,"source":"OpenStreetMap","updatedAt":"2026-06-10T15:41:05.166Z","facilityType":"pharmacy","facilityLabel":"💊 藥局","phone":null,"website":null,"wheelchair":false,"needsAddr":true},{"id":11215541428,"name":"重慶堂中醫診所","lat":25.0561962,"lng":121.5115374,"address":"103006臺北市大同區延平北路二段88之1號","hasBabyChanging":false,"hasAccessible":false,"source":"OpenStreetMap","updatedAt":"2026-06-10T15:41:05.166Z","facilityType":"clinic","facilityLabel":"🩺 診所","phone":"+886 2 2555 4575","website":null,"wheelchair":false,"needsAddr":false},{"id":11220379702,"name":"富康藥局","lat":25.0573255,"lng":121.511436,"address":"103006臺北市大同區延平北路二段126號","hasBabyChanging":false,"hasAccessible":false,"source":"OpenStreetMap","updatedAt":"2026-06-10T15:41:05.166Z","facilityType":"pharmacy","facilityLabel":"💊 藥局","phone":"+886 2 2553 7782","website":null,"wheelchair":false,"needsAddr":false},{"id":11220379703,"name":"長興牙醫診所","lat":25.0572251,"lng":121.5114265,"address":"103006臺北市大同區延平北路二段124號2樓之1","hasBabyChanging":false,"hasAccessible":false,"source":"OpenStreetMap","updatedAt":"2026-06-10T15:41:05.166Z","facilityType":"dentist","facilityLabel":"🦷 牙醫","phone":"+886 2 2553 8935","website":null,"wheelchair":false,"needsAddr":false},{"id":11220379704,"name":"雅晴牙醫診所","lat":25.0573919,"lng":121.5116542,"address":"103009臺北市大同區延平北路二段127號","hasBabyChanging":false,"hasAccessible":false,"source":"OpenStreetMap","updatedAt":"2026-06-10T15:41:05.166Z","facilityType":"dentist","facilityLabel":"🦷 牙醫","phone":"+886 2 2552 9757","website":null,"wheelchair":false,"needsAddr":false},{"id":11220379705,"name":"章牙醫診所","lat":25.0577004,"lng":121.5110028,"address":"103006臺北市大同區延平北路二段144巷13之1號","hasBabyChanging":false,"hasAccessible":false,"source":"OpenStreetMap","updatedAt":"2026-06-10T15:41:05.166Z","facilityType":"dentist","facilityLabel":"🦷 牙醫","phone":"+886 2 2553 6730","website":null,"wheelchair":false,"needsAddr":false},{"id":11233541680,"name":"永達牙醫診所","lat":25.0537636,"lng":121.5119136,"address":"103007臺北市大同區延平北路一段155號3樓","hasBabyChanging":false,"hasAccessible":false,"source":"OpenStreetMap","updatedAt":"2026-06-10T15:41:05.166Z","facilityType":"dentist","facilityLabel":"🦷 牙醫","phone":"+886 2 2558 4675","website":null,"wheelchair":false,"needsAddr":false},{"id":11233541681,"name":"周承良耳鼻喉科診所","lat":25.0505434,"lng":121.5118974,"address":"103012臺北市大同區延平北路一段22號","hasBabyChanging":false,"hasAccessible":false,"source":"OpenStreetMap","updatedAt":"2026-06-10T15:41:05.166Z","facilityType":"clinic","facilityLabel":"👂 耳鼻喉科","phone":"+886 2 2559 0862","website":null,"wheelchair":false,"needsAddr":false},{"id":11333009867,"name":"良朋牙醫診所","lat":25.05258,"lng":121.5128964,"address":"103007臺北市大同區天水路32號2樓","hasBabyChanging":false,"hasAccessible":false,"source":"OpenStreetMap","updatedAt":"2026-06-10T15:41:05.166Z","facilityType":"dentist","facilityLabel":"🦷 牙醫","phone":"+886 2 2556 1649","website":null,"wheelchair":false,"needsAddr":false},{"id":11355878088,"name":"文山堂牙醫診所","lat":25.0544264,"lng":121.5123937,"address":"103008臺北市大同區南京西路185巷5之2號","hasBabyChanging":false,"hasAccessible":false,"source":"OpenStreetMap","updatedAt":"2026-06-10T15:41:05.166Z","facilityType":"dentist","facilityLabel":"🦷 牙醫","phone":"+886 2 2555 2000","website":null,"wheelchair":false,"needsAddr":false},{"id":11355878089,"name":"慶福藥局","lat":25.0539869,"lng":121.5104274,"address":"103005臺北市大同區南京西路233巷2號","hasBabyChanging":false,"hasAccessible":false,"source":"OpenStreetMap","updatedAt":"2026-06-10T15:41:05.166Z","facilityType":"pharmacy","facilityLabel":"💊 藥局","phone":"+886 2 2550 3628","website":null,"wheelchair":false,"needsAddr":false},{"id":11355878090,"name":"和泰內科診所","lat":25.0531443,"lng":121.5099352,"address":"103001臺北市大同區南京西路406號8樓","hasBabyChanging":false,"hasAccessible":false,"source":"OpenStreetMap","updatedAt":"2026-06-10T15:41:05.166Z","facilityType":"clinic","facilityLabel":"🩺 診所","phone":"+886 2 2559 0575","website":null,"wheelchair":false,"needsAddr":false},{"id":11360281027,"name":"寶雅","lat":25.0518242,"lng":121.5141959,"address":"103016臺北市大同區重慶北路一段67號1樓","hasBabyChanging":false,"hasAccessible":false,"source":"OpenStreetMap","updatedAt":"2026-06-10T15:41:05.166Z","facilityType":"pharmacy","facilityLabel":"💊 藥局","phone":"+886 2 2550 8858","website":"https://www.poya.com.tw/","wheelchair":false,"needsAddr":false},{"id":11360281036,"name":"翰鳴堂中醫診所","lat":25.0526597,"lng":121.5145015,"address":"103016臺北市大同區重慶北路一段83巷6號","hasBabyChanging":false,"hasAccessible":false,"source":"OpenStreetMap","updatedAt":"2026-06-10T15:41:05.166Z","facilityType":"clinic","facilityLabel":"🩺 診所","phone":"+886 2 2559 8539","website":null,"wheelchair":false,"needsAddr":false},{"id":11462987118,"name":"羅源彰診所","lat":25.0514655,"lng":121.5151228,"address":"103016臺北市大同區長安西路137號","hasBabyChanging":false,"hasAccessible":false,"source":"OpenStreetMap","updatedAt":"2026-06-10T15:41:05.166Z","facilityType":"clinic","facilityLabel":"👶 小兒科","phone":"+886 2 2555 2500","website":null,"wheelchair":false,"needsAddr":false},{"id":11462987119,"name":"曾鳳飛牙醫診所","lat":25.0513009,"lng":121.5158468,"address":"103022臺北市大同區長安西路117號2樓","hasBabyChanging":false,"hasAccessible":false,"source":"OpenStreetMap","updatedAt":"2026-06-10T15:41:05.166Z","facilityType":"dentist","facilityLabel":"🦷 牙醫","phone":"+886 2 2555 8527","website":null,"wheelchair":false,"needsAddr":false},{"id":11462987120,"name":"聖方診所","lat":25.0519373,"lng":121.513635,"address":"103012臺北市大同區長安西路177巷2號（1樓、2樓、3樓）","hasBabyChanging":false,"hasAccessible":false,"source":"OpenStreetMap","updatedAt":"2026-06-10T15:41:05.166Z","facilityType":"clinic","facilityLabel":"🩺 診所","phone":"+886 2 2558 8189","website":null,"wheelchair":false,"needsAddr":false},{"id":11555970194,"name":"喜聖診所","lat":25.052178,"lng":121.5115414,"address":"103002臺北市大同區長安西路235號1樓、237號1樓","hasBabyChanging":false,"hasAccessible":false,"source":"OpenStreetMap","updatedAt":"2026-06-10T15:41:05.166Z","facilityType":"clinic","facilityLabel":"🩺 診所","phone":"+886 2 2559 5078","website":null,"wheelchair":false,"needsAddr":false},{"id":11555970200,"name":"長青動物醫院急診科分院","lat":25.0521262,"lng":121.509257,"address":"103602臺北市大同區長安西路289之1號","hasBabyChanging":false,"hasAccessible":false,"source":"OpenStreetMap","updatedAt":"2026-06-10T15:41:05.166Z","facilityType":"vet","facilityLabel":"🐾 動物醫院","phone":"+886 2 2559 1793","website":null,"wheelchair":false,"needsAddr":false},{"id":11555970202,"name":"琥珀中醫診所","lat":25.0521268,"lng":121.5093448,"address":"103602臺北市大同區長安西路289號1樓","hasBabyChanging":false,"hasAccessible":false,"source":"OpenStreetMap","updatedAt":"2026-06-10T15:41:05.166Z","facilityType":"clinic","facilityLabel":"🩺 診所","phone":"+886 2 2559 6963","website":null,"wheelchair":false,"needsAddr":false},{"id":11555970203,"name":"西寧安泰牙醫診所","lat":25.0523802,"lng":121.5087469,"address":"103001臺北市大同區西寧北路15號1樓","hasBabyChanging":false,"hasAccessible":false,"source":"OpenStreetMap","updatedAt":"2026-06-10T15:41:05.166Z","facilityType":"dentist","facilityLabel":"🦷 牙醫","phone":"+886 2 2552 7121","website":null,"wheelchair":false,"needsAddr":false},{"id":11555970216,"name":"建成牙醫","lat":25.0541797,"lng":121.5089473,"address":"103001臺北市大同區西寧北路51之1號2樓","hasBabyChanging":false,"hasAccessible":false,"source":"OpenStreetMap","updatedAt":"2026-06-10T15:41:05.166Z","facilityType":"dentist","facilityLabel":"🦷 牙醫","phone":"+886 2 2559 3999","website":null,"wheelchair":false,"needsAddr":false},{"id":12095149690,"name":"屈臣氏","lat":25.0545804,"lng":121.5149989,"address":null,"hasBabyChanging":false,"hasAccessible":false,"source":"OpenStreetMap","updatedAt":"2026-06-10T15:41:05.166Z","facilityType":"pharmacy","facilityLabel":"💊 藥妝","phone":null,"website":null,"wheelchair":false,"needsAddr":true},{"id":201280863,"name":"臺北市立聯合醫院中興院區","lat":25.0512131,"lng":121.5091639,"address":"103212臺北市大同區鄭州路145號","hasBabyChanging":false,"hasAccessible":true,"source":"OpenStreetMap","updatedAt":"2026-06-10T15:41:05.166Z","facilityType":"hospital","facilityLabel":"🏥 醫院","phone":"+886 2 2552 3234","website":"https://tpech.gov.taipei/mp.asp?mp=109141","wheelchair":true,"needsAddr":false},{"id":396410861,"name":"快安藥局","lat":25.0534809,"lng":121.5145304,"address":"103019臺北市大同區南京西路282、284號","hasBabyChanging":false,"hasAccessible":false,"source":"OpenStreetMap","updatedAt":"2026-06-10T15:41:05.166Z","facilityType":"pharmacy","facilityLabel":"💊 藥局","phone":"+886 2 2556 1925","website":null,"wheelchair":false,"needsAddr":false},{"id":396410882,"name":"慈愛動物醫院","lat":25.0543368,"lng":121.5150121,"address":"103019臺北市大同區寧夏路1號","hasBabyChanging":false,"hasAccessible":false,"source":"OpenStreetMap","updatedAt":"2026-06-10T15:41:05.166Z","facilityType":"vet","facilityLabel":"🐾 動物醫院","phone":"+886 2 2556 3320","website":null,"wheelchair":false,"needsAddr":false},{"id":396410891,"name":"建祥藥局","lat":25.0548168,"lng":121.5151268,"address":"103019臺北市大同區寧夏路17、17之1號","hasBabyChanging":false,"hasAccessible":false,"source":"OpenStreetMap","updatedAt":"2026-06-10T15:41:05.166Z","facilityType":"pharmacy","facilityLabel":"💊 藥局","phone":"+886 2 2555 6476","website":null,"wheelchair":false,"needsAddr":false},{"id":1720016590,"name":"大直永安藥局","lat":25.0808646,"lng":121.5482458,"address":"台北市中山區北安路567之2號","hasBabyChanging":false,"hasAccessible":false,"source":"OpenStreetMap","updatedAt":"2026-06-10T15:41:05.166Z","facilityType":"pharmacy","facilityLabel":"💊 藥局","phone":null,"website":null,"wheelchair":false,"needsAddr":false},{"id":1720016594,"name":"大直健康藥局","lat":25.0819736,"lng":121.5486292,"address":"臺北市中山區北安路591號","hasBabyChanging":false,"hasAccessible":false,"source":"OpenStreetMap","updatedAt":"2026-06-10T15:41:05.166Z","facilityType":"pharmacy","facilityLabel":"💊 藥局","phone":null,"website":null,"wheelchair":false,"needsAddr":false},{"id":1944251046,"name":"富宥康","lat":25.0826111,"lng":121.5496689,"address":null,"hasBabyChanging":false,"hasAccessible":false,"source":"OpenStreetMap","updatedAt":"2026-06-10T15:41:05.166Z","facilityType":"pharmacy","facilityLabel":"💊 藥局","phone":null,"website":null,"wheelchair":false,"needsAddr":true},{"id":2144273014,"name":"屈臣氏","lat":25.060457,"lng":121.5333981,"address":null,"hasBabyChanging":false,"hasAccessible":false,"source":"OpenStreetMap","updatedAt":"2026-06-10T15:41:05.166Z","facilityType":"pharmacy","facilityLabel":"💊 藥妝","phone":null,"website":null,"wheelchair":false,"needsAddr":true},{"id":2144300095,"name":"康是美","lat":25.061503,"lng":121.5334547,"address":null,"hasBabyChanging":false,"hasAccessible":false,"source":"OpenStreetMap","updatedAt":"2026-06-10T15:41:05.166Z","facilityType":"pharmacy","facilityLabel":"💊 藥妝","phone":"+886 2 2502 8381","website":"https://shop.cosmed.com.tw/","wheelchair":false,"needsAddr":true},{"id":2144300099,"name":"日藥本舖","lat":25.0608907,"lng":121.5334109,"address":null,"hasBabyChanging":false,"hasAccessible":false,"source":"OpenStreetMap","updatedAt":"2026-06-10T15:41:05.166Z","facilityType":"pharmacy","facilityLabel":"💊 藥局","phone":null,"website":null,"wheelchair":false,"needsAddr":true},{"id":2147398358,"name":"康是美","lat":25.0649746,"lng":121.5302452,"address":null,"hasBabyChanging":false,"hasAccessible":false,"source":"OpenStreetMap","updatedAt":"2026-06-10T15:41:05.166Z","facilityType":"pharmacy","facilityLabel":"💊 藥妝","phone":null,"website":null,"wheelchair":false,"needsAddr":true},{"id":2150116228,"name":"京元中醫診所","lat":25.0633506,"lng":121.5329804,"address":"104台北市中山區松江路378號","hasBabyChanging":false,"hasAccessible":false,"source":"OpenStreetMap","updatedAt":"2026-06-10T15:41:05.166Z","facilityType":"clinic","facilityLabel":"🩺 診所","phone":null,"website":null,"wheelchair":false,"needsAddr":false},{"id":2163466090,"name":"德容聯合診所","lat":25.0598724,"lng":121.5305602,"address":null,"hasBabyChanging":false,"hasAccessible":false,"source":"OpenStreetMap","updatedAt":"2026-06-10T15:41:05.166Z","facilityType":"clinic","facilityLabel":"🩺 診所","phone":null,"website":null,"wheelchair":false,"needsAddr":true},{"id":2179747915,"name":"康是美","lat":25.0653338,"lng":121.5408981,"address":null,"hasBabyChanging":false,"hasAccessible":false,"source":"OpenStreetMap","updatedAt":"2026-06-10T15:41:05.166Z","facilityType":"pharmacy","facilityLabel":"💊 藥妝","phone":null,"website":null,"wheelchair":false,"needsAddr":true},{"id":2183273142,"name":"米亞動物醫院","lat":25.0627403,"lng":121.5309921,"address":null,"hasBabyChanging":false,"hasAccessible":false,"source":"OpenStreetMap","updatedAt":"2026-06-10T15:41:05.166Z","facilityType":"vet","facilityLabel":"🐾 動物醫院","phone":null,"website":null,"wheelchair":false,"needsAddr":true},{"id":2188405249,"name":"康華牙醫","lat":25.0600907,"lng":121.5334437,"address":null,"hasBabyChanging":false,"hasAccessible":false,"source":"OpenStreetMap","updatedAt":"2026-06-10T15:41:05.166Z","facilityType":"dentist","facilityLabel":"🦷 牙醫","phone":null,"website":null,"wheelchair":false,"needsAddr":true},{"id":2377138789,"name":"京華中醫","lat":25.0508174,"lng":121.5331864,"address":null,"hasBabyChanging":false,"hasAccessible":false,"source":"OpenStreetMap","updatedAt":"2026-06-10T15:41:05.166Z","facilityType":"clinic","facilityLabel":"🩺 診所","phone":null,"website":null,"wheelchair":false,"needsAddr":true},{"id":2368458784,"name":"傳愛經典中醫","lat":25.0515899,"lng":121.5403071,"address":null,"hasBabyChanging":false,"hasAccessible":false,"source":"OpenStreetMap","updatedAt":"2026-06-10T15:41:05.166Z","facilityType":"clinic","facilityLabel":"🩺 診所","phone":null,"website":null,"wheelchair":false,"needsAddr":true},{"id":2392237979,"name":"松江博萊恩牙醫診所","lat":25.0609721,"lng":121.5349789,"address":null,"hasBabyChanging":false,"hasAccessible":false,"source":"OpenStreetMap","updatedAt":"2026-06-10T15:41:05.166Z","facilityType":"dentist","facilityLabel":"🦷 牙醫","phone":null,"website":null,"wheelchair":false,"needsAddr":true},{"id":2392237982,"name":"和的獸醫院","lat":25.060618,"lng":121.5349721,"address":null,"hasBabyChanging":false,"hasAccessible":false,"source":"OpenStreetMap","updatedAt":"2026-06-10T15:41:05.166Z","facilityType":"vet","facilityLabel":"🐾 動物醫院","phone":null,"website":null,"wheelchair":false,"needsAddr":true},{"id":2392237983,"name":"楊安牙醫診所","lat":25.0619077,"lng":121.5347453,"address":null,"hasBabyChanging":false,"hasAccessible":false,"source":"OpenStreetMap","updatedAt":"2026-06-10T15:41:05.166Z","facilityType":"dentist","facilityLabel":"🦷 牙醫","phone":null,"website":null,"wheelchair":false,"needsAddr":true},{"id":2392237985,"name":"杏慈診所","lat":25.0618921,"lng":121.5349914,"address":null,"hasBabyChanging":false,"hasAccessible":false,"source":"OpenStreetMap","updatedAt":"2026-06-10T15:41:05.166Z","facilityType":"clinic","facilityLabel":"🩺 診所","phone":"+886 2 25013109","website":null,"wheelchair":false,"needsAddr":true},{"id":2392237993,"name":"昇海棠國術館","lat":25.0607344,"lng":121.5350839,"address":null,"hasBabyChanging":false,"hasAccessible":false,"source":"OpenStreetMap","updatedAt":"2026-06-10T15:41:05.166Z","facilityType":"bonesetting","facilityLabel":"🦴 國術館","phone":null,"website":null,"wheelchair":false,"needsAddr":true},{"id":2392257348,"name":"順泰藥局","lat":25.0601743,"lng":121.5347476,"address":null,"hasBabyChanging":false,"hasAccessible":false,"source":"OpenStreetMap","updatedAt":"2026-06-10T15:41:05.166Z","facilityType":"pharmacy","facilityLabel":"💊 藥局","phone":null,"website":null,"wheelchair":false,"needsAddr":true},{"id":2399354804,"name":"幸恩牙醫","lat":25.0507171,"lng":121.5346181,"address":"104台北市中山區伊通街28號","hasBabyChanging":false,"hasAccessible":false,"source":"OpenStreetMap","updatedAt":"2026-06-10T15:41:05.166Z","facilityType":"dentist","facilityLabel":"🦷 牙醫","phone":null,"website":null,"wheelchair":false,"needsAddr":false},{"id":2460009530,"name":"屈臣氏","lat":25.051855,"lng":121.5298578,"address":null,"hasBabyChanging":false,"hasAccessible":false,"source":"OpenStreetMap","updatedAt":"2026-06-10T15:41:05.166Z","facilityType":"pharmacy","facilityLabel":"💊 藥妝","phone":null,"website":null,"wheelchair":false,"needsAddr":true},{"id":2460626592,"name":"康是美","lat":25.0533946,"lng":121.5438244,"address":null,"hasBabyChanging":false,"hasAccessible":false,"source":"OpenStreetMap","updatedAt":"2026-06-10T15:41:05.166Z","facilityType":"pharmacy","facilityLabel":"💊 藥妝","phone":null,"website":null,"wheelchair":false,"needsAddr":true},{"id":2481944777,"name":"伊通極致牙醫","lat":25.0500586,"lng":121.5351493,"address":null,"hasBabyChanging":false,"hasAccessible":false,"source":"OpenStreetMap","updatedAt":"2026-06-10T15:41:05.166Z","facilityType":"dentist","facilityLabel":"🦷 牙醫","phone":null,"website":null,"wheelchair":false,"needsAddr":true},{"id":2518367427,"name":"屈臣氏","lat":25.0485502,"lng":121.5341869,"address":"104台北市中山區長安東路二段77號","hasBabyChanging":false,"hasAccessible":false,"source":"OpenStreetMap","updatedAt":"2026-06-10T15:41:05.166Z","facilityType":"pharmacy","facilityLabel":"💊 藥妝","phone":null,"website":null,"wheelchair":false,"needsAddr":false},{"id":2566814444,"name":"長安藥局","lat":25.0483971,"lng":121.5417042,"address":null,"hasBabyChanging":false,"hasAccessible":false,"source":"OpenStreetMap","updatedAt":"2026-06-10T15:41:05.166Z","facilityType":"pharmacy","facilityLabel":"💊 藥局","phone":null,"website":null,"wheelchair":false,"needsAddr":true},{"id":2572568013,"name":"元昌藥房","lat":25.0478004,"lng":121.541237,"address":"104台北市中山區龍江路21巷11號","hasBabyChanging":false,"hasAccessible":false,"source":"OpenStreetMap","updatedAt":"2026-06-10T15:41:05.166Z","facilityType":"pharmacy","facilityLabel":"💊 藥局","phone":null,"website":null,"wheelchair":false,"needsAddr":false},{"id":2575904196,"name":"瑞光眼科","lat":25.0523474,"lng":121.5242266,"address":"104台北市中山區南京東路一段25號","hasBabyChanging":false,"hasAccessible":false,"source":"OpenStreetMap","updatedAt":"2026-06-10T15:41:05.166Z","facilityType":"clinic","facilityLabel":"🩺 診所","phone":null,"website":null,"wheelchair":false,"needsAddr":false},{"id":2604138854,"name":"健生牙醫診所","lat":25.0470766,"lng":121.5402958,"address":null,"hasBabyChanging":false,"hasAccessible":false,"source":"OpenStreetMap","updatedAt":"2026-06-10T15:41:05.166Z","facilityType":"dentist","facilityLabel":"🦷 牙醫","phone":null,"website":null,"wheelchair":false,"needsAddr":true},{"id":2615838242,"name":"傅牙醫診所","lat":25.0473238,"lng":121.5423751,"address":"104臺北市中山區八德路二段297號","hasBabyChanging":false,"hasAccessible":false,"source":"OpenStreetMap","updatedAt":"2026-06-10T15:41:05.166Z","facilityType":"dentist","facilityLabel":"🦷 牙醫","phone":"+886 2 27716701","website":null,"wheelchair":false,"needsAddr":false},{"id":2625503715,"name":"錦禾大直中醫診所","lat":25.0795704,"lng":121.5448896,"address":"台北市中山區北安路470號","hasBabyChanging":false,"hasAccessible":false,"source":"OpenStreetMap","updatedAt":"2026-06-10T15:41:05.166Z","facilityType":"clinic","facilityLabel":"🩺 診所","phone":null,"website":null,"wheelchair":false,"needsAddr":false},{"id":2625503730,"name":"愛鄰診所","lat":25.0796703,"lng":121.5460889,"address":"臺北市中山區北安路520-1號","hasBabyChanging":false,"hasAccessible":false,"source":"OpenStreetMap","updatedAt":"2026-06-10T15:41:05.166Z","facilityType":"clinic","facilityLabel":"🩺 診所","phone":null,"website":null,"wheelchair":false,"needsAddr":false},{"id":2625503731,"name":"屈臣氏","lat":25.0796873,"lng":121.546172,"address":"台北市中山區北安路520-4號","hasBabyChanging":false,"hasAccessible":false,"source":"OpenStreetMap","updatedAt":"2026-06-10T15:41:05.166Z","facilityType":"pharmacy","facilityLabel":"💊 藥妝","phone":null,"website":null,"wheelchair":false,"needsAddr":false},{"id":2766875117,"name":"蔡國賢耳鼻喉科","lat":25.0482625,"lng":121.5352789,"address":"104台北市中山區長安東路二段108-2號","hasBabyChanging":false,"hasAccessible":false,"source":"OpenStreetMap","updatedAt":"2026-06-10T15:41:05.166Z","facilityType":"clinic","facilityLabel":"👂 耳鼻喉科","phone":"+886 2 2517 8178","website":"http://www.bobocatclinic.tw/","wheelchair":false,"needsAddr":false},{"id":2770015682,"name":"大來牙醫","lat":25.0486062,"lng":121.5339898,"address":null,"hasBabyChanging":false,"hasAccessible":false,"source":"OpenStreetMap","updatedAt":"2026-06-10T15:41:05.166Z","facilityType":"dentist","facilityLabel":"🦷 牙醫","phone":null,"website":null,"wheelchair":false,"needsAddr":true},{"id":2949647952,"name":"麗恩藥局","lat":25.0652943,"lng":121.5258594,"address":null,"hasBabyChanging":false,"hasAccessible":false,"source":"OpenStreetMap","updatedAt":"2026-06-10T15:41:05.166Z","facilityType":"pharmacy","facilityLabel":"💊 藥局","phone":null,"website":null,"wheelchair":false,"needsAddr":true},{"id":3034546861,"name":"玩美數位牙醫","lat":25.0519205,"lng":121.5255958,"address":"104臺北市中山區正義里15鄰南京東路一段86號三樓","hasBabyChanging":false,"hasAccessible":false,"source":"OpenStreetMap","updatedAt":"2026-06-10T15:41:05.166Z","facilityType":"dentist","facilityLabel":"🦷 牙醫","phone":null,"website":null,"wheelchair":false,"needsAddr":false},{"id":3034547267,"name":"屈臣氏","lat":25.0546671,"lng":121.534627,"address":"104臺北市中山區長春路184號","hasBabyChanging":false,"hasAccessible":true,"source":"OpenStreetMap","updatedAt":"2026-06-10T15:41:05.166Z","facilityType":"pharmacy","facilityLabel":"💊 藥妝","phone":"+886-2-2504-8416","website":null,"wheelchair":true,"needsAddr":false},{"id":3132488959,"name":"屈臣氏","lat":25.0648599,"lng":121.5242023,"address":null,"hasBabyChanging":false,"hasAccessible":false,"source":"OpenStreetMap","updatedAt":"2026-06-10T15:41:05.166Z","facilityType":"pharmacy","facilityLabel":"💊 藥妝","phone":null,"website":null,"wheelchair":false,"needsAddr":true},{"id":3156328380,"name":"屈臣氏","lat":25.0582119,"lng":121.5253823,"address":"10451臺北市中山區林森北路380號","hasBabyChanging":false,"hasAccessible":false,"source":"OpenStreetMap","updatedAt":"2026-06-10T15:41:05.166Z","facilityType":"pharmacy","facilityLabel":"💊 藥妝","phone":"+886-2567-8964","website":"https://www.watsons.com.tw/","wheelchair":false,"needsAddr":false},{"id":3221771075,"name":"屈臣氏","lat":25.0626213,"lng":121.5200933,"address":null,"hasBabyChanging":false,"hasAccessible":true,"source":"OpenStreetMap","updatedAt":"2026-06-10T15:41:05.166Z","facilityType":"pharmacy","facilityLabel":"💊 藥妝","phone":null,"website":null,"wheelchair":true,"needsAddr":true},{"id":3292266262,"name":"京硯綜合診所","lat":25.0545815,"lng":121.5374473,"address":"104臺北市中山區長春路208號","hasBabyChanging":false,"hasAccessible":false,"source":"OpenStreetMap","updatedAt":"2026-06-10T15:41:05.166Z","facilityType":"clinic","facilityLabel":"🩺 診所","phone":null,"website":null,"wheelchair":false,"needsAddr":false},{"id":3528427297,"name":"屈臣氏","lat":25.0517446,"lng":121.5350862,"address":"104台北市中山區南京東路二段178號","hasBabyChanging":false,"hasAccessible":false,"source":"OpenStreetMap","updatedAt":"2026-06-10T15:41:05.166Z","facilityType":"pharmacy","facilityLabel":"💊 藥妝","phone":null,"website":null,"wheelchair":false,"needsAddr":false},{"id":3533381098,"name":"益曼中醫","lat":25.0534305,"lng":121.5316319,"address":"104臺北市中山區一江街31之1號","hasBabyChanging":false,"hasAccessible":false,"source":"OpenStreetMap","updatedAt":"2026-06-10T15:41:05.166Z","facilityType":"clinic","facilityLabel":"🩺 診所","phone":null,"website":null,"wheelchair":false,"needsAddr":false},{"id":3704216626,"name":"惠友藥局","lat":25.0544315,"lng":121.5314512,"address":"104台北市中山區一江街60號","hasBabyChanging":false,"hasAccessible":false,"source":"OpenStreetMap","updatedAt":"2026-06-10T15:41:05.166Z","facilityType":"pharmacy","facilityLabel":"💊 藥局","phone":null,"website":null,"wheelchair":false,"needsAddr":false},{"id":3778327919,"name":"康是美","lat":25.0603942,"lng":121.5322744,"address":"104台北市中山區錦州街219號","hasBabyChanging":false,"hasAccessible":false,"source":"OpenStreetMap","updatedAt":"2026-06-10T15:41:05.166Z","facilityType":"pharmacy","facilityLabel":"💊 藥妝","phone":"+886 2 2537 2396","website":"https://shop.cosmed.com.tw/","wheelchair":false,"needsAddr":false},{"id":3826876963,"name":"施宏男復健科診所","lat":25.0549549,"lng":121.532759,"address":null,"hasBabyChanging":false,"hasAccessible":false,"source":"OpenStreetMap","updatedAt":"2026-06-10T15:41:05.166Z","facilityType":"clinic","facilityLabel":"🦽 復健科","phone":null,"website":null,"wheelchair":false,"needsAddr":true},{"id":3826876964,"name":"安康復健科診所","lat":25.0486315,"lng":121.532663,"address":null,"hasBabyChanging":false,"hasAccessible":false,"source":"OpenStreetMap","updatedAt":"2026-06-10T15:41:05.166Z","facilityType":"clinic","facilityLabel":"🦽 復健科","phone":null,"website":null,"wheelchair":false,"needsAddr":true},{"id":3856927986,"name":"慶生醫院","lat":25.0644863,"lng":121.5258219,"address":"台北市中山區林森北路561號之7","hasBabyChanging":false,"hasAccessible":false,"source":"OpenStreetMap","updatedAt":"2026-06-10T15:41:05.166Z","facilityType":"hospital","facilityLabel":"🏥 醫院","phone":"+886-2-2598-3456","website":null,"wheelchair":false,"needsAddr":false},{"id":3887820867,"name":"靜心牙醫","lat":25.048271,"lng":121.5334967,"address":"104台北市中山區長安東路二段64號二樓","hasBabyChanging":false,"hasAccessible":false,"source":"OpenStreetMap","updatedAt":"2026-06-10T15:41:05.166Z","facilityType":"dentist","facilityLabel":"🦷 牙醫","phone":null,"website":null,"wheelchair":false,"needsAddr":false},{"id":3889227325,"name":"成功動物醫院","lat":25.060681,"lng":121.5211158,"address":null,"hasBabyChanging":false,"hasAccessible":false,"source":"OpenStreetMap","updatedAt":"2026-06-10T15:41:05.166Z","facilityType":"vet","facilityLabel":"🐾 動物醫院","phone":null,"website":null,"wheelchair":false,"needsAddr":true},{"id":3889230208,"name":"康是美","lat":25.0625998,"lng":121.5211122,"address":null,"hasBabyChanging":false,"hasAccessible":false,"source":"OpenStreetMap","updatedAt":"2026-06-10T15:41:05.166Z","facilityType":"pharmacy","facilityLabel":"💊 藥妝","phone":null,"website":null,"wheelchair":false,"needsAddr":true},{"id":3959632231,"name":"專心藥局","lat":25.0542152,"lng":121.5346778,"address":"104臺北市中山區伊通街112之2號","hasBabyChanging":false,"hasAccessible":false,"source":"OpenStreetMap","updatedAt":"2026-06-10T15:41:05.166Z","facilityType":"pharmacy","facilityLabel":"💊 藥局","phone":"+886 2 2515 5847","website":null,"wheelchair":false,"needsAddr":false},{"id":4031296840,"name":"屈臣氏","lat":25.0521243,"lng":121.5402067,"address":"104台北市中山區南京東路三段125號","hasBabyChanging":false,"hasAccessible":false,"source":"OpenStreetMap","updatedAt":"2026-06-10T15:41:05.166Z","facilityType":"pharmacy","facilityLabel":"💊 藥妝","phone":null,"website":null,"wheelchair":false,"needsAddr":false},{"id":4085016850,"name":"妮琪藥局","lat":25.0530829,"lng":121.5349273,"address":"104臺北市中山區伊通街95號","hasBabyChanging":false,"hasAccessible":false,"source":"OpenStreetMap","updatedAt":"2026-06-10T15:41:05.166Z","facilityType":"pharmacy","facilityLabel":"💊 藥局","phone":null,"website":null,"wheelchair":false,"needsAddr":false},{"id":4085016854,"name":"至誠整形外科診所","lat":25.0529436,"lng":121.535057,"address":"104台北市中山區伊通街87巷3號","hasBabyChanging":false,"hasAccessible":false,"source":"OpenStreetMap","updatedAt":"2026-06-10T15:41:05.166Z","facilityType":"clinic","facilityLabel":"🩺 診所","phone":null,"website":null,"wheelchair":false,"needsAddr":false},{"id":4088322530,"name":"元和雅整型外科","lat":25.0530261,"lng":121.5332669,"address":null,"hasBabyChanging":false,"hasAccessible":false,"source":"OpenStreetMap","updatedAt":"2026-06-10T15:41:05.166Z","facilityType":"clinic","facilityLabel":"🩺 診所","phone":null,"website":null,"wheelchair":false,"needsAddr":true},{"id":4108971714,"name":"大台北牙醫診所","lat":25.0521943,"lng":121.5379768,"address":"104台北市中山區南京東路三段29號","hasBabyChanging":false,"hasAccessible":false,"source":"OpenStreetMap","updatedAt":"2026-06-10T15:41:05.166Z","facilityType":"dentist","facilityLabel":"🦷 牙醫","phone":null,"website":null,"wheelchair":false,"needsAddr":false},{"id":4108971716,"name":"永潔牙醫","lat":25.0516648,"lng":121.5353316,"address":"104台北市中山區南京東路二段188號","hasBabyChanging":false,"hasAccessible":false,"source":"OpenStreetMap","updatedAt":"2026-06-10T15:41:05.166Z","facilityType":"dentist","facilityLabel":"🦷 牙醫","phone":null,"website":null,"wheelchair":false,"needsAddr":false},{"id":4149458757,"name":"大直動物醫院","lat":25.0795582,"lng":121.5449281,"address":null,"hasBabyChanging":false,"hasAccessible":false,"source":"OpenStreetMap","updatedAt":"2026-06-10T15:41:05.166Z","facilityType":"vet","facilityLabel":"🐾 動物醫院","phone":null,"website":null,"wheelchair":false,"needsAddr":true},{"id":4198193214,"name":"天安堂藥行","lat":25.0534966,"lng":121.5349343,"address":"104臺北市中山區伊通街109號","hasBabyChanging":false,"hasAccessible":false,"source":"OpenStreetMap","updatedAt":"2026-06-10T15:41:05.166Z","facilityType":"pharmacy","facilityLabel":"💊 藥局","phone":null,"website":null,"wheelchair":false,"needsAddr":false},{"id":4198238514,"name":"勢喬牙醫","lat":25.0515544,"lng":121.5303433,"address":"104台北市中山區松江路108巷29之1號","hasBabyChanging":false,"hasAccessible":false,"source":"OpenStreetMap","updatedAt":"2026-06-10T15:41:05.166Z","facilityType":"dentist","facilityLabel":"🦷 牙醫","phone":null,"website":null,"wheelchair":false,"needsAddr":false},{"id":4198249693,"name":"康是美","lat":25.0485882,"lng":121.5324339,"address":null,"hasBabyChanging":false,"hasAccessible":false,"source":"OpenStreetMap","updatedAt":"2026-06-10T15:41:05.166Z","facilityType":"pharmacy","facilityLabel":"💊 藥妝","phone":null,"website":null,"wheelchair":false,"needsAddr":true},{"id":4198249696,"name":"祺庸牙醫","lat":25.0485999,"lng":121.5322982,"address":"104臺北市中山區興亞里13鄰長安東路二段49號","hasBabyChanging":false,"hasAccessible":false,"source":"OpenStreetMap","updatedAt":"2026-06-10T15:41:05.166Z","facilityType":"dentist","facilityLabel":"🦷 牙醫","phone":null,"website":null,"wheelchair":false,"needsAddr":false},{"id":4205229646,"name":"博登藥局","lat":25.0801985,"lng":121.5480613,"address":"104台北市中山區北安路546號","hasBabyChanging":false,"hasAccessible":false,"source":"OpenStreetMap","updatedAt":"2026-06-10T15:41:05.166Z","facilityType":"pharmacy","facilityLabel":"💊 藥局","phone":null,"website":null,"wheelchair":false,"needsAddr":false},{"id":4205229671,"name":"民生承安診所","lat":25.0574427,"lng":121.5432811,"address":null,"hasBabyChanging":false,"hasAccessible":false,"source":"OpenStreetMap","updatedAt":"2026-06-10T15:41:05.166Z","facilityType":"clinic","facilityLabel":"🩺 診所","phone":null,"website":null,"wheelchair":false,"needsAddr":true},{"id":4269582559,"name":"正傑健保藥局","lat":25.0483944,"lng":121.5425144,"address":"104台北市中山區長安東路二段179號","hasBabyChanging":false,"hasAccessible":false,"source":"OpenStreetMap","updatedAt":"2026-06-10T15:41:05.166Z","facilityType":"pharmacy","facilityLabel":"💊 藥局","phone":null,"website":null,"wheelchair":false,"needsAddr":false},{"id":4269582564,"name":"王俊民皮膚科診所","lat":25.0535321,"lng":121.533311,"address":null,"hasBabyChanging":false,"hasAccessible":false,"source":"OpenStreetMap","updatedAt":"2026-06-10T15:41:05.166Z","facilityType":"clinic","facilityLabel":"🩺 診所","phone":null,"website":null,"wheelchair":false,"needsAddr":true},{"id":4298897605,"name":"力慈科學中醫","lat":25.0549794,"lng":121.5333736,"address":null,"hasBabyChanging":false,"hasAccessible":false,"source":"OpenStreetMap","updatedAt":"2026-06-10T15:41:05.166Z","facilityType":"clinic","facilityLabel":"🩺 診所","phone":null,"website":null,"wheelchair":false,"needsAddr":true},{"id":4328118431,"name":"杜李威中醫診所","lat":25.0529976,"lng":121.5320378,"address":"104台北市中山區松江路132巷9號","hasBabyChanging":false,"hasAccessible":false,"source":"OpenStreetMap","updatedAt":"2026-06-10T15:41:05.166Z","facilityType":"clinic","facilityLabel":"🩺 診所","phone":null,"website":null,"wheelchair":false,"needsAddr":false},{"id":4329768659,"name":"札幌藥粧","lat":25.0525742,"lng":121.520547,"address":"104台北市大同區南京西路16號-1樓","hasBabyChanging":false,"hasAccessible":true,"source":"OpenStreetMap","updatedAt":"2026-06-10T15:41:05.166Z","facilityType":"pharmacy","facilityLabel":"💊 藥局","phone":"+886 2 25507067","website":"https://global-satudora.com/zh-tw","wheelchair":true,"needsAddr":false},{"id":4353617482,"name":"屈臣氏","lat":25.0575864,"lng":121.521117,"address":"104台北市中山區民生西路54號一樓","hasBabyChanging":false,"hasAccessible":false,"source":"OpenStreetMap","updatedAt":"2026-06-10T15:41:05.166Z","facilityType":"pharmacy","facilityLabel":"💊 藥妝","phone":null,"website":null,"wheelchair":false,"needsAddr":false},{"id":4397232202,"name":"達生中西藥行","lat":25.0576453,"lng":121.521721,"address":"104台北市中山區民生西路34號一樓","hasBabyChanging":false,"hasAccessible":false,"source":"OpenStreetMap","updatedAt":"2026-06-10T15:41:05.166Z","facilityType":"pharmacy","facilityLabel":"💊 藥局","phone":null,"website":null,"wheelchair":false,"needsAddr":false},{"id":4397232207,"name":"日藥本舖","lat":25.057672,"lng":121.5219568,"address":"104台北市中山區民生西路24號","hasBabyChanging":false,"hasAccessible":false,"source":"OpenStreetMap","updatedAt":"2026-06-10T15:41:05.166Z","facilityType":"pharmacy","facilityLabel":"💊 藥局","phone":null,"website":null,"wheelchair":false,"needsAddr":false},{"id":4397232215,"name":"宏林診所附設洗腎中心","lat":25.05771,"lng":121.522342,"address":"104台北市中山區民生西路6號","hasBabyChanging":false,"hasAccessible":false,"source":"OpenStreetMap","updatedAt":"2026-06-10T15:41:05.166Z","facilityType":"clinic","facilityLabel":"🩺 診所","phone":null,"website":null,"wheelchair":false,"needsAddr":false},{"id":4417341790,"name":"健康人生藥局","lat":25.0659577,"lng":121.5403671,"address":"104台北市中山區龍江路356巷14號","hasBabyChanging":false,"hasAccessible":false,"source":"OpenStreetMap","updatedAt":"2026-06-10T15:41:05.166Z","facilityType":"pharmacy","facilityLabel":"💊 藥局","phone":"+886 2 2502 3724","website":null,"wheelchair":false,"needsAddr":false},{"id":4449757833,"name":"興康源健保藥局","lat":25.0514192,"lng":121.521394,"address":"104台北市中山區中山北路一段140巷8號","hasBabyChanging":false,"hasAccessible":false,"source":"OpenStreetMap","updatedAt":"2026-06-10T15:41:05.166Z","facilityType":"pharmacy","facilityLabel":"💊 藥局","phone":"+886 2 25311248","website":null,"wheelchair":false,"needsAddr":false},{"id":4524863626,"name":"躍獅東東藥局","lat":25.0547475,"lng":121.5407357,"address":null,"hasBabyChanging":false,"hasAccessible":false,"source":"OpenStreetMap","updatedAt":"2026-06-10T15:41:05.166Z","facilityType":"pharmacy","facilityLabel":"💊 藥局","phone":null,"website":null,"wheelchair":false,"needsAddr":true},{"id":4524863629,"name":"葉內兒科","lat":25.0548255,"lng":121.5387842,"address":"104臺北市中山區長春路227號","hasBabyChanging":false,"hasAccessible":false,"source":"OpenStreetMap","updatedAt":"2026-06-10T15:41:05.166Z","facilityType":"clinic","facilityLabel":"👶 小兒科","phone":null,"website":null,"wheelchair":false,"needsAddr":false},{"id":4524863630,"name":"德心動物醫院","lat":25.0548286,"lng":121.5388593,"address":null,"hasBabyChanging":false,"hasAccessible":false,"source":"OpenStreetMap","updatedAt":"2026-06-10T15:41:05.166Z","facilityType":"vet","facilityLabel":"🐾 動物醫院","phone":null,"website":null,"wheelchair":false,"needsAddr":true},{"id":4524863743,"name":"喜信牙醫診所","lat":25.0597737,"lng":121.538658,"address":"104台北市中山區合江街144巷8號","hasBabyChanging":false,"hasAccessible":false,"source":"OpenStreetMap","updatedAt":"2026-06-10T15:41:05.166Z","facilityType":"dentist","facilityLabel":"🦷 牙醫","phone":null,"website":null,"wheelchair":false,"needsAddr":false},{"id":4524863901,"name":"趙素芳婦產科","lat":25.048135,"lng":121.5411896,"address":null,"hasBabyChanging":false,"hasAccessible":false,"source":"OpenStreetMap","updatedAt":"2026-06-10T15:41:05.166Z","facilityType":"clinic","facilityLabel":"🩺 診所","phone":null,"website":null,"wheelchair":false,"needsAddr":true},{"id":4524864032,"name":"展佑藥局","lat":25.0546794,"lng":121.5316853,"address":"104台北市中山區長春路146之1號","hasBabyChanging":false,"hasAccessible":true,"source":"OpenStreetMap","updatedAt":"2026-06-10T15:41:05.166Z","facilityType":"pharmacy","facilityLabel":"💊 藥局","phone":"+886 2 2523 2803","website":null,"wheelchair":true,"needsAddr":false},{"id":4758146632,"name":"馨培心理治療所","lat":25.0576067,"lng":121.522166,"address":"10448臺北市中山區民生西路16號3樓之2","hasBabyChanging":false,"hasAccessible":false,"source":"OpenStreetMap","updatedAt":"2026-06-10T15:41:05.166Z","facilityType":"clinic","facilityLabel":"🩺 診所","phone":null,"website":"http://xinpei-clinic.blogspot.tw/","wheelchair":false,"needsAddr":false},{"id":4774953539,"name":"心禾診所","lat":25.0513501,"lng":121.543757,"address":"10488臺北市中山區復興北路92號11樓之1","hasBabyChanging":false,"hasAccessible":false,"source":"OpenStreetMap","updatedAt":"2026-06-10T15:41:05.166Z","facilityType":"clinic","facilityLabel":"🩺 診所","phone":"+886-2-2750-6122","website":"http://seedofhopeclinic.blog.fc2.com/","wheelchair":false,"needsAddr":false},{"id":4837986391,"name":"祺祥中醫診所","lat":25.0467958,"lng":121.5326668,"address":"104台北市中山區松江路20之1號","hasBabyChanging":false,"hasAccessible":false,"source":"OpenStreetMap","updatedAt":"2026-06-10T15:41:05.166Z","facilityType":"clinic","facilityLabel":"🩺 診所","phone":null,"website":null,"wheelchair":false,"needsAddr":false},{"id":4837986510,"name":"峰茂牙醫診所","lat":25.0533448,"lng":121.5363884,"address":"104台北市中山區建國北路二段36號","hasBabyChanging":false,"hasAccessible":false,"source":"OpenStreetMap","updatedAt":"2026-06-10T15:41:05.166Z","facilityType":"dentist","facilityLabel":"🦷 牙醫","phone":null,"website":null,"wheelchair":false,"needsAddr":false},{"id":4928425248,"name":"丁美玲中醫診所","lat":25.0514596,"lng":121.534386,"address":"104台北市中山區伊通街52巷3號","hasBabyChanging":false,"hasAccessible":false,"source":"OpenStreetMap","updatedAt":"2026-06-10T15:41:05.166Z","facilityType":"clinic","facilityLabel":"🩺 診所","phone":null,"website":null,"wheelchair":false,"needsAddr":false},{"id":4928425252,"name":"CAIRE凱爾診所","lat":25.0512177,"lng":121.5358907,"address":"104台北市中山區伊通街59巷8號","hasBabyChanging":false,"hasAccessible":false,"source":"OpenStreetMap","updatedAt":"2026-06-10T15:41:05.166Z","facilityType":"clinic","facilityLabel":"🩺 診所","phone":null,"website":null,"wheelchair":false,"needsAddr":false},{"id":4928425286,"name":"滿順健保藥局","lat":25.0514475,"lng":121.5346351,"address":"104台北市中山區伊通街54號","hasBabyChanging":false,"hasAccessible":false,"source":"OpenStreetMap","updatedAt":"2026-06-10T15:41:05.166Z","facilityType":"pharmacy","facilityLabel":"💊 藥局","phone":null,"website":null,"wheelchair":false,"needsAddr":false},{"id":4983984615,"name":"優豐藥局","lat":25.0579344,"lng":121.5242722,"address":null,"hasBabyChanging":false,"hasAccessible":false,"source":"OpenStreetMap","updatedAt":"2026-06-10T15:41:05.166Z","facilityType":"pharmacy","facilityLabel":"💊 藥局","phone":null,"website":null,"wheelchair":false,"needsAddr":true},{"id":5052921368,"name":"康是美","lat":25.057901,"lng":121.5213998,"address":null,"hasBabyChanging":false,"hasAccessible":false,"source":"OpenStreetMap","updatedAt":"2026-06-10T15:41:05.166Z","facilityType":"pharmacy","facilityLabel":"💊 藥妝","phone":null,"website":null,"wheelchair":false,"needsAddr":true},{"id":5061734821,"name":"黃偉俐身心科診所","lat":25.0497733,"lng":121.5230089,"address":"台北市中山區天津街37號","hasBabyChanging":false,"hasAccessible":false,"source":"OpenStreetMap","updatedAt":"2026-06-10T15:41:05.166Z","facilityType":"clinic","facilityLabel":"🧠 精神科","phone":"+886-2-2511-4123","website":"http://wellyclinic.tw/experience.asp","wheelchair":false,"needsAddr":false},{"id":5061735121,"name":"北安聯合診所","lat":25.0810398,"lng":121.5483401,"address":"台北市中山區北安路569之3號","hasBabyChanging":false,"hasAccessible":false,"source":"OpenStreetMap","updatedAt":"2026-06-10T15:41:05.166Z","facilityType":"clinic","facilityLabel":"🩺 診所","phone":"+886-2-2533-7777","website":"http://www.beian.com.tw/","wheelchair":false,"needsAddr":false},{"id":5061735321,"name":"澄心診所","lat":25.0574462,"lng":121.5225823,"address":"台北市中山區中山北路二段82號2樓","hasBabyChanging":false,"hasAccessible":false,"source":"OpenStreetMap","updatedAt":"2026-06-10T15:41:05.166Z","facilityType":"clinic","facilityLabel":"🩺 診所","phone":"+886-2-2511-9531","website":null,"wheelchair":false,"needsAddr":false},{"id":5110269767,"name":"劉宣彥診所","lat":25.0488469,"lng":121.5348202,"address":"104台北市中山區伊通街17之4號","hasBabyChanging":false,"hasAccessible":false,"source":"OpenStreetMap","updatedAt":"2026-06-10T15:41:05.166Z","facilityType":"clinic","facilityLabel":"🩺 診所","phone":null,"website":null,"wheelchair":false,"needsAddr":false},{"id":5110488719,"name":"春天連鎖藥局","lat":25.0602231,"lng":121.5215953,"address":null,"hasBabyChanging":false,"hasAccessible":false,"source":"OpenStreetMap","updatedAt":"2026-06-10T15:41:05.166Z","facilityType":"pharmacy","facilityLabel":"💊 藥局","phone":null,"website":null,"wheelchair":false,"needsAddr":true},{"id":5110488928,"name":"品澄牙醫","lat":25.0616741,"lng":121.543955,"address":null,"hasBabyChanging":false,"hasAccessible":false,"source":"OpenStreetMap","updatedAt":"2026-06-10T15:41:05.166Z","facilityType":"dentist","facilityLabel":"🦷 牙醫","phone":null,"website":null,"wheelchair":false,"needsAddr":true},{"id":5110489222,"name":"景欣中醫診所","lat":25.052326,"lng":121.5322151,"address":null,"hasBabyChanging":false,"hasAccessible":false,"source":"OpenStreetMap","updatedAt":"2026-06-10T15:41:05.166Z","facilityType":"clinic","facilityLabel":"🩺 診所","phone":null,"website":null,"wheelchair":false,"needsAddr":true},{"id":5110489316,"name":"康是美","lat":25.0597974,"lng":121.5254188,"address":"10451台北市中山區林森北路426號","hasBabyChanging":false,"hasAccessible":false,"source":"OpenStreetMap","updatedAt":"2026-06-10T15:41:05.166Z","facilityType":"pharmacy","facilityLabel":"💊 藥妝","phone":"+886 2 2567 8783","website":null,"wheelchair":false,"needsAddr":false},{"id":5110489721,"name":"惠濟中醫行","lat":25.0588538,"lng":121.5290502,"address":null,"hasBabyChanging":false,"hasAccessible":false,"source":"OpenStreetMap","updatedAt":"2026-06-10T15:41:05.166Z","facilityType":"pharmacy","facilityLabel":"💊 藥局","phone":null,"website":null,"wheelchair":false,"needsAddr":true},{"id":5110489736,"name":"英皇牙醫診所","lat":25.0625205,"lng":121.5237715,"address":"104台北市中山區民權東路一段24號","hasBabyChanging":false,"hasAccessible":false,"source":"OpenStreetMap","updatedAt":"2026-06-10T15:41:05.166Z","facilityType":"dentist","facilityLabel":"🦷 牙醫","phone":null,"website":null,"wheelchair":false,"needsAddr":false},{"id":5110489758,"name":"禾康診所","lat":25.0621715,"lng":121.5254622,"address":"104台北市中山區森林北路514號","hasBabyChanging":false,"hasAccessible":false,"source":"OpenStreetMap","updatedAt":"2026-06-10T15:41:05.166Z","facilityType":"clinic","facilityLabel":"🩺 診所","phone":null,"website":null,"wheelchair":false,"needsAddr":false},{"id":5110489760,"name":"仁一藥局","lat":25.0623072,"lng":121.5254678,"address":null,"hasBabyChanging":false,"hasAccessible":false,"source":"OpenStreetMap","updatedAt":"2026-06-10T15:41:05.166Z","facilityType":"pharmacy","facilityLabel":"💊 藥局","phone":null,"website":null,"wheelchair":false,"needsAddr":true},