{"city":"澎湖縣","category":"medical","updatedAt":"2026-06-12T14:35:28.702Z","rev":1,"count":19,"items":[{"id":5951170566,"name":"新見安藥局","lat":23.5713925,"lng":119.570276,"address":null,"hasBabyChanging":false,"hasAccessible":false,"source":"OpenStreetMap","updatedAt":"2026-06-12T14:35:28.702Z","facilityType":"pharmacy","facilityLabel":"💊 藥局","phone":null,"website":null,"wheelchair":false,"needsAddr":true},{"id":13110242101,"name":"康是美","lat":23.5668976,"lng":119.5653735,"address":null,"hasBabyChanging":false,"hasAccessible":false,"source":"OpenStreetMap","updatedAt":"2026-06-12T14:35:28.702Z","facilityType":"pharmacy","facilityLabel":"💊 藥妝","phone":null,"website":null,"wheelchair":false,"needsAddr":true},{"id":13718435440,"name":"馬公第二衛生所","lat":23.5291415,"lng":119.6010133,"address":null,"hasBabyChanging":false,"hasAccessible":false,"source":"OpenStreetMap","updatedAt":"2026-06-12T14:35:28.702Z","facilityType":"health_center","facilityLabel":"🏥 衛生所","phone":null,"website":null,"wheelchair":false,"needsAddr":true},{"id":277832239,"name":"澎湖醫院安宅院區","lat":23.5744579,"lng":119.6008052,"address":"澎湖縣馬公市安宅里1鄰宅脚嶼91號之2","hasBabyChanging":false,"hasAccessible":false,"source":"OpenStreetMap","updatedAt":"2026-06-12T14:35:28.702Z","facilityType":"hospital","facilityLabel":"🏥 醫院","phone":null,"website":null,"wheelchair":false,"needsAddr":false},{"id":619333028,"name":"衛福部澎湖醫院","lat":23.5642253,"lng":119.5659442,"address":"澎湖縣馬公市啟明里10鄰中正路10號","hasBabyChanging":false,"hasAccessible":false,"source":"OpenStreetMap","updatedAt":"2026-06-12T14:35:28.702Z","facilityType":"hospital","facilityLabel":"🏥 醫院","phone":null,"website":null,"wheelchair":false,"needsAddr":false},{"id":686999145,"name":"澎湖馬公市第一衛生所","lat":23.5690536,"lng":119.5671098,"address":null,"hasBabyChanging":false,"hasAccessible":false,"source":"OpenStreetMap","updatedAt":"2026-06-12T14:35:28.702Z","facilityType":"health_center","facilityLabel":"🏥 衛生所","phone":null,"website":null,"wheelchair":false,"needsAddr":true},{"id":1278457611,"name":"寶雅","lat":23.5704446,"lng":119.5714139,"address":"澎湖縣馬公市北辰街8號","hasBabyChanging":false,"hasAccessible":false,"source":"OpenStreetMap","updatedAt":"2026-06-12T14:35:28.702Z","facilityType":"pharmacy","facilityLabel":"💊 藥局","phone":null,"website":null,"wheelchair":false,"needsAddr":false},{"id":1278781619,"name":"馬公市第二衛生所","lat":23.5293786,"lng":119.6008511,"address":"澎湖縣馬公市鎖管港240號","hasBabyChanging":false,"hasAccessible":false,"source":"OpenStreetMap","updatedAt":"2026-06-12T14:35:28.702Z","facilityType":"health_center","facilityLabel":"🏥 衛生所","phone":null,"website":null,"wheelchair":false,"needsAddr":false},{"id":1279032923,"name":"馬公市第三衛生所","lat":23.5681209,"lng":119.5835955,"address":"澎湖縣馬公市西文澳118-2號","hasBabyChanging":false,"hasAccessible":false,"source":"OpenStreetMap","updatedAt":"2026-06-12T14:35:28.702Z","facilityType":"health_center","facilityLabel":"🏥 衛生所","phone":null,"website":null,"wheelchair":false,"needsAddr":false},{"id":6125141,"name":"三軍總醫院澎湖分院","lat":23.5554086,"lng":119.5833911,"address":"880澎湖縣馬公市前寮里90號","hasBabyChanging":false,"hasAccessible":false,"source":"OpenStreetMap","updatedAt":"2026-06-12T14:35:28.702Z","facilityType":"hospital","facilityLabel":"🏥 醫院","phone":"+886 6 921 1116;+886 6 921 1119","website":"https://afph.tsgh.ndmctsgh.edu.tw/","wheelchair":false,"needsAddr":false},{"id":8638096195,"name":"湖西衛生所","lat":23.5835035,"lng":119.6616496,"address":null,"hasBabyChanging":false,"hasAccessible":false,"source":"OpenStreetMap","updatedAt":"2026-06-12T14:35:28.702Z","facilityType":"health_center","facilityLabel":"🏥 衛生所","phone":null,"website":null,"wheelchair":false,"needsAddr":true},{"id":6690306885,"name":"澎湖縣白沙鄉鳥嶼衛生所","lat":23.6600886,"lng":119.6597335,"address":null,"hasBabyChanging":false,"hasAccessible":false,"source":"OpenStreetMap","updatedAt":"2026-06-12T14:35:28.702Z","facilityType":"health_center","facilityLabel":"🏥 衛生所","phone":null,"website":null,"wheelchair":false,"needsAddr":true},{"id":782625690,"name":"吉貝衛生所","lat":23.7406824,"lng":119.6138295,"address":"澎湖縣白沙鄉吉貝村8-13號","hasBabyChanging":false,"hasAccessible":false,"source":"OpenStreetMap","updatedAt":"2026-06-12T14:35:28.702Z","facilityType":"health_center","facilityLabel":"🏥 衛生所","phone":"+886 6 991 1097","website":null,"wheelchair":false,"needsAddr":false},{"id":782628595,"name":"鳥嶼衛生所","lat":23.6600379,"lng":119.6600237,"address":null,"hasBabyChanging":false,"hasAccessible":false,"source":"OpenStreetMap","updatedAt":"2026-06-12T14:35:28.702Z","facilityType":"health_center","facilityLabel":"🏥 衛生所","phone":null,"website":null,"wheelchair":false,"needsAddr":true},{"id":557394542,"name":"西嶼鄉衛生所","lat":23.5992501,"lng":119.5102399,"address":"881澎湖縣西嶼鄉池東村222號","hasBabyChanging":false,"hasAccessible":false,"source":"OpenStreetMap","updatedAt":"2026-06-12T14:35:28.702Z","facilityType":"health_center","facilityLabel":"🏥 衛生所","phone":null,"website":null,"wheelchair":false,"needsAddr":false},{"id":9709332082,"name":"將軍衛生所","lat":23.3635993,"lng":119.5196169,"address":null,"hasBabyChanging":false,"hasAccessible":false,"source":"OpenStreetMap","updatedAt":"2026-06-12T14:35:28.702Z","facilityType":"health_center","facilityLabel":"🏥 衛生所","phone":null,"website":null,"wheelchair":false,"needsAddr":true},{"id":257777661,"name":"望安鄉衛生所","lat":23.3617427,"lng":119.4970242,"address":"澎湖縣望安鄉西安村36-7號","hasBabyChanging":false,"hasAccessible":false,"source":"OpenStreetMap","updatedAt":"2026-06-12T14:35:28.702Z","facilityType":"health_center","facilityLabel":"🏥 衛生所","phone":null,"website":null,"wheelchair":false,"needsAddr":false},{"id":1054250728,"name":"將軍村衛生所","lat":23.3615692,"lng":119.5216513,"address":null,"hasBabyChanging":false,"hasAccessible":false,"source":"OpenStreetMap","updatedAt":"2026-06-12T14:35:28.702Z","facilityType":"health_center","facilityLabel":"🏥 衛生所","phone":null,"website":null,"wheelchair":false,"needsAddr":true},{"id":446003385,"name":"七美鄉衛生所","lat":23.2040705,"lng":119.4309375,"address":"澎湖縣七美鄉中和村10鄰埔內54號","hasBabyChanging":false,"hasAccessible":false,"source":"OpenStreetMap","updatedAt":"2026-06-12T14:35:28.702Z","facilityType":"health_center","facilityLabel":"🏥 衛生所","phone":null,"website":null,"wheelchair":false,"needsAddr":false}]}