{"city":"雲林縣","category":"medical","updatedAt":"2026-06-12T02:55:18.707Z","rev":1,"count":112,"items":[{"id":7197244676,"name":"藥局","lat":23.7128797,"lng":120.5401634,"address":null,"hasBabyChanging":false,"hasAccessible":false,"source":"OpenStreetMap","updatedAt":"2026-06-12T02:55:18.707Z","facilityType":"pharmacy","facilityLabel":"💊 藥局","phone":null,"website":null,"wheelchair":false,"needsAddr":true},{"id":8394077428,"name":"康是美","lat":23.7105677,"lng":120.5419529,"address":null,"hasBabyChanging":false,"hasAccessible":false,"source":"OpenStreetMap","updatedAt":"2026-06-12T02:55:18.707Z","facilityType":"pharmacy","facilityLabel":"💊 藥妝","phone":null,"website":null,"wheelchair":false,"needsAddr":true},{"id":8871073619,"name":"康是美","lat":23.7126134,"lng":120.5399798,"address":null,"hasBabyChanging":false,"hasAccessible":false,"source":"OpenStreetMap","updatedAt":"2026-06-12T02:55:18.707Z","facilityType":"pharmacy","facilityLabel":"💊 藥妝","phone":null,"website":null,"wheelchair":false,"needsAddr":true},{"id":9090407647,"name":"診所","lat":23.7142744,"lng":120.5410982,"address":null,"hasBabyChanging":false,"hasAccessible":false,"source":"OpenStreetMap","updatedAt":"2026-06-12T02:55:18.707Z","facilityType":"clinic","facilityLabel":"🩺 診所","phone":null,"website":null,"wheelchair":false,"needsAddr":true},{"id":9093810903,"name":"優生耳鼻喉科診所","lat":23.7112702,"lng":120.5425475,"address":null,"hasBabyChanging":false,"hasAccessible":false,"source":"OpenStreetMap","updatedAt":"2026-06-12T02:55:18.707Z","facilityType":"clinic","facilityLabel":"👂 耳鼻喉科","phone":null,"website":null,"wheelchair":false,"needsAddr":true},{"id":9093865686,"name":"診所","lat":23.7123591,"lng":120.5401638,"address":null,"hasBabyChanging":false,"hasAccessible":false,"source":"OpenStreetMap","updatedAt":"2026-06-12T02:55:18.707Z","facilityType":"clinic","facilityLabel":"🩺 診所","phone":null,"website":null,"wheelchair":false,"needsAddr":true},{"id":9220848157,"name":"診所","lat":23.7104714,"lng":120.5444697,"address":null,"hasBabyChanging":false,"hasAccessible":false,"source":"OpenStreetMap","updatedAt":"2026-06-12T02:55:18.707Z","facilityType":"clinic","facilityLabel":"🩺 診所","phone":null,"website":null,"wheelchair":false,"needsAddr":true},{"id":10917228732,"name":"大樹藥局","lat":23.7047096,"lng":120.5517063,"address":"640004雲林縣斗六市成功路296號","hasBabyChanging":false,"hasAccessible":false,"source":"OpenStreetMap","updatedAt":"2026-06-12T02:55:18.707Z","facilityType":"pharmacy","facilityLabel":"💊 藥局","phone":"+886 5 533 6233","website":"https://www.greattree.com.tw","wheelchair":false,"needsAddr":false},{"id":10921366754,"name":"寶雅","lat":23.7104381,"lng":120.5398545,"address":"雲林縣斗六市民生路157號","hasBabyChanging":false,"hasAccessible":false,"source":"OpenStreetMap","updatedAt":"2026-06-12T02:55:18.707Z","facilityType":"pharmacy","facilityLabel":"💊 藥局","phone":null,"website":null,"wheelchair":false,"needsAddr":false},{"id":10967377589,"name":"大樹藥局","lat":23.7022066,"lng":120.536851,"address":"640010雲林縣斗六市民生南路192號","hasBabyChanging":false,"hasAccessible":false,"source":"OpenStreetMap","updatedAt":"2026-06-12T02:55:18.707Z","facilityType":"pharmacy","facilityLabel":"💊 藥局","phone":"+886 5 533 6550","website":"https://www.greattree.com.tw","wheelchair":false,"needsAddr":false},{"id":11452045605,"name":"信明西藥局","lat":23.7103271,"lng":120.5420789,"address":null,"hasBabyChanging":false,"hasAccessible":false,"source":"OpenStreetMap","updatedAt":"2026-06-12T02:55:18.707Z","facilityType":"pharmacy","facilityLabel":"💊 藥局","phone":null,"website":null,"wheelchair":false,"needsAddr":true},{"id":11452997972,"name":"井上西藥房","lat":23.7089308,"lng":120.5422374,"address":null,"hasBabyChanging":false,"hasAccessible":false,"source":"OpenStreetMap","updatedAt":"2026-06-12T02:55:18.707Z","facilityType":"pharmacy","facilityLabel":"💊 藥局","phone":null,"website":null,"wheelchair":false,"needsAddr":true},{"id":11452997982,"name":"高銘眼科診所","lat":23.7080833,"lng":120.5416815,"address":null,"hasBabyChanging":false,"hasAccessible":false,"source":"OpenStreetMap","updatedAt":"2026-06-12T02:55:18.707Z","facilityType":"clinic","facilityLabel":"🩺 診所","phone":null,"website":null,"wheelchair":false,"needsAddr":true},{"id":11491150353,"name":"李嘉盛小兒科診所","lat":23.7075895,"lng":120.5412304,"address":null,"hasBabyChanging":false,"hasAccessible":false,"source":"OpenStreetMap","updatedAt":"2026-06-12T02:55:18.707Z","facilityType":"clinic","facilityLabel":"👶 小兒科","phone":null,"website":null,"wheelchair":false,"needsAddr":true},{"id":11491150355,"name":"蔡志偉牙醫診所","lat":23.707545,"lng":120.5411983,"address":null,"hasBabyChanging":false,"hasAccessible":false,"source":"OpenStreetMap","updatedAt":"2026-06-12T02:55:18.707Z","facilityType":"dentist","facilityLabel":"🦷 牙醫","phone":null,"website":null,"wheelchair":false,"needsAddr":true},{"id":11491150359,"name":"維康牙醫診所","lat":23.7080122,"lng":120.54129,"address":null,"hasBabyChanging":false,"hasAccessible":false,"source":"OpenStreetMap","updatedAt":"2026-06-12T02:55:18.707Z","facilityType":"dentist","facilityLabel":"🦷 牙醫","phone":null,"website":null,"wheelchair":false,"needsAddr":true},{"id":11491185472,"name":"明潔牙醫診所","lat":23.7076297,"lng":120.5412792,"address":null,"hasBabyChanging":false,"hasAccessible":false,"source":"OpenStreetMap","updatedAt":"2026-06-12T02:55:18.707Z","facilityType":"dentist","facilityLabel":"🦷 牙醫","phone":null,"website":null,"wheelchair":false,"needsAddr":true},{"id":11491185478,"name":"東泰牙醫診所","lat":23.7080368,"lng":120.5416491,"address":null,"hasBabyChanging":false,"hasAccessible":false,"source":"OpenStreetMap","updatedAt":"2026-06-12T02:55:18.707Z","facilityType":"dentist","facilityLabel":"🦷 牙醫","phone":null,"website":null,"wheelchair":false,"needsAddr":true},{"id":11491185479,"name":"蔡家正牙醫診所","lat":23.7086798,"lng":120.541819,"address":null,"hasBabyChanging":false,"hasAccessible":false,"source":"OpenStreetMap","updatedAt":"2026-06-12T02:55:18.707Z","facilityType":"dentist","facilityLabel":"🦷 牙醫","phone":null,"website":null,"wheelchair":false,"needsAddr":true},{"id":11491185480,"name":"祐康中醫診所","lat":23.7069986,"lng":120.5402382,"address":null,"hasBabyChanging":false,"hasAccessible":false,"source":"OpenStreetMap","updatedAt":"2026-06-12T02:55:18.707Z","facilityType":"clinic","facilityLabel":"🩺 診所","phone":null,"website":null,"wheelchair":false,"needsAddr":true},{"id":11491185494,"name":"仁德牙醫診所","lat":23.7072814,"lng":120.5409977,"address":null,"hasBabyChanging":false,"hasAccessible":false,"source":"OpenStreetMap","updatedAt":"2026-06-12T02:55:18.707Z","facilityType":"dentist","facilityLabel":"🦷 牙醫","phone":null,"website":null,"wheelchair":false,"needsAddr":true},{"id":11491185498,"name":"明祐診所","lat":23.7066945,"lng":120.540428,"address":null,"hasBabyChanging":false,"hasAccessible":false,"source":"OpenStreetMap","updatedAt":"2026-06-12T02:55:18.707Z","facilityType":"clinic","facilityLabel":"🩺 診所","phone":null,"website":null,"wheelchair":false,"needsAddr":true},{"id":11491185502,"name":"書菴耳鼻喉科診所","lat":23.7079472,"lng":120.5415685,"address":null,"hasBabyChanging":false,"hasAccessible":false,"source":"OpenStreetMap","updatedAt":"2026-06-12T02:55:18.707Z","facilityType":"clinic","facilityLabel":"👂 耳鼻喉科","phone":null,"website":null,"wheelchair":false,"needsAddr":true},{"id":11491185503,"name":"以斯帖診所","lat":23.7075817,"lng":120.5403008,"address":null,"hasBabyChanging":false,"hasAccessible":false,"source":"OpenStreetMap","updatedAt":"2026-06-12T02:55:18.707Z","facilityType":"clinic","facilityLabel":"🩺 診所","phone":null,"website":null,"wheelchair":false,"needsAddr":true},{"id":11491185504,"name":"龍昇牙醫診所","lat":23.7074249,"lng":120.5401993,"address":null,"hasBabyChanging":false,"hasAccessible":false,"source":"OpenStreetMap","updatedAt":"2026-06-12T02:55:18.707Z","facilityType":"dentist","facilityLabel":"🦷 牙醫","phone":null,"website":null,"wheelchair":false,"needsAddr":true},{"id":11496963014,"name":"光華藥局","lat":23.7097612,"lng":120.5420103,"address":null,"hasBabyChanging":false,"hasAccessible":false,"source":"OpenStreetMap","updatedAt":"2026-06-12T02:55:18.707Z","facilityType":"pharmacy","facilityLabel":"💊 藥局","phone":null,"website":null,"wheelchair":false,"needsAddr":true},{"id":11496963027,"name":"誠品牙醫診所","lat":23.7096885,"lng":120.5419675,"address":null,"hasBabyChanging":false,"hasAccessible":false,"source":"OpenStreetMap","updatedAt":"2026-06-12T02:55:18.707Z","facilityType":"dentist","facilityLabel":"🦷 牙醫","phone":null,"website":null,"wheelchair":false,"needsAddr":true},{"id":11496963030,"name":"永光藥局","lat":23.7098775,"lng":120.542075,"address":null,"hasBabyChanging":false,"hasAccessible":false,"source":"OpenStreetMap","updatedAt":"2026-06-12T02:55:18.707Z","facilityType":"pharmacy","facilityLabel":"💊 藥局","phone":null,"website":null,"wheelchair":false,"needsAddr":true},{"id":11508157338,"name":"康橋牙醫診所","lat":23.7078777,"lng":120.5408283,"address":null,"hasBabyChanging":false,"hasAccessible":false,"source":"OpenStreetMap","updatedAt":"2026-06-12T02:55:18.707Z","facilityType":"dentist","facilityLabel":"🦷 牙醫","phone":null,"website":null,"wheelchair":false,"needsAddr":true},{"id":13059841327,"name":"寶雅","lat":23.7144423,"lng":120.5430856,"address":"雲林縣斗六市鎮北路118號","hasBabyChanging":false,"hasAccessible":false,"source":"OpenStreetMap","updatedAt":"2026-06-12T02:55:18.707Z","facilityType":"pharmacy","facilityLabel":"💊 藥局","phone":null,"website":null,"wheelchair":false,"needsAddr":false},{"id":13700524315,"name":"上好藥局＜賦能健康中心＞","lat":23.7144918,"lng":120.5418527,"address":"雲林縣斗六市公誠里8鄰上海路238號","hasBabyChanging":false,"hasAccessible":false,"source":"OpenStreetMap","updatedAt":"2026-06-12T02:55:18.707Z","facilityType":"pharmacy","facilityLabel":"💊 藥局","phone":null,"website":null,"wheelchair":false,"needsAddr":false},{"id":242465369,"name":"成功大學醫學院附設斗六分院","lat":23.7021011,"lng":120.5457317,"address":"640雲林縣斗六市莊敬路345號","hasBabyChanging":false,"hasAccessible":false,"source":"OpenStreetMap","updatedAt":"2026-06-12T02:55:18.707Z","facilityType":"hospital","facilityLabel":"🏥 醫院","phone":"+886 5 5332121","website":"http://d6www.hosp.ncku.edu.tw/","wheelchair":false,"needsAddr":false},{"id":259858355,"name":"台大醫院雲林分院","lat":23.697023,"lng":120.5256208,"address":"雲林縣斗六市鎮西里14鄰雲林路二段579號","hasBabyChanging":false,"hasAccessible":false,"source":"OpenStreetMap","updatedAt":"2026-06-12T02:55:18.707Z","facilityType":"hospital","facilityLabel":"🏥 醫院","phone":null,"website":null,"wheelchair":false,"needsAddr":false},{"id":307263249,"name":"祥清眼科醫美診所","lat":23.7113852,"lng":120.5426226,"address":"640雲林縣斗六市興華街1-3號","hasBabyChanging":false,"hasAccessible":false,"source":"OpenStreetMap","updatedAt":"2026-06-12T02:55:18.707Z","facilityType":"clinic","facilityLabel":"🩺 診所","phone":"+886 5 534 7347","website":"http://www.ynagqing.com.tw/","wheelchair":false,"needsAddr":false},{"id":496651953,"name":"信安醫院","lat":23.6685113,"lng":120.5113811,"address":null,"hasBabyChanging":false,"hasAccessible":false,"source":"OpenStreetMap","updatedAt":"2026-06-12T02:55:18.707Z","facilityType":"hospital","facilityLabel":"🏥 醫院","phone":null,"website":null,"wheelchair":false,"needsAddr":true},{"id":496843411,"name":"斗六慈濟醫院","lat":23.7024736,"lng":120.5298197,"address":null,"hasBabyChanging":false,"hasAccessible":false,"source":"OpenStreetMap","updatedAt":"2026-06-12T02:55:18.707Z","facilityType":"hospital","facilityLabel":"🏥 醫院","phone":null,"website":null,"wheelchair":false,"needsAddr":true},{"id":496875005,"name":"寶雅","lat":23.7008723,"lng":120.5361685,"address":null,"hasBabyChanging":false,"hasAccessible":false,"source":"OpenStreetMap","updatedAt":"2026-06-12T02:55:18.707Z","facilityType":"pharmacy","facilityLabel":"💊 藥局","phone":null,"website":null,"wheelchair":false,"needsAddr":true},{"id":825462040,"name":"洪揚醫院","lat":23.7107136,"lng":120.5489309,"address":null,"hasBabyChanging":false,"hasAccessible":false,"source":"OpenStreetMap","updatedAt":"2026-06-12T02:55:18.707Z","facilityType":"hospital","facilityLabel":"🏥 醫院","phone":null,"website":null,"wheelchair":false,"needsAddr":true},{"id":4504422285,"name":"劉泰成聯合診所","lat":23.673589,"lng":120.4804408,"address":"630雲林縣斗南鎮中山路12號","hasBabyChanging":false,"hasAccessible":true,"source":"OpenStreetMap","updatedAt":"2026-06-12T02:55:18.707Z","facilityType":"clinic","facilityLabel":"🩺 診所","phone":"+886 5 596 4566","website":null,"wheelchair":true,"needsAddr":false},{"id":4504450693,"name":"古慧敏診所","lat":23.6742506,"lng":120.4798021,"address":"630雲林縣斗南鎮中山路37號","hasBabyChanging":false,"hasAccessible":true,"source":"OpenStreetMap","updatedAt":"2026-06-12T02:55:18.707Z","facilityType":"clinic","facilityLabel":"🩺 診所","phone":"+886 5 597 0641","website":null,"wheelchair":true,"needsAddr":false},{"id":6276233429,"name":"屈臣氏","lat":23.6750038,"lng":120.4795295,"address":null,"hasBabyChanging":false,"hasAccessible":false,"source":"OpenStreetMap","updatedAt":"2026-06-12T02:55:18.707Z","facilityType":"pharmacy","facilityLabel":"💊 藥妝","phone":null,"website":null,"wheelchair":false,"needsAddr":true},{"id":6276234273,"name":"藥局","lat":23.6757032,"lng":120.4788978,"address":null,"hasBabyChanging":false,"hasAccessible":false,"source":"OpenStreetMap","updatedAt":"2026-06-12T02:55:18.707Z","facilityType":"pharmacy","facilityLabel":"💊 藥局","phone":null,"website":null,"wheelchair":false,"needsAddr":true},{"id":6276494984,"name":"藥局","lat":23.675342,"lng":120.4778229,"address":null,"hasBabyChanging":false,"hasAccessible":false,"source":"OpenStreetMap","updatedAt":"2026-06-12T02:55:18.707Z","facilityType":"pharmacy","facilityLabel":"💊 藥局","phone":null,"website":null,"wheelchair":false,"needsAddr":true},{"id":6276496386,"name":"牙醫診所","lat":23.6725536,"lng":120.4773758,"address":null,"hasBabyChanging":false,"hasAccessible":false,"source":"OpenStreetMap","updatedAt":"2026-06-12T02:55:18.707Z","facilityType":"dentist","facilityLabel":"🦷 牙醫","phone":null,"website":null,"wheelchair":false,"needsAddr":true},{"id":11256807952,"name":"丁丁藥局","lat":23.6830796,"lng":120.4739089,"address":null,"hasBabyChanging":false,"hasAccessible":false,"source":"OpenStreetMap","updatedAt":"2026-06-12T02:55:18.707Z","facilityType":"pharmacy","facilityLabel":"💊 藥局","phone":null,"website":null,"wheelchair":false,"needsAddr":true},{"id":12381817969,"name":"寶雅","lat":23.673816,"lng":120.4807679,"address":null,"hasBabyChanging":false,"hasAccessible":false,"source":"OpenStreetMap","updatedAt":"2026-06-12T02:55:18.707Z","facilityType":"pharmacy","facilityLabel":"💊 藥局","phone":null,"website":null,"wheelchair":false,"needsAddr":true},{"id":13059841350,"name":"康是美","lat":23.6759086,"lng":120.4790065,"address":"雲林縣斗南鎮中山路102;104號","hasBabyChanging":false,"hasAccessible":false,"source":"OpenStreetMap","updatedAt":"2026-06-12T02:55:18.707Z","facilityType":"pharmacy","facilityLabel":"💊 藥妝","phone":null,"website":null,"wheelchair":false,"needsAddr":false},{"id":453772955,"name":"天主教福安醫院","lat":23.6787605,"lng":120.4822069,"address":"630雲林縣斗南鎮文昌路110號","hasBabyChanging":false,"hasAccessible":true,"source":"OpenStreetMap","updatedAt":"2026-06-12T02:55:18.707Z","facilityType":"hospital","facilityLabel":"🏥 醫院","phone":"+886 5 5952688,+886 5 5952655","website":"https://www.fah.org.tw/","wheelchair":true,"needsAddr":false},{"id":727655259,"name":"斗南衛生所","lat":23.6792586,"lng":120.4788491,"address":"630雲林縣斗南鎮福德街153號","hasBabyChanging":false,"hasAccessible":false,"source":"OpenStreetMap","updatedAt":"2026-06-12T02:55:18.707Z","facilityType":"health_center","facilityLabel":"🏥 衛生所","phone":null,"website":null,"wheelchair":false,"needsAddr":false},{"id":4577298558,"name":"寶雅","lat":23.7046233,"lng":120.4285304,"address":"雲林縣虎尾鎮林森路二段154號","hasBabyChanging":false,"hasAccessible":false,"source":"OpenStreetMap","updatedAt":"2026-06-12T02:55:18.707Z","facilityType":"pharmacy","facilityLabel":"💊 藥局","phone":null,"website":null,"wheelchair":false,"needsAddr":false},{"id":5372023921,"name":"光成診所","lat":23.7136297,"lng":120.4375925,"address":"632雲林縣虎尾鎮林森路一段268號一樓","hasBabyChanging":false,"hasAccessible":false,"source":"OpenStreetMap","updatedAt":"2026-06-12T02:55:18.707Z","facilityType":"clinic","facilityLabel":"👶 小兒科","phone":null,"website":null,"wheelchair":false,"needsAddr":false},{"id":5372029660,"name":"婦安婦產科診所","lat":23.7136944,"lng":120.4376533,"address":"632雲林縣虎尾鎮林森路一段266號","hasBabyChanging":false,"hasAccessible":false,"source":"OpenStreetMap","updatedAt":"2026-06-12T02:55:18.707Z","facilityType":"clinic","facilityLabel":"🩺 診所","phone":null,"website":null,"wheelchair":false,"needsAddr":false},{"id":6138340475,"name":"麗緻牙醫診所","lat":23.7053096,"lng":120.4290256,"address":null,"hasBabyChanging":false,"hasAccessible":false,"source":"OpenStreetMap","updatedAt":"2026-06-12T02:55:18.707Z","facilityType":"dentist","facilityLabel":"🦷 牙醫","phone":null,"website":null,"wheelchair":false,"needsAddr":true},{"id":6149972991,"name":"新明藥局","lat":23.6996535,"lng":120.4253563,"address":null,"hasBabyChanging":false,"hasAccessible":false,"source":"OpenStreetMap","updatedAt":"2026-06-12T02:55:18.707Z","facilityType":"pharmacy","facilityLabel":"💊 藥局","phone":null,"website":null,"wheelchair":false,"needsAddr":true},{"id":6149972992,"name":"大虎尾眼科診所","lat":23.6996142,"lng":120.4253241,"address":null,"hasBabyChanging":false,"hasAccessible":false,"source":"OpenStreetMap","updatedAt":"2026-06-12T02:55:18.707Z","facilityType":"clinic","facilityLabel":"🩺 診所","phone":null,"website":null,"wheelchair":false,"needsAddr":true},{"id":6149972998,"name":"安安婦兒聯合診所","lat":23.6993711,"lng":120.4245919,"address":null,"hasBabyChanging":false,"hasAccessible":false,"source":"OpenStreetMap","updatedAt":"2026-06-12T02:55:18.707Z","facilityType":"clinic","facilityLabel":"👶 小兒科","phone":null,"website":null,"wheelchair":false,"needsAddr":true},{"id":6213579920,"name":"台全診所","lat":23.712208,"lng":120.4363587,"address":null,"hasBabyChanging":false,"hasAccessible":false,"source":"OpenStreetMap","updatedAt":"2026-06-12T02:55:18.707Z","facilityType":"clinic","facilityLabel":"🩺 診所","phone":null,"website":null,"wheelchair":false,"needsAddr":true},{"id":6218932444,"name":"林眼科診所","lat":23.7089839,"lng":120.43383,"address":null,"hasBabyChanging":false,"hasAccessible":false,"source":"OpenStreetMap","updatedAt":"2026-06-12T02:55:18.707Z","facilityType":"clinic","facilityLabel":"🩺 診所","phone":null,"website":null,"wheelchair":false,"needsAddr":true},{"id":9816906590,"name":"大樹藥局","lat":23.7058961,"lng":120.4298571,"address":null,"hasBabyChanging":false,"hasAccessible":false,"source":"OpenStreetMap","updatedAt":"2026-06-12T02:55:18.707Z","facilityType":"pharmacy","facilityLabel":"💊 藥局","phone":null,"website":null,"wheelchair":false,"needsAddr":true},{"id":10832195366,"name":"屈臣氏","lat":23.7078944,"lng":120.4331348,"address":"雲林縣虎尾鎮中正路141號","hasBabyChanging":false,"hasAccessible":false,"source":"OpenStreetMap","updatedAt":"2026-06-12T02:55:18.707Z","facilityType":"pharmacy","facilityLabel":"💊 藥妝","phone":"+886 5 6320 734","website":null,"wheelchair":false,"needsAddr":false},{"id":10832195370,"name":"上方藥局","lat":23.7076155,"lng":120.4324871,"address":"雲林縣虎尾鎮中正路177號","hasBabyChanging":false,"hasAccessible":false,"source":"OpenStreetMap","updatedAt":"2026-06-12T02:55:18.707Z","facilityType":"pharmacy","facilityLabel":"💊 藥局","phone":"+886 5 6332 828","website":null,"wheelchair":false,"needsAddr":false},{"id":12791324638,"name":"杏一醫療用品","lat":23.7356263,"lng":120.4281689,"address":"雲林縣虎尾鎮興中里15鄰學府路35號","hasBabyChanging":false,"hasAccessible":false,"source":"OpenStreetMap","updatedAt":"2026-06-12T02:55:18.707Z","facilityType":"pharmacy","facilityLabel":"💊 藥局","phone":null,"website":null,"wheelchair":false,"needsAddr":false},{"id":13431964286,"name":"段延佐親子診所","lat":23.7038888,"lng":120.4279956,"address":null,"hasBabyChanging":false,"hasAccessible":false,"source":"OpenStreetMap","updatedAt":"2026-06-12T02:55:18.707Z","facilityType":"clinic","facilityLabel":"🩺 診所","phone":null,"website":null,"wheelchair":false,"needsAddr":true},{"id":13495235319,"name":"惠生大藥局","lat":23.7046538,"lng":120.4289746,"address":null,"hasBabyChanging":false,"hasAccessible":false,"source":"OpenStreetMap","updatedAt":"2026-06-12T02:55:18.707Z","facilityType":"pharmacy","facilityLabel":"💊 藥局","phone":null,"website":null,"wheelchair":false,"needsAddr":true},{"id":13506028096,"name":"端木梁診所","lat":23.710271,"lng":120.436916,"address":null,"hasBabyChanging":false,"hasAccessible":false,"source":"OpenStreetMap","updatedAt":"2026-06-12T02:55:18.707Z","facilityType":"clinic","facilityLabel":"🩺 診所","phone":null,"website":null,"wheelchair":false,"needsAddr":true},{"id":13898238613,"name":"診所","lat":23.7106302,"lng":120.4360904,"address":null,"hasBabyChanging":false,"hasAccessible":false,"source":"OpenStreetMap","updatedAt":"2026-06-12T02:55:18.707Z","facilityType":"clinic","facilityLabel":"🩺 診所","phone":null,"website":null,"wheelchair":false,"needsAddr":true},{"id":259858414,"name":"台大醫院雲林分院虎尾院區","lat":23.7341705,"lng":120.4264381,"address":"雲林縣虎尾鎮廉使里19鄰學府路95號","hasBabyChanging":false,"hasAccessible":false,"source":"OpenStreetMap","updatedAt":"2026-06-12T02:55:18.707Z","facilityType":"hospital","facilityLabel":"🏥 醫院","phone":null,"website":null,"wheelchair":false,"needsAddr":false},{"id":675564410,"name":"林嘉祈婦產科診所","lat":23.7087179,"lng":120.4380632,"address":null,"hasBabyChanging":false,"hasAccessible":false,"source":"OpenStreetMap","updatedAt":"2026-06-12T02:55:18.707Z","facilityType":"clinic","facilityLabel":"🩺 診所","phone":null,"website":null,"wheelchair":false,"needsAddr":true},{"id":1381391992,"name":"啄木鳥藥局","lat":23.7150533,"lng":120.4387374,"address":"雲林縣虎尾鎮公安里22鄰明正東路8號","hasBabyChanging":false,"hasAccessible":false,"source":"OpenStreetMap","updatedAt":"2026-06-12T02:55:18.707Z","facilityType":"pharmacy","facilityLabel":"💊 藥局","phone":null,"website":null,"wheelchair":false,"needsAddr":false},{"id":1391293166,"name":"寶雅","lat":23.708334,"lng":120.4359889,"address":"雲林縣虎尾鎮和平路105-1號","hasBabyChanging":false,"hasAccessible":false,"source":"OpenStreetMap","updatedAt":"2026-06-12T02:55:18.707Z","facilityType":"pharmacy","facilityLabel":"💊 藥局","phone":null,"website":null,"wheelchair":false,"needsAddr":false},{"id":12926157,"name":"天主教若瑟醫院","lat":23.7079612,"lng":120.438363,"address":null,"hasBabyChanging":false,"hasAccessible":false,"source":"OpenStreetMap","updatedAt":"2026-06-12T02:55:18.707Z","facilityType":"hospital","facilityLabel":"🏥 醫院","phone":null,"website":null,"wheelchair":false,"needsAddr":true},{"id":6138517575,"name":"劉眼科診所","lat":23.7989807,"lng":120.4593211,"address":null,"hasBabyChanging":false,"hasAccessible":false,"source":"OpenStreetMap","updatedAt":"2026-06-12T02:55:18.707Z","facilityType":"clinic","facilityLabel":"🩺 診所","phone":null,"website":null,"wheelchair":false,"needsAddr":true},{"id":6138517576,"name":"光復皮膚科診所","lat":23.7975794,"lng":120.4661018,"address":null,"hasBabyChanging":false,"hasAccessible":false,"source":"OpenStreetMap","updatedAt":"2026-06-12T02:55:18.707Z","facilityType":"clinic","facilityLabel":"🩺 診所","phone":null,"website":null,"wheelchair":false,"needsAddr":true},{"id":6138517577,"name":"啄木鳥藥局","lat":23.7979892,"lng":120.4555553,"address":null,"hasBabyChanging":false,"hasAccessible":false,"source":"OpenStreetMap","updatedAt":"2026-06-12T02:55:18.707Z","facilityType":"pharmacy","facilityLabel":"💊 藥局","phone":null,"website":null,"wheelchair":false,"needsAddr":true},{"id":6138517578,"name":"惠生藥局","lat":23.7995942,"lng":120.4577896,"address":null,"hasBabyChanging":false,"hasAccessible":false,"source":"OpenStreetMap","updatedAt":"2026-06-12T02:55:18.707Z","facilityType":"pharmacy","facilityLabel":"💊 藥局","phone":null,"website":null,"wheelchair":false,"needsAddr":true},{"id":6138517792,"name":"寶雅","lat":23.798026,"lng":120.4620007,"address":null,"hasBabyChanging":false,"hasAccessible":false,"source":"OpenStreetMap","updatedAt":"2026-06-12T02:55:18.707Z","facilityType":"pharmacy","facilityLabel":"💊 藥局","phone":null,"website":null,"wheelchair":false,"needsAddr":true},{"id":6237612138,"name":"一生藥局","lat":23.8011698,"lng":120.4594257,"address":null,"hasBabyChanging":false,"hasAccessible":false,"source":"OpenStreetMap","updatedAt":"2026-06-12T02:55:18.707Z","facilityType":"pharmacy","facilityLabel":"💊 藥局","phone":null,"website":null,"wheelchair":false,"needsAddr":true},{"id":6237612140,"name":"明德牙醫診所","lat":23.8008262,"lng":120.4581678,"address":null,"hasBabyChanging":false,"hasAccessible":false,"source":"OpenStreetMap","updatedAt":"2026-06-12T02:55:18.707Z","facilityType":"dentist","facilityLabel":"🦷 牙醫","phone":null,"website":null,"wheelchair":false,"needsAddr":true},{"id":6237612141,"name":"泓志診所","lat":23.8007795,"lng":120.4577064,"address":null,"hasBabyChanging":false,"hasAccessible":false,"source":"OpenStreetMap","updatedAt":"2026-06-12T02:55:18.707Z","facilityType":"clinic","facilityLabel":"🩺 診所","phone":null,"website":null,"wheelchair":false,"needsAddr":true},{"id":6237612142,"name":"西螺診所","lat":23.8007648,"lng":120.4576287,"address":null,"hasBabyChanging":false,"hasAccessible":false,"source":"OpenStreetMap","updatedAt":"2026-06-12T02:55:18.707Z","facilityType":"clinic","facilityLabel":"🩺 診所","phone":null,"website":null,"wheelchair":false,"needsAddr":true},{"id":6237612143,"name":"延平慈愛中醫診所","lat":23.8003673,"lng":120.454689,"address":null,"hasBabyChanging":false,"hasAccessible":false,"source":"OpenStreetMap","updatedAt":"2026-06-12T02:55:18.707Z","facilityType":"clinic","facilityLabel":"🩺 診所","phone":null,"website":null,"wheelchair":false,"needsAddr":true},{"id":13059841318,"name":"寶雅","lat":23.799271,"lng":120.4560844,"address":"雲林縣西螺鎮中山路243;245號","hasBabyChanging":false,"hasAccessible":false,"source":"OpenStreetMap","updatedAt":"2026-06-12T02:55:18.707Z","facilityType":"pharmacy","facilityLabel":"💊 藥局","phone":null,"website":null,"wheelchair":false,"needsAddr":false},{"id":1348965036,"name":"雲林基督教醫院","lat":23.7810153,"lng":120.442064,"address":"雲林縣西螺鎮新豐里12鄰市場南路371號","hasBabyChanging":false,"hasAccessible":false,"source":"OpenStreetMap","updatedAt":"2026-06-12T02:55:18.707Z","facilityType":"hospital","facilityLabel":"🏥 醫院","phone":null,"website":null,"wheelchair":false,"needsAddr":false},{"id":1386522142,"name":"西螺鎮衛生所","lat":23.8021881,"lng":120.4596924,"address":null,"hasBabyChanging":false,"hasAccessible":false,"source":"OpenStreetMap","updatedAt":"2026-06-12T02:55:18.707Z","facilityType":"health_center","facilityLabel":"🏥 衛生所","phone":null,"website":null,"wheelchair":false,"needsAddr":true},{"id":1421179522,"name":"康是美","lat":23.7967684,"lng":120.4581361,"address":"雲林縣西螺鎮光復西路252;256號","hasBabyChanging":false,"hasAccessible":false,"source":"OpenStreetMap","updatedAt":"2026-06-12T02:55:18.707Z","facilityType":"pharmacy","facilityLabel":"💊 藥妝","phone":null,"website":null,"wheelchair":false,"needsAddr":false},{"id":4238853055,"name":"惟德堂藥房","lat":23.6763587,"lng":120.3908827,"address":"633雲林縣土庫鎮中正路158號一樓","hasBabyChanging":false,"hasAccessible":false,"source":"OpenStreetMap","updatedAt":"2026-06-12T02:55:18.707Z","facilityType":"pharmacy","facilityLabel":"💊 藥局","phone":"+886 5 6622642","website":"https://weidetang.weebly.com/","wheelchair":false,"needsAddr":false},{"id":5764877764,"name":"土庫衛生所","lat":23.6783238,"lng":120.3927108,"address":null,"hasBabyChanging":false,"hasAccessible":false,"source":"OpenStreetMap","updatedAt":"2026-06-12T02:55:18.707Z","facilityType":"health_center","facilityLabel":"🏥 衛生所","phone":null,"website":null,"wheelchair":false,"needsAddr":true},{"id":4107330193,"name":"仁一醫院","lat":23.5774293,"lng":120.3012852,"address":null,"hasBabyChanging":false,"hasAccessible":false,"source":"OpenStreetMap","updatedAt":"2026-06-12T02:55:18.707Z","facilityType":"hospital","facilityLabel":"🏥 醫院","phone":null,"website":null,"wheelchair":false,"needsAddr":true},{"id":4258235375,"name":"奇恩動物醫院","lat":23.5713066,"lng":120.3020437,"address":"雲林縣北港鎮大同路149號","hasBabyChanging":false,"hasAccessible":false,"source":"OpenStreetMap","updatedAt":"2026-06-12T02:55:18.707Z","facilityType":"vet","facilityLabel":"🐾 動物醫院","phone":"+886 5 773 2979","website":"http://www.petline.com.tw/petline/cgi/index_factory.cgi?t=petfactory_view&ID=151797&R23=1000","wheelchair":false,"needsAddr":false},{"id":4258245223,"name":"屈臣氏","lat":23.5686976,"lng":120.3018291,"address":"651雲林縣北港鎮民主路98號","hasBabyChanging":false,"hasAccessible":false,"source":"OpenStreetMap","updatedAt":"2026-06-12T02:55:18.707Z","facilityType":"pharmacy","facilityLabel":"💊 藥妝","phone":"+886 5 782 5108","website":"https://watsons.com.tw/","wheelchair":false,"needsAddr":false},{"id":13059841349,"name":"康是美","lat":23.5758399,"lng":120.301906,"address":"雲林縣北港鎮公園路81號","hasBabyChanging":false,"hasAccessible":false,"source":"OpenStreetMap","updatedAt":"2026-06-12T02:55:18.707Z","facilityType":"pharmacy","facilityLabel":"💊 藥妝","phone":null,"website":null,"wheelchair":false,"needsAddr":false},{"id":13077773490,"name":"日藥本舖","lat":23.5676061,"lng":120.305183,"address":"雲林縣北港鎮厚生路63號","hasBabyChanging":false,"hasAccessible":false,"source":"OpenStreetMap","updatedAt":"2026-06-12T02:55:18.707Z","facilityType":"pharmacy","facilityLabel":"💊 藥局","phone":null,"website":null,"wheelchair":false,"needsAddr":false},{"id":446498330,"name":"寶雅","lat":23.5698471,"lng":120.299867,"address":null,"hasBabyChanging":false,"hasAccessible":false,"source":"OpenStreetMap","updatedAt":"2026-06-12T02:55:18.707Z","facilityType":"pharmacy","facilityLabel":"💊 藥局","phone":null,"website":null,"wheelchair":false,"needsAddr":true},{"id":866491506,"name":"中國醫藥大學北港附設醫院","lat":23.5897068,"lng":120.3072486,"address":"雲林縣北港鎮新街里5鄰新德路123之1號","hasBabyChanging":false,"hasAccessible":false,"source":"OpenStreetMap","updatedAt":"2026-06-12T02:55:18.707Z","facilityType":"hospital","facilityLabel":"🏥 醫院","phone":null,"website":null,"wheelchair":false,"needsAddr":false},{"id":5353947776,"name":"古坑鄉衛生所","lat":23.6537817,"lng":120.5601819,"address":null,"hasBabyChanging":false,"hasAccessible":false,"source":"OpenStreetMap","updatedAt":"2026-06-12T02:55:18.707Z","facilityType":"health_center","facilityLabel":"🏥 衛生所","phone":null,"website":null,"wheelchair":false,"needsAddr":true},{"id":823179487,"name":"大埤鄉衛生所","lat":23.6455431,"lng":120.4320729,"address":"631046雲林縣大埤鄉中山路4號","hasBabyChanging":false,"hasAccessible":true,"source":"OpenStreetMap","updatedAt":"2026-06-12T02:55:18.707Z","facilityType":"health_center","facilityLabel":"🏥 衛生所","phone":"+886 5 591 2214","website":"https://dpphc.yunlin.gov.tw","wheelchair":true,"needsAddr":false},{"id":823179497,"name":"大眾中醫","lat":23.644485,"lng":120.4262313,"address":null,"hasBabyChanging":false,"hasAccessible":true,"source":"OpenStreetMap","updatedAt":"2026-06-12T02:55:18.707Z","facilityType":"clinic","facilityLabel":"🩺 診所","phone":null,"website":null,"wheelchair":true,"needsAddr":true},{"id":10252214253,"name":"林內鄉衛生所","lat":23.7599359,"lng":120.6125998,"address":null,"hasBabyChanging":false,"hasAccessible":false,"source":"OpenStreetMap","updatedAt":"2026-06-12T02:55:18.707Z","facilityType":"health_center","facilityLabel":"🏥 衛生所","phone":null,"website":null,"wheelchair":false,"needsAddr":true},{"id":6149306176,"name":"二崙鄉衛生所","lat":23.7719456,"lng":120.4127231,"address":null,"hasBabyChanging":false,"hasAccessible":true,"source":"OpenStreetMap","updatedAt":"2026-06-12T02:55:18.707Z","facilityType":"health_center","facilityLabel":"🏥 衛生所","phone":null,"website":null,"wheelchair":true,"needsAddr":true},{"id":5780782754,"name":"三馬藥師藥局","lat":23.7594774,"lng":120.3533336,"address":"637雲林縣崙背鄉南光路1-21號","hasBabyChanging":false,"hasAccessible":false,"source":"OpenStreetMap","updatedAt":"2026-06-12T02:55:18.707Z","facilityType":"pharmacy","facilityLabel":"💊 藥局","phone":null,"website":null,"wheelchair":false,"needsAddr":false},{"id":6885913734,"name":"崇愛藥局","lat":23.7588989,"lng":120.3546061,"address":"637雲林縣崙背鄉信義路88號","hasBabyChanging":false,"hasAccessible":false,"source":"OpenStreetMap","updatedAt":"2026-06-12T02:55:18.707Z","facilityType":"pharmacy","facilityLabel":"💊 藥局","phone":"+886 5 696 2769","website":null,"wheelchair":false,"needsAddr":false},{"id":545373225,"name":"崙背鄉衛生所","lat":23.7598043,"lng":120.3531501,"address":"雲林縣崙背鄉南陽村9鄰南光路34號","hasBabyChanging":false,"hasAccessible":false,"source":"OpenStreetMap","updatedAt":"2026-06-12T02:55:18.707Z","facilityType":"health_center","facilityLabel":"🏥 衛生所","phone":null,"website":null,"wheelchair":false,"needsAddr":false},{"id":2690792768,"name":"麥寮衛生所","lat":23.7469319,"lng":120.2560482,"address":null,"hasBabyChanging":false,"hasAccessible":false,"source":"OpenStreetMap","updatedAt":"2026-06-12T02:55:18.707Z","facilityType":"health_center","facilityLabel":"🏥 衛生所","phone":null,"website":null,"wheelchair":false,"needsAddr":true},{"id":6458864493,"name":"屈臣氏","lat":23.7511703,"lng":120.2516645,"address":null,"hasBabyChanging":false,"hasAccessible":false,"source":"OpenStreetMap","updatedAt":"2026-06-12T02:55:18.707Z","facilityType":"pharmacy","facilityLabel":"💊 藥妝","phone":null,"website":null,"wheelchair":false,"needsAddr":true},{"id":7838701364,"name":"寶雅","lat":23.7501756,"lng":120.2504824,"address":null,"hasBabyChanging":false,"hasAccessible":false,"source":"OpenStreetMap","updatedAt":"2026-06-12T02:55:18.707Z","facilityType":"pharmacy","facilityLabel":"💊 藥局","phone":null,"website":null,"wheelchair":false,"needsAddr":true},{"id":546767498,"name":"雲林長庚紀念醫院","lat":23.7954761,"lng":120.2180951,"address":"雲林縣麥寮鄉中興村工業路1500號","hasBabyChanging":false,"hasAccessible":false,"source":"OpenStreetMap","updatedAt":"2026-06-12T02:55:18.707Z","facilityType":"hospital","facilityLabel":"🏥 醫院","phone":null,"website":"https://cghdpt.cgmh.org.tw","wheelchair":false,"needsAddr":false},{"id":5263303572,"name":"東勢鄉衛生所","lat":23.6770148,"lng":120.2525934,"address":null,"hasBabyChanging":false,"hasAccessible":false,"source":"OpenStreetMap","updatedAt":"2026-06-12T02:55:18.707Z","facilityType":"health_center","facilityLabel":"🏥 衛生所","phone":null,"website":null,"wheelchair":false,"needsAddr":true},{"id":4553210299,"name":"永傳中醫診所","lat":23.6926589,"lng":120.3102326,"address":"633雲林縣褒忠鄉中民路133號","hasBabyChanging":false,"hasAccessible":true,"source":"OpenStreetMap","updatedAt":"2026-06-12T02:55:18.707Z","facilityType":"clinic","facilityLabel":"🩺 診所","phone":"+886 5 697 6502","website":null,"wheelchair":true,"needsAddr":false},{"id":12498105575,"name":"褒忠召安大藥局","lat":23.6926561,"lng":120.3060224,"address":"雲林縣褒忠鄉中勝村14鄰中正路450號","hasBabyChanging":false,"hasAccessible":false,"source":"OpenStreetMap","updatedAt":"2026-06-12T02:55:18.707Z","facilityType":"pharmacy","facilityLabel":"💊 藥局","phone":null,"website":null,"wheelchair":false,"needsAddr":false},{"id":4621858590,"name":"一德藥局","lat":23.5452273,"lng":120.1901426,"address":"653雲林縣口湖鄉文光路12號","hasBabyChanging":false,"hasAccessible":false,"source":"OpenStreetMap","updatedAt":"2026-06-12T02:55:18.707Z","facilityType":"pharmacy","facilityLabel":"💊 藥局","phone":null,"website":null,"wheelchair":false,"needsAddr":false},{"id":4644200296,"name":"日安藥局","lat":23.5457305,"lng":120.1891525,"address":"653雲林縣口湖鄉光明路95號","hasBabyChanging":false,"hasAccessible":false,"source":"OpenStreetMap","updatedAt":"2026-06-12T02:55:18.707Z","facilityType":"pharmacy","facilityLabel":"💊 藥局","phone":null,"website":null,"wheelchair":false,"needsAddr":false},{"id":4383600468,"name":"水林鄉衛生所","lat":23.5726421,"lng":120.2463791,"address":null,"hasBabyChanging":false,"hasAccessible":false,"source":"OpenStreetMap","updatedAt":"2026-06-12T02:55:18.707Z","facilityType":"health_center","facilityLabel":"🏥 衛生所","phone":null,"website":null,"wheelchair":false,"needsAddr":true}]}