{
  "city": "台北市",
  "category": "family",
  "updatedAt": "2026-06-14T06:23:56.666Z",
  "items": [
    {
      "id": 1686584674,
      "name": "林蔭大道",
      "facilityType": "tourist_attraction",
      "facilityLabel": "🧭 旅遊景點",
      "lat": 25.0077832,
      "lng": 121.5353591,
      "source": "OpenStreetMap",
      "updatedAt": "2026-06-12T17:34:42.943Z"
    },
    {
      "id": 2128934125,
      "name": "遊客中心",
      "facilityType": "visitor_center",
      "facilityLabel": "🛎 旅客中心",
      "lat": 24.9982946,
      "lng": 121.581062,
      "source": "OpenStreetMap",
      "updatedAt": "2026-06-12T17:34:42.946Z"
    },
    {
      "id": 2269706911,
      "name": "纜車貓空站遊客中心",
      "facilityType": "visitor_center",
      "facilityLabel": "🛎 旅客中心",
      "lat": 24.9688561,
      "lng": 121.5883017,
      "source": "OpenStreetMap",
      "updatedAt": "2026-06-12T17:34:42.947Z"
    },
    {
      "id": 2269707414,
      "name": "台北親山拓印20號打印台",
      "facilityType": "visitor_center",
      "facilityLabel": "🛎 旅客中心",
      "lat": 24.9729832,
      "lng": 121.5796173,
      "source": "OpenStreetMap",
      "updatedAt": "2026-06-12T17:34:42.949Z"
    },
    {
      "id": 2527537153,
      "name": "銓敘部",
      "facilityType": "visitor_center",
      "facilityLabel": "🛎 旅客中心",
      "lat": 24.9873377,
      "lng": 121.5488626,
      "source": "OpenStreetMap",
      "updatedAt": "2026-06-12T17:34:42.951Z"
    },
    {
      "id": 2790771879,
      "name": "水深危險",
      "facilityType": "visitor_center",
      "facilityLabel": "🛎 旅客中心",
      "lat": 24.9946573,
      "lng": 121.5365413,
      "source": "OpenStreetMap",
      "updatedAt": "2026-06-12T17:34:42.952Z"
    },
    {
      "id": 2790771892,
      "name": "方向指示牌",
      "facilityType": "visitor_center",
      "facilityLabel": "🛎 旅客中心",
      "lat": 24.9963475,
      "lng": 121.5354031,
      "source": "OpenStreetMap",
      "updatedAt": "2026-06-12T17:34:42.953Z"
    },
    {
      "id": 2790771906,
      "name": "福和河濱公園",
      "facilityType": "visitor_center",
      "facilityLabel": "🛎 旅客中心",
      "lat": 24.9968346,
      "lng": 121.5351646,
      "source": "OpenStreetMap",
      "updatedAt": "2026-06-12T17:34:42.955Z"
    },
    {
      "id": 2790771917,
      "name": "方向指示牌",
      "facilityType": "visitor_center",
      "facilityLabel": "🛎 旅客中心",
      "lat": 24.9963452,
      "lng": 121.5352931,
      "source": "OpenStreetMap",
      "updatedAt": "2026-06-12T17:34:42.955Z"
    },
    {
      "id": 3007195604,
      "name": "景美商圈觀光導覽指示地圖",
      "facilityType": "visitor_center",
      "facilityLabel": "🛎 旅客中心",
      "lat": 24.9921235,
      "lng": 121.5406503,
      "source": "OpenStreetMap",
      "updatedAt": "2026-06-12T17:34:42.956Z"
    },
    {
      "id": 3233734398,
      "name": "台北親山拓印18號打印台",
      "facilityType": "visitor_center",
      "facilityLabel": "🛎 旅客中心",
      "lat": 24.9928678,
      "lng": 121.5533688,
      "source": "OpenStreetMap",
      "updatedAt": "2026-06-12T17:34:42.956Z"
    },
    {
      "id": 3233734399,
      "name": "台北親山拓印19號打印台",
      "facilityType": "visitor_center",
      "facilityLabel": "🛎 旅客中心",
      "lat": 24.9808017,
      "lng": 121.5869433,
      "source": "OpenStreetMap",
      "updatedAt": "2026-06-12T17:34:42.958Z"
    },
    {
      "id": 3233734400,
      "name": "view",
      "facilityType": "visitor_center",
      "facilityLabel": "🛎 旅客中心",
      "lat": 24.9730675,
      "lng": 121.5794572,
      "source": "OpenStreetMap",
      "updatedAt": "2026-06-12T17:34:42.958Z"
    },
    {
      "id": 3398249645,
      "name": "297巷登山口",
      "facilityType": "visitor_center",
      "facilityLabel": "🛎 旅客中心",
      "lat": 24.9891214,
      "lng": 121.5422836,
      "source": "OpenStreetMap",
      "updatedAt": "2026-06-12T17:34:42.959Z"
    },
    {
      "id": 3748998906,
      "name": "猴山岳步道指南宮纜車站登山口",
      "facilityType": "tourist_attraction",
      "facilityLabel": "🧭 旅遊景點",
      "lat": 24.9789646,
      "lng": 121.5909255,
      "source": "OpenStreetMap",
      "updatedAt": "2026-06-12T17:34:42.959Z"
    },
    {
      "id": 3767530307,
      "name": "開圳碑",
      "facilityType": "visitor_center",
      "facilityLabel": "🛎 旅客中心",
      "lat": 24.9884774,
      "lng": 121.5407528,
      "source": "OpenStreetMap",
      "updatedAt": "2026-06-12T17:34:42.960Z"
    },
    {
      "id": 3835331460,
      "name": "救難牌(景美J07)",
      "facilityType": "visitor_center",
      "facilityLabel": "🛎 旅客中心",
      "lat": 24.9814212,
      "lng": 121.5648906,
      "source": "OpenStreetMap",
      "updatedAt": "2026-06-12T17:34:42.960Z"
    },
    {
      "id": 3835331466,
      "name": "景美溪07A",
      "facilityType": "visitor_center",
      "facilityLabel": "🛎 旅客中心",
      "lat": 24.9809041,
      "lng": 121.5674879,
      "source": "OpenStreetMap",
      "updatedAt": "2026-06-12T17:34:42.961Z"
    },
    {
      "id": 3835377568,
      "name": "救難牌(景美J08)",
      "facilityType": "visitor_center",
      "facilityLabel": "🛎 旅客中心",
      "lat": 24.9831388,
      "lng": 121.5711732,
      "source": "OpenStreetMap",
      "updatedAt": "2026-06-12T17:34:42.961Z"
    },
    {
      "id": 4033360494,
      "name": "仙跡岩登山步道導覽圖",
      "facilityType": "visitor_center",
      "facilityLabel": "🛎 旅客中心",
      "lat": 24.9960611,
      "lng": 121.5479921,
      "source": "OpenStreetMap",
      "updatedAt": "2026-06-12T17:34:42.962Z"
    },
    {
      "id": 4033360495,
      "name": "仙跡岩親山步道",
      "facilityType": "visitor_center",
      "facilityLabel": "🛎 旅客中心",
      "lat": 24.9963158,
      "lng": 121.5475361,
      "source": "OpenStreetMap",
      "updatedAt": "2026-06-12T17:34:42.962Z"
    },
    {
      "id": 4033360526,
      "name": "避難收容處所",
      "facilityType": "visitor_center",
      "facilityLabel": "🛎 旅客中心",
      "lat": 24.9954018,
      "lng": 121.5472247,
      "source": "OpenStreetMap",
      "updatedAt": "2026-06-12T17:34:42.962Z"
    },
    {
      "id": 4070047125,
      "name": "仙跡岩登山步道導覽圖",
      "facilityType": "visitor_center",
      "facilityLabel": "🛎 旅客中心",
      "lat": 24.9959502,
      "lng": 121.5518586,
      "source": "OpenStreetMap",
      "updatedAt": "2026-06-12T17:34:42.963Z"
    },
    {
      "id": 4070047126,
      "name": "仙跡岩親山步道",
      "facilityType": "visitor_center",
      "facilityLabel": "🛎 旅客中心",
      "lat": 24.9928859,
      "lng": 121.5495181,
      "source": "OpenStreetMap",
      "updatedAt": "2026-06-12T17:34:42.963Z"
    },
    {
      "id": 4070047127,
      "name": "仙跡岩風景區導覽圖",
      "facilityType": "visitor_center",
      "facilityLabel": "🛎 旅客中心",
      "lat": 24.993937,
      "lng": 121.5583668,
      "source": "OpenStreetMap",
      "updatedAt": "2026-06-12T17:34:42.964Z"
    },
    {
      "id": 4070047128,
      "name": "全區導覽圖",
      "facilityType": "visitor_center",
      "facilityLabel": "🛎 旅客中心",
      "lat": 24.9967927,
      "lng": 121.5510916,
      "source": "OpenStreetMap",
      "updatedAt": "2026-06-12T17:34:42.964Z"
    },
    {
      "id": 4070047136,
      "name": "根抱石",
      "facilityType": "tourist_attraction",
      "facilityLabel": "🧭 旅遊景點",
      "lat": 24.9913383,
      "lng": 121.5454116,
      "source": "OpenStreetMap",
      "updatedAt": "2026-06-12T17:34:42.965Z"
    },
    {
      "id": 4070047994,
      "name": "麥田步道導覽圖",
      "facilityType": "visitor_center",
      "facilityLabel": "🛎 旅客中心",
      "lat": 24.9968302,
      "lng": 121.5510783,
      "source": "OpenStreetMap",
      "updatedAt": "2026-06-12T17:34:42.965Z"
    },
    {
      "id": 4200643111,
      "name": "疑似十五份遺址石器發現過程紀念碑",
      "facilityType": "visitor_center",
      "facilityLabel": "🛎 旅客中心",
      "lat": 25.0023944,
      "lng": 121.5436683,
      "source": "OpenStreetMap",
      "updatedAt": "2026-06-12T17:34:42.966Z"
    },
    {
      "id": 4200643979,
      "name": "賴氏萬壽塔解說牌",
      "facilityType": "visitor_center",
      "facilityLabel": "🛎 旅客中心",
      "lat": 25.003382,
      "lng": 121.5469256,
      "source": "OpenStreetMap",
      "updatedAt": "2026-06-12T17:34:42.966Z"
    },
    {
      "id": 4213847897,
      "name": "棣慕華牧師紀念館",
      "facilityType": "culture",
      "facilityLabel": "🎨 藝文場館",
      "lat": 25.0055138,
      "lng": 121.5423372,
      "source": "OpenStreetMap",
      "updatedAt": "2026-06-12T17:34:42.967Z",
      "address": "116台北市文山區萬盛街144號"
    },
    {
      "id": 4312828375,
      "name": "誠石",
      "facilityType": "tourist_attraction",
      "facilityLabel": "🧭 旅遊景點",
      "lat": 24.9981088,
      "lng": 121.5607876,
      "source": "OpenStreetMap",
      "updatedAt": "2026-06-12T17:34:42.967Z"
    },
    {
      "id": 4355112101,
      "name": "人頭結核",
      "facilityType": "tourist_attraction",
      "facilityLabel": "🧭 旅遊景點",
      "lat": 24.9921058,
      "lng": 121.5475576,
      "source": "OpenStreetMap",
      "updatedAt": "2026-06-12T17:34:42.968Z"
    },
    {
      "id": 4371221663,
      "name": "丹頂鶴",
      "facilityType": "tourist_attraction",
      "facilityLabel": "🧭 旅遊景點",
      "lat": 24.9951447,
      "lng": 121.590887,
      "source": "OpenStreetMap",
      "updatedAt": "2026-06-12T17:34:42.968Z"
    },
    {
      "id": 4371221664,
      "name": "鶴",
      "facilityType": "tourist_attraction",
      "facilityLabel": "🧭 旅遊景點",
      "lat": 24.9953463,
      "lng": 121.5909274,
      "source": "OpenStreetMap",
      "updatedAt": "2026-06-12T17:34:42.969Z"
    },
    {
      "id": 4384259030,
      "name": "福和河濱公園",
      "facilityType": "visitor_center",
      "facilityLabel": "🛎 旅客中心",
      "lat": 25.0048802,
      "lng": 121.5345971,
      "source": "OpenStreetMap",
      "updatedAt": "2026-06-12T17:34:42.969Z"
    },
    {
      "id": 4417637945,
      "name": "幸福林蔭步道",
      "facilityType": "visitor_center",
      "facilityLabel": "🛎 旅客中心",
      "lat": 25.0074203,
      "lng": 121.5372303,
      "source": "OpenStreetMap",
      "updatedAt": "2026-06-12T17:34:42.970Z"
    },
    {
      "id": 4417637950,
      "name": "臺北市公園管理自治條例",
      "facilityType": "visitor_center",
      "facilityLabel": "🛎 旅客中心",
      "lat": 25.0074414,
      "lng": 121.5372443,
      "source": "OpenStreetMap",
      "updatedAt": "2026-06-12T17:34:42.970Z"
    },
    {
      "id": 4524318929,
      "name": "避難收容處所",
      "facilityType": "visitor_center",
      "facilityLabel": "🛎 旅客中心",
      "lat": 25.0041547,
      "lng": 121.5395985,
      "source": "OpenStreetMap",
      "updatedAt": "2026-06-12T17:34:42.971Z"
    },
    {
      "id": 4524864539,
      "name": "中埔山（十五份後山）南側直下",
      "facilityType": "visitor_center",
      "facilityLabel": "🛎 旅客中心",
      "lat": 25.0114486,
      "lng": 121.5557474,
      "source": "OpenStreetMap",
      "updatedAt": "2026-06-12T17:34:42.971Z"
    },
    {
      "id": 4973148154,
      "name": "梘尾-景尾-景美",
      "facilityType": "visitor_center",
      "facilityLabel": "🛎 旅客中心",
      "lat": 24.9914308,
      "lng": 121.5372366,
      "source": "OpenStreetMap",
      "updatedAt": "2026-06-12T17:34:42.972Z"
    },
    {
      "id": 5009507723,
      "name": "服務中心",
      "facilityType": "visitor_center",
      "facilityLabel": "🛎 旅客中心",
      "lat": 24.9799186,
      "lng": 121.571361,
      "source": "OpenStreetMap",
      "updatedAt": "2026-06-12T17:34:42.972Z"
    },
    {
      "id": 5108743086,
      "name": "萬有二號公園平面配置圖",
      "facilityType": "visitor_center",
      "facilityLabel": "🛎 旅客中心",
      "lat": 25.0010457,
      "lng": 121.5364482,
      "source": "OpenStreetMap",
      "updatedAt": "2026-06-12T17:34:42.973Z"
    },
    {
      "id": 5108743087,
      "name": "避難收容所",
      "facilityType": "visitor_center",
      "facilityLabel": "🛎 旅客中心",
      "lat": 25.0010138,
      "lng": 121.5364115,
      "source": "OpenStreetMap",
      "updatedAt": "2026-06-12T17:34:42.973Z"
    },
    {
      "id": 5108743114,
      "name": "火車形式、乘車票卷、站名地圖的演進",
      "facilityType": "visitor_center",
      "facilityLabel": "🛎 旅客中心",
      "lat": 24.9993626,
      "lng": 121.5402496,
      "source": "OpenStreetMap",
      "updatedAt": "2026-06-12T17:34:42.973Z"
    },
    {
      "id": 5504533382,
      "name": "公園禁止事項",
      "facilityType": "visitor_center",
      "facilityLabel": "🛎 旅客中心",
      "lat": 25.0022838,
      "lng": 121.5364239,
      "source": "OpenStreetMap",
      "updatedAt": "2026-06-12T17:34:42.974Z"
    },
    {
      "id": 5504533388,
      "name": "幸福林蔭步道",
      "facilityType": "visitor_center",
      "facilityLabel": "🛎 旅客中心",
      "lat": 25.0022431,
      "lng": 121.5366628,
      "source": "OpenStreetMap",
      "updatedAt": "2026-06-12T17:34:42.974Z"
    },
    {
      "id": 5504533397,
      "name": "幸福林蔭步道",
      "facilityType": "visitor_center",
      "facilityLabel": "🛎 旅客中心",
      "lat": 25.0001321,
      "lng": 121.5361903,
      "source": "OpenStreetMap",
      "updatedAt": "2026-06-12T17:34:42.975Z"
    },
    {
      "id": 5677591036,
      "name": "140高地公園導覽圖",
      "facilityType": "visitor_center",
      "facilityLabel": "🛎 旅客中心",
      "lat": 25.0047281,
      "lng": 121.5678687,
      "source": "OpenStreetMap",
      "updatedAt": "2026-06-12T17:34:42.975Z"
    },
    {
      "id": 5677591092,
      "name": "140高地公園登山路線導覽圖",
      "facilityType": "visitor_center",
      "facilityLabel": "🛎 旅客中心",
      "lat": 25.0040061,
      "lng": 121.5644167,
      "source": "OpenStreetMap",
      "updatedAt": "2026-06-12T17:34:42.976Z"
    },
    {
      "id": 5677591111,
      "name": "140高地公園登山路線導覽圖",
      "facilityType": "visitor_center",
      "facilityLabel": "🛎 旅客中心",
      "lat": 25.0043464,
      "lng": 121.5675335,
      "source": "OpenStreetMap",
      "updatedAt": "2026-06-12T17:34:42.976Z"
    },
    {
      "id": 5755582392,
      "name": "樟湖步道導覽圖",
      "facilityType": "visitor_center",
      "facilityLabel": "🛎 旅客中心",
      "lat": 24.9646909,
      "lng": 121.5829022,
      "source": "OpenStreetMap",
      "updatedAt": "2026-06-12T17:34:42.977Z"
    },
    {
      "id": 5956684281,
      "name": "興泰公園",
      "facilityType": "visitor_center",
      "facilityLabel": "🛎 旅客中心",
      "lat": 25.0061138,
      "lng": 121.5564172,
      "source": "OpenStreetMap",
      "updatedAt": "2026-06-12T17:34:42.977Z"
    },
    {
      "id": 6027620694,
      "name": "台北大縱走 \"遊\" 拓印台",
      "facilityType": "visitor_center",
      "facilityLabel": "🛎 旅客中心",
      "lat": 24.9786493,
      "lng": 121.5897991,
      "source": "OpenStreetMap",
      "updatedAt": "2026-06-12T17:34:42.977Z"
    },
    {
      "id": 6027620695,
      "name": "台北大縱走 \"趣\" 拓印台",
      "facilityType": "visitor_center",
      "facilityLabel": "🛎 旅客中心",
      "lat": 24.9676046,
      "lng": 121.5856724,
      "source": "OpenStreetMap",
      "updatedAt": "2026-06-12T17:34:42.978Z"
    },
    {
      "id": 6137590486,
      "name": "茶展中心拓印亭",
      "facilityType": "tourist_attraction",
      "facilityLabel": "🧭 旅遊景點",
      "lat": 24.9690307,
      "lng": 121.5957343,
      "source": "OpenStreetMap",
      "updatedAt": "2026-06-12T17:34:42.978Z"
    },
    {
      "id": 6137601885,
      "name": "樟山寺拓印亭",
      "facilityType": "tourist_attraction",
      "facilityLabel": "🧭 旅遊景點",
      "lat": 24.9730257,
      "lng": 121.5795622,
      "source": "OpenStreetMap",
      "updatedAt": "2026-06-12T17:34:42.979Z"
    },
    {
      "id": 6649967889,
      "name": "景美商圈導覽圖",
      "facilityType": "visitor_center",
      "facilityLabel": "🛎 旅客中心",
      "lat": 24.9929928,
      "lng": 121.5415882,
      "source": "OpenStreetMap",
      "updatedAt": "2026-06-12T17:34:42.980Z"
    },
    {
      "id": 7083525289,
      "name": "仙跡岩登山步道導覽圖",
      "facilityType": "visitor_center",
      "facilityLabel": "🛎 旅客中心",
      "lat": 24.9911002,
      "lng": 121.554798,
      "source": "OpenStreetMap",
      "updatedAt": "2026-06-12T17:34:42.980Z"
    },
    {
      "id": 7207806357,
      "name": "石獅頂與石獅腳",
      "facilityType": "visitor_center",
      "facilityLabel": "🛎 旅客中心",
      "lat": 24.9715758,
      "lng": 121.5821502,
      "source": "OpenStreetMap",
      "updatedAt": "2026-06-12T17:34:42.981Z"
    },
    {
      "id": 7207806358,
      "name": "二格山系登山步道路線圖",
      "facilityType": "visitor_center",
      "facilityLabel": "🛎 旅客中心",
      "lat": 24.9715661,
      "lng": 121.58213,
      "source": "OpenStreetMap",
      "updatedAt": "2026-06-12T17:34:42.981Z"
    },
    {
      "id": 7709735229,
      "name": "盤古公石門宮舊址",
      "facilityType": "visitor_center",
      "facilityLabel": "🛎 旅客中心",
      "lat": 24.9883751,
      "lng": 121.5422417,
      "source": "OpenStreetMap",
      "updatedAt": "2026-06-12T17:34:42.981Z"
    },
    {
      "id": 7709887865,
      "name": "仙跡岩自然步道路線簡圖(四)",
      "facilityType": "visitor_center",
      "facilityLabel": "🛎 旅客中心",
      "lat": 24.9908786,
      "lng": 121.5448711,
      "source": "OpenStreetMap",
      "updatedAt": "2026-06-12T17:34:42.982Z"
    },
    {
      "id": 7709887866,
      "name": "纏勒植物",
      "facilityType": "visitor_center",
      "facilityLabel": "🛎 旅客中心",
      "lat": 24.9913358,
      "lng": 121.5454334,
      "source": "OpenStreetMap",
      "updatedAt": "2026-06-12T17:34:42.982Z"
    },
    {
      "id": 7755276885,
      "name": "智慧化居住空間展示中心",
      "facilityType": "science",
      "facilityLabel": "🔬 博物館",
      "lat": 24.9986215,
      "lng": 121.5367386,
      "source": "OpenStreetMap",
      "updatedAt": "2026-06-12T17:34:42.983Z",
      "address": "111臺北市文山區景福街102號"
    },
    {
      "id": 7873936706,
      "name": "縱走步道",
      "facilityType": "visitor_center",
      "facilityLabel": "🛎 旅客中心",
      "lat": 24.9736119,
      "lng": 121.5943534,
      "source": "OpenStreetMap",
      "updatedAt": "2026-06-12T17:34:42.983Z"
    },
    {
      "id": 7874004991,
      "name": "縱走步道",
      "facilityType": "visitor_center",
      "facilityLabel": "🛎 旅客中心",
      "lat": 24.9739148,
      "lng": 121.5938078,
      "source": "OpenStreetMap",
      "updatedAt": "2026-06-12T17:34:42.983Z"
    },
    {
      "id": 7880247226,
      "name": "縱走步道",
      "facilityType": "visitor_center",
      "facilityLabel": "🛎 旅客中心",
      "lat": 24.9767026,
      "lng": 121.5922353,
      "source": "OpenStreetMap",
      "updatedAt": "2026-06-12T17:34:42.984Z"
    },
    {
      "id": 8280854499,
      "name": "相思樹不結相思豆",
      "facilityType": "visitor_center",
      "facilityLabel": "🛎 旅客中心",
      "lat": 24.9702257,
      "lng": 121.5940095,
      "source": "OpenStreetMap",
      "updatedAt": "2026-06-12T17:34:42.984Z"
    },
    {
      "id": 8280854500,
      "name": "木棧道更新說明",
      "facilityType": "visitor_center",
      "facilityLabel": "🛎 旅客中心",
      "lat": 24.970445,
      "lng": 121.5943276,
      "source": "OpenStreetMap",
      "updatedAt": "2026-06-12T17:34:42.985Z"
    },
    {
      "id": 8280854501,
      "name": "虛心君子-竹",
      "facilityType": "visitor_center",
      "facilityLabel": "🛎 旅客中心",
      "lat": 24.9704458,
      "lng": 121.594342,
      "source": "OpenStreetMap",
      "updatedAt": "2026-06-12T17:34:42.985Z"
    },
    {
      "id": 8280854502,
      "name": "賽夏族傳說",
      "facilityType": "visitor_center",
      "facilityLabel": "🛎 旅客中心",
      "lat": 24.9704618,
      "lng": 121.5943778,
      "source": "OpenStreetMap",
      "updatedAt": "2026-06-12T17:34:42.985Z"
    },
    {
      "id": 8280854505,
      "name": "開門七件事 柴米油油醬醋「茶」",
      "facilityType": "visitor_center",
      "facilityLabel": "🛎 旅客中心",
      "lat": 24.9713096,
      "lng": 121.5952608,
      "source": "OpenStreetMap",
      "updatedAt": "2026-06-12T17:34:42.986Z"
    },
    {
      "id": 9536779042,
      "name": "大陡上",
      "facilityType": "visitor_center",
      "facilityLabel": "🛎 旅客中心",
      "lat": 24.9967599,
      "lng": 121.5995952,
      "source": "OpenStreetMap",
      "updatedAt": "2026-06-12T17:34:42.986Z"
    },
    {
      "id": 9679636942,
      "name": "新北市政府",
      "facilityType": "visitor_center",
      "facilityLabel": "🛎 旅客中心",
      "lat": 24.970755,
      "lng": 121.6145198,
      "source": "OpenStreetMap",
      "updatedAt": "2026-06-12T17:34:42.987Z"
    },
    {
      "id": 9810016990,
      "name": "鵝膏嶺",
      "facilityType": "tourist_attraction",
      "facilityLabel": "🧭 旅遊景點",
      "lat": 24.9736163,
      "lng": 121.6128416,
      "source": "OpenStreetMap",
      "updatedAt": "2026-06-12T17:34:42.987Z"
    },
    {
      "id": 11198828412,
      "name": "台北大縱走寶石牌",
      "facilityType": "visitor_center",
      "facilityLabel": "🛎 旅客中心",
      "lat": 24.9840081,
      "lng": 121.5817831,
      "source": "OpenStreetMap",
      "updatedAt": "2026-06-12T17:34:42.987Z"
    },
    {
      "id": 11198828413,
      "name": "台北大縱走寶石牌",
      "facilityType": "visitor_center",
      "facilityLabel": "🛎 旅客中心",
      "lat": 24.9676068,
      "lng": 121.5857027,
      "source": "OpenStreetMap",
      "updatedAt": "2026-06-12T17:34:42.988Z"
    },
    {
      "id": 11521778211,
      "name": "臺北大縱走第6段地圖",
      "facilityType": "visitor_center",
      "facilityLabel": "🛎 旅客中心",
      "lat": 25.0082739,
      "lng": 121.5663674,
      "source": "OpenStreetMap",
      "updatedAt": "2026-06-12T17:34:42.988Z"
    },
    {
      "id": 11833118528,
      "name": "水禽觀察區",
      "facilityType": "tourist_attraction",
      "facilityLabel": "🧭 旅遊景點",
      "lat": 24.9941275,
      "lng": 121.5837099,
      "source": "OpenStreetMap",
      "updatedAt": "2026-06-12T17:34:42.989Z"
    },
    {
      "id": 12245849999,
      "name": "蕨類生態",
      "facilityType": "visitor_center",
      "facilityLabel": "🛎 旅客中心",
      "lat": 25.0031529,
      "lng": 121.5432446,
      "source": "OpenStreetMap",
      "updatedAt": "2026-06-12T17:34:42.989Z"
    },
    {
      "id": 12245890102,
      "name": "森林生態",
      "facilityType": "visitor_center",
      "facilityLabel": "🛎 旅客中心",
      "lat": 25.0044792,
      "lng": 121.5455955,
      "source": "OpenStreetMap",
      "updatedAt": "2026-06-12T17:34:42.989Z"
    },
    {
      "id": 12703102554,
      "name": "觀蛙台",
      "facilityType": "tourist_attraction",
      "facilityLabel": "🧭 旅遊景點",
      "lat": 24.9950004,
      "lng": 121.5484837,
      "source": "OpenStreetMap",
      "updatedAt": "2026-06-12T17:34:42.990Z"
    },
    {
      "id": 12703102555,
      "name": "探索平台",
      "facilityType": "tourist_attraction",
      "facilityLabel": "🧭 旅遊景點",
      "lat": 24.9956268,
      "lng": 121.5485488,
      "source": "OpenStreetMap",
      "updatedAt": "2026-06-12T17:34:42.990Z"
    },
    {
      "id": 12703102556,
      "name": "尋蹤平台",
      "facilityType": "tourist_attraction",
      "facilityLabel": "🧭 旅遊景點",
      "lat": 24.9950935,
      "lng": 121.5492562,
      "source": "OpenStreetMap",
      "updatedAt": "2026-06-12T17:34:42.991Z"
    },
    {
      "id": 12703102557,
      "name": "森心平台",
      "facilityType": "tourist_attraction",
      "facilityLabel": "🧭 旅遊景點",
      "lat": 24.9953351,
      "lng": 121.5489994,
      "source": "OpenStreetMap",
      "updatedAt": "2026-06-12T17:34:42.991Z"
    },
    {
      "id": 13088869701,
      "name": "自行車道施工封閉至20250930",
      "facilityType": "visitor_center",
      "facilityLabel": "🛎 旅客中心",
      "lat": 24.9834745,
      "lng": 121.5539152,
      "source": "OpenStreetMap",
      "updatedAt": "2026-06-12T17:34:42.991Z"
    },
    {
      "id": 13088884301,
      "name": "自行車道施工封閉至20250930",
      "facilityType": "visitor_center",
      "facilityLabel": "🛎 旅客中心",
      "lat": 24.9808371,
      "lng": 121.5534722,
      "source": "OpenStreetMap",
      "updatedAt": "2026-06-12T17:34:42.992Z"
    },
    {
      "id": 71266575,
      "name": "貓空纜車",
      "facilityType": "tourist_attraction",
      "facilityLabel": "🧭 旅遊景點",
      "lat": 24.9825479,
      "lng": 121.5842249,
      "source": "OpenStreetMap",
      "updatedAt": "2026-06-12T17:34:42.993Z"
    },
    {
      "id": 202941528,
      "name": "無尾熊館",
      "facilityType": "tourist_attraction",
      "facilityLabel": "🧭 旅遊景點",
      "lat": 24.9983633,
      "lng": 121.5824612,
      "source": "OpenStreetMap",
      "updatedAt": "2026-06-12T17:34:42.993Z"
    },
    {
      "id": 217775994,
      "name": "茶推廣中心",
      "facilityType": "science",
      "facilityLabel": "🔬 博物館",
      "lat": 24.9690704,
      "lng": 121.5941967,
      "source": "OpenStreetMap",
      "updatedAt": "2026-06-12T17:34:42.994Z",
      "address": "臺北市文山區指南路三段40巷8之2號"
    },
    {
      "id": 245408280,
      "name": "鶯歌老街網",
      "facilityType": "tourist_attraction",
      "facilityLabel": "🧭 旅遊景點",
      "lat": 24.9882843,
      "lng": 121.5513122,
      "source": "OpenStreetMap",
      "updatedAt": "2026-06-12T17:34:42.995Z",
      "address": "116003臺北市文山區木柵路一段231巷12號"
    },
    {
      "id": 310011146,
      "name": "教育中心",
      "facilityType": "science",
      "facilityLabel": "🔬 博物館",
      "lat": 24.9975851,
      "lng": 121.5820696,
      "source": "OpenStreetMap",
      "updatedAt": "2026-06-12T17:34:42.995Z",
      "address": "116016臺北市文山區新光路二段30號"
    },
    {
      "id": 439499684,
      "name": "鸚鵡屋",
      "facilityType": "tourist_attraction",
      "facilityLabel": "🧭 旅遊景點",
      "lat": 24.9952796,
      "lng": 121.5912122,
      "source": "OpenStreetMap",
      "updatedAt": "2026-06-12T17:34:42.996Z"
    },
    {
      "id": 439499688,
      "name": "兩棲爬蟲動物館",
      "facilityType": "tourist_attraction",
      "facilityLabel": "🧭 旅遊景點",
      "lat": 24.9942992,
      "lng": 121.5900417,
      "source": "OpenStreetMap",
      "updatedAt": "2026-06-12T17:34:42.996Z"
    },
    {
      "id": 439499689,
      "name": "企鵝館",
      "facilityType": "tourist_attraction",
      "facilityLabel": "🧭 旅遊景點",
      "lat": 24.9930056,
      "lng": 121.5908399,
      "source": "OpenStreetMap",
      "updatedAt": "2026-06-12T17:34:42.997Z"
    },
    {
      "id": 494298758,
      "name": "休憩平台",
      "facilityType": "tourist_attraction",
      "facilityLabel": "🧭 旅遊景點",
      "lat": 24.980055,
      "lng": 121.5763437,
      "source": "OpenStreetMap",
      "updatedAt": "2026-06-12T17:34:42.997Z"
    },
    {
      "id": 1051435361,
      "name": "闊景平台",
      "facilityType": "tourist_attraction",
      "facilityLabel": "🧭 旅遊景點",
      "lat": 25.0042343,
      "lng": 121.5444473,
      "source": "OpenStreetMap",
      "updatedAt": "2026-06-12T17:34:42.999Z"
    },
    {
      "id": 1051435362,
      "name": "瞭望平台",
      "facilityType": "tourist_attraction",
      "facilityLabel": "🧭 旅遊景點",
      "lat": 25.0044291,
      "lng": 121.5455755,
      "source": "OpenStreetMap",
      "updatedAt": "2026-06-12T17:34:42.999Z"
    },
    {
      "id": 1051435363,
      "name": "大樹平台",
      "facilityType": "tourist_attraction",
      "facilityLabel": "🧭 旅遊景點",
      "lat": 25.0041845,
      "lng": 121.5469331,
      "source": "OpenStreetMap",
      "updatedAt": "2026-06-12T17:34:43.000Z"
    },
    {
      "id": 1188157655,
      "name": "壺穴吊橋",
      "facilityType": "tourist_attraction",
      "facilityLabel": "🧭 旅遊景點",
      "lat": 24.9695794,
      "lng": 121.5971099,
      "source": "OpenStreetMap",
      "updatedAt": "2026-06-12T17:34:43.000Z"
    },
    {
      "id": 1473119773,
      "name": "貓空地區人行跨越吊橋",
      "facilityType": "tourist_attraction",
      "facilityLabel": "🧭 旅遊景點",
      "lat": 24.969304,
      "lng": 121.5898676,
      "source": "OpenStreetMap",
      "updatedAt": "2026-06-12T17:34:43.000Z"
    },
    {
      "id": 4536943,
      "name": "元利四季莊園興建工程",
      "facilityType": "farm",
      "facilityLabel": "🌾 農場",
      "lat": 24.9872726,
      "lng": 121.5565195,
      "source": "OpenStreetMap",
      "updatedAt": "2026-06-12T17:34:43.001Z"
    }
  ]
}