{"city":"新北市","district":"板橋區","category":"toilets","updatedAt":"2026-06-10T15:41:05.166Z","rev":1,"count":436,"items":[{"id":413467741,"name":"思夢樂廣場","lat":24.9854598,"lng":121.4271003,"address":null,"hasBabyChanging":false,"hasAccessible":false,"source":"OpenStreetMap","updatedAt":"2026-06-10T15:41:05.166Z","facilityType":"shimamura","facilityLabel":"👕 思夢樂","changingTable":false,"wheelchair":false,"needsAddr":false},{"id":1320065245,"name":"浮洲 1030","lat":25.0041917,"lng":121.4447619,"address":"220新北市板橋區僑中二街段156號","hasBabyChanging":false,"hasAccessible":false,"source":"OpenStreetMap","updatedAt":"2026-06-10T15:41:05.166Z","facilityType":"train","facilityLabel":"🚂 火車站","changingTable":false,"wheelchair":false,"needsAddr":false},{"id":1403019752,"name":"7-Eleven 正隆門市","lat":25.0128592,"lng":121.4754428,"address":"220077新北市板橋區民生路一段53號","hasBabyChanging":false,"hasAccessible":false,"source":"OpenStreetMap","updatedAt":"2026-06-10T15:41:05.166Z","facilityType":"convenience","facilityLabel":"🏪 超商","changingTable":false,"wheelchair":false,"openingHours":"24/7","needsAddr":false},{"id":1411751367,"name":"重慶耳鼻喉科","lat":24.9968385,"lng":121.4635336,"address":null,"hasBabyChanging":false,"hasAccessible":false,"source":"OpenStreetMap","updatedAt":"2026-06-10T15:41:05.166Z","facilityType":"clinic","facilityLabel":"🩺 診所","changingTable":false,"wheelchair":false,"needsAddr":false},{"id":1412407334,"name":"福星耳鼻喉科","lat":25.00242,"lng":121.4627613,"address":null,"hasBabyChanging":false,"hasAccessible":false,"source":"OpenStreetMap","updatedAt":"2026-06-10T15:41:05.166Z","facilityType":"clinic","facilityLabel":"🩺 診所","changingTable":false,"wheelchair":false,"needsAddr":false},{"id":1412407358,"name":"麥當勞","lat":25.027683,"lng":121.4703767,"address":null,"hasBabyChanging":false,"hasAccessible":false,"source":"OpenStreetMap","updatedAt":"2026-06-10T15:41:05.166Z","facilityType":"mcdonalds","facilityLabel":"🍔 麥當勞","changingTable":false,"wheelchair":false,"needsAddr":true},{"id":1413143335,"name":"全家便利商店 板橋新光仁店","lat":25.0152605,"lng":121.4725635,"address":"220090新北市板橋區中山路二段25號","hasBabyChanging":false,"hasAccessible":false,"source":"OpenStreetMap","updatedAt":"2026-06-10T15:41:05.166Z","facilityType":"convenience","facilityLabel":"🏪 超商","changingTable":false,"wheelchair":false,"openingHours":"24/7","needsAddr":false},{"id":1413143457,"name":"麥當勞 板橋中山旗艦專櫃","lat":25.0177275,"lng":121.4774686,"address":"220089新北市板橋區中山路2段257號1、2樓及259號1樓","hasBabyChanging":false,"hasAccessible":false,"source":"OpenStreetMap","updatedAt":"2026-06-10T15:41:05.166Z","facilityType":"mcdonalds","facilityLabel":"🍔 麥當勞","changingTable":false,"wheelchair":false,"openingHours":"24/7","needsAddr":false},{"id":1431095960,"name":"全家便利商店 板橋華陽店","lat":25.0229654,"lng":121.464331,"address":"22049新北市板橋區陽明街88號","hasBabyChanging":false,"hasAccessible":false,"source":"OpenStreetMap","updatedAt":"2026-06-10T15:41:05.166Z","facilityType":"convenience","facilityLabel":"🏪 超商","changingTable":false,"wheelchair":false,"openingHours":"24/7","needsAddr":false},{"id":1994680369,"name":"板橋派出所","lat":25.0123567,"lng":121.4600866,"address":"22055新北市板橋區文化路一段52號","hasBabyChanging":false,"hasAccessible":false,"source":"OpenStreetMap","updatedAt":"2026-06-10T15:41:05.166Z","facilityType":"police","facilityLabel":"🚔 派出所","changingTable":false,"wheelchair":false,"needsAddr":false},{"id":2259948569,"name":"家樂福 府中店","lat":25.0094667,"lng":121.4548846,"address":"22055新北市板橋區府中路126號","hasBabyChanging":false,"hasAccessible":true,"source":"OpenStreetMap","updatedAt":"2026-06-10T15:41:05.166Z","facilityType":"hypermarket","facilityLabel":"🛒 量販店","changingTable":false,"wheelchair":true,"openingHours":"24/7","needsAddr":false},{"id":2261642861,"name":"大眾廟","lat":25.0090379,"lng":121.4543794,"address":null,"hasBabyChanging":false,"hasAccessible":false,"source":"OpenStreetMap","updatedAt":"2026-06-10T15:41:05.166Z","facilityType":"temple","facilityLabel":"🛕 廟宇","changingTable":false,"wheelchair":false,"needsAddr":false},{"id":2261642863,"name":"福德宮","lat":25.0091325,"lng":121.4543945,"address":null,"hasBabyChanging":false,"hasAccessible":false,"source":"OpenStreetMap","updatedAt":"2026-06-10T15:41:05.166Z","facilityType":"temple","facilityLabel":"🛕 廟宇","changingTable":false,"wheelchair":false,"needsAddr":false},{"id":2405739672,"name":"環球購物中心 板橋車站","lat":25.0143069,"lng":121.4641095,"address":"220新北市板橋區縣民大道二段7號","hasBabyChanging":true,"hasAccessible":true,"source":"OpenStreetMap","updatedAt":"2026-06-10T15:41:05.166Z","facilityType":"department","facilityLabel":"🏬 百貨","changingTable":true,"wheelchair":true,"openingHours":"Mo-Fr 11:00-22:00; Sa-Su 10:00-22:00","needsAddr":false},{"id":2473958342,"name":"板橋親親家庭診所","lat":25.0276389,"lng":121.4786289,"address":null,"hasBabyChanging":false,"hasAccessible":false,"source":"OpenStreetMap","updatedAt":"2026-06-10T15:41:05.166Z","facilityType":"clinic","facilityLabel":"🩺 診所","changingTable":false,"wheelchair":false,"needsAddr":false},{"id":2473958378,"name":"公共廁所","lat":25.0272695,"lng":121.4808581,"address":null,"hasBabyChanging":false,"hasAccessible":false,"source":"OpenStreetMap","updatedAt":"2026-06-10T15:41:05.166Z","facilityType":"toilet","facilityLabel":null,"changingTable":false,"wheelchair":false,"needsAddr":true},{"id":2536486307,"name":"麥當勞","lat":25.022407,"lng":121.4673717,"address":null,"hasBabyChanging":false,"hasAccessible":false,"source":"OpenStreetMap","updatedAt":"2026-06-10T15:41:05.166Z","facilityType":"mcdonalds","facilityLabel":"🍔 麥當勞","changingTable":false,"wheelchair":false,"needsAddr":true},{"id":2536764322,"name":"大觀派出所","lat":25.0012044,"lng":121.4460227,"address":"新北市板橋區大安里大觀路二段127號","hasBabyChanging":false,"hasAccessible":false,"source":"OpenStreetMap","updatedAt":"2026-06-10T15:41:05.166Z","facilityType":"police","facilityLabel":"🚔 派出所","changingTable":false,"wheelchair":false,"needsAddr":false},{"id":2536764961,"name":"文聖派出所","lat":25.0268265,"lng":121.4772418,"address":"新北市板橋區大同街14號","hasBabyChanging":false,"hasAccessible":true,"source":"OpenStreetMap","updatedAt":"2026-06-10T15:41:05.166Z","facilityType":"police","facilityLabel":"🚔 派出所","changingTable":false,"wheelchair":true,"needsAddr":false},{"id":2536765510,"name":"江翠派出所","lat":25.0302291,"lng":121.4700427,"address":"新北市板橋區吳鳳路50巷36號","hasBabyChanging":false,"hasAccessible":false,"source":"OpenStreetMap","updatedAt":"2026-06-10T15:41:05.166Z","facilityType":"police","facilityLabel":"🚔 派出所","changingTable":false,"wheelchair":false,"needsAddr":false},{"id":2588796015,"name":"慈后宮","lat":25.0293119,"lng":121.4598785,"address":null,"hasBabyChanging":false,"hasAccessible":false,"source":"OpenStreetMap","updatedAt":"2026-06-10T15:41:05.166Z","facilityType":"temple","facilityLabel":"🛕 廟宇","changingTable":false,"wheelchair":false,"needsAddr":false},{"id":2588798587,"name":"春和診所","lat":25.0300299,"lng":121.4606258,"address":null,"hasBabyChanging":false,"hasAccessible":false,"source":"OpenStreetMap","updatedAt":"2026-06-10T15:41:05.166Z","facilityType":"clinic","facilityLabel":"🩺 診所","changingTable":false,"wheelchair":false,"needsAddr":false},{"id":2595078241,"name":"廣佑診所","lat":25.0304459,"lng":121.461895,"address":null,"hasBabyChanging":false,"hasAccessible":false,"source":"OpenStreetMap","updatedAt":"2026-06-10T15:41:05.166Z","facilityType":"clinic","facilityLabel":"🩺 診所","changingTable":false,"wheelchair":false,"needsAddr":false},{"id":2611788693,"name":"兒林小兒科","lat":24.9937002,"lng":121.4623613,"address":null,"hasBabyChanging":false,"hasAccessible":false,"source":"OpenStreetMap","updatedAt":"2026-06-10T15:41:05.166Z","facilityType":"clinic","facilityLabel":"🩺 診所","changingTable":false,"wheelchair":false,"needsAddr":false},{"id":2630657579,"name":"板新醫院","lat":25.0168281,"lng":121.4563572,"address":null,"hasBabyChanging":false,"hasAccessible":false,"source":"OpenStreetMap","updatedAt":"2026-06-10T15:41:05.166Z","facilityType":"hospital","facilityLabel":"🏥 醫院","changingTable":false,"wheelchair":false,"needsAddr":false},{"id":2638377053,"name":"星巴克 板雙門市 Ban Shuang","lat":25.0287601,"lng":121.4735959,"address":"220新北市板橋區雙十路二段193號","hasBabyChanging":false,"hasAccessible":true,"source":"OpenStreetMap","updatedAt":"2026-06-10T15:41:05.166Z","facilityType":"starbucks","facilityLabel":"☕ 星巴克","changingTable":false,"wheelchair":true,"openingHours":"Su-Th 07:00-23:00; Fr-Sa 07:00-23:30","needsAddr":false},{"id":2651662741,"name":"農村福德宮","lat":25.0299909,"lng":121.4709357,"address":null,"hasBabyChanging":false,"hasAccessible":false,"source":"OpenStreetMap","updatedAt":"2026-06-10T15:41:05.166Z","facilityType":"temple","facilityLabel":"🛕 廟宇","changingTable":false,"wheelchair":false,"needsAddr":false},{"id":2686145860,"name":"林園影城","lat":25.0086586,"lng":121.455004,"address":"220新北市板橋區館前西路158號","hasBabyChanging":false,"hasAccessible":false,"source":"OpenStreetMap","updatedAt":"2026-06-10T15:41:05.166Z","facilityType":"cinema","facilityLabel":"🎬 電影院","changingTable":false,"wheelchair":false,"needsAddr":false},{"id":2716998341,"name":"星巴克","lat":25.0083286,"lng":121.460091,"address":null,"hasBabyChanging":false,"hasAccessible":false,"source":"OpenStreetMap","updatedAt":"2026-06-10T15:41:05.166Z","facilityType":"starbucks","facilityLabel":"☕ 星巴克","changingTable":false,"wheelchair":false,"needsAddr":true},{"id":2716998342,"name":"秀泰影城(板橋)","lat":25.0122787,"lng":121.4622642,"address":"220新北市板橋區縣民大道二段3號","hasBabyChanging":false,"hasAccessible":false,"source":"OpenStreetMap","updatedAt":"2026-06-10T15:41:05.166Z","facilityType":"cinema","facilityLabel":"🎬 電影院","changingTable":false,"wheelchair":false,"needsAddr":false},{"id":2717052415,"name":"星巴克","lat":25.0143815,"lng":121.4640188,"address":null,"hasBabyChanging":false,"hasAccessible":true,"source":"OpenStreetMap","updatedAt":"2026-06-10T15:41:05.166Z","facilityType":"starbucks","facilityLabel":"☕ 星巴克","changingTable":false,"wheelchair":true,"needsAddr":true},{"id":2722708583,"name":"板橋大遠百威秀影城","lat":25.0140276,"lng":121.4671367,"address":"22041新北市板橋區新站路28號","hasBabyChanging":false,"hasAccessible":false,"source":"OpenStreetMap","updatedAt":"2026-06-10T15:41:05.166Z","facilityType":"cinema","facilityLabel":"🎬 電影院","changingTable":false,"wheelchair":false,"needsAddr":false},{"id":2726480265,"name":"麥當勞 (22041新北市板橋區新站路28號)","lat":25.0140182,"lng":121.4666244,"address":"22041新北市板橋區新站路28號","hasBabyChanging":false,"hasAccessible":false,"source":"OpenStreetMap","updatedAt":"2026-06-10T15:41:05.166Z","facilityType":"mcdonalds","facilityLabel":"🍔 麥當勞","changingTable":false,"wheelchair":false,"needsAddr":false},{"id":2726875370,"name":"聚安宮","lat":24.9987946,"lng":121.4412551,"address":"新北市大觀路二段","hasBabyChanging":false,"hasAccessible":false,"source":"OpenStreetMap","updatedAt":"2026-06-10T15:41:05.166Z","facilityType":"temple","facilityLabel":"🛕 廟宇","changingTable":false,"wheelchair":false,"needsAddr":false},{"id":2784758412,"name":"板橋慈惠宮媽祖廟書館","lat":25.0093206,"lng":121.45672,"address":"新北市板橋區","hasBabyChanging":false,"hasAccessible":false,"source":"OpenStreetMap","updatedAt":"2026-06-10T15:41:05.166Z","facilityType":"library","facilityLabel":"📚 圖書館","changingTable":false,"wheelchair":false,"needsAddr":false},{"id":2784760525,"name":"北巡徐府元帥","lat":25.0094433,"lng":121.452539,"address":null,"hasBabyChanging":false,"hasAccessible":false,"source":"OpenStreetMap","updatedAt":"2026-06-10T15:41:05.166Z","facilityType":"temple","facilityLabel":"🛕 廟宇","changingTable":false,"wheelchair":false,"needsAddr":false},{"id":2784764644,"name":"浮洲里辦公處","lat":25.0107921,"lng":121.4498736,"address":null,"hasBabyChanging":false,"hasAccessible":false,"source":"OpenStreetMap","updatedAt":"2026-06-10T15:41:05.166Z","facilityType":"government","facilityLabel":"🏛 公務機關","changingTable":false,"wheelchair":false,"needsAddr":false},{"id":2784764678,"name":"福德宮活動中心","lat":25.0059563,"lng":121.4427854,"address":null,"hasBabyChanging":false,"hasAccessible":false,"source":"OpenStreetMap","updatedAt":"2026-06-10T15:41:05.166Z","facilityType":"community","facilityLabel":"🏘️ 活動中心","changingTable":false,"wheelchair":false,"needsAddr":false},{"id":2784768423,"name":"歡園市民活動中心","lat":25.0045321,"lng":121.4422629,"address":null,"hasBabyChanging":false,"hasAccessible":false,"source":"OpenStreetMap","updatedAt":"2026-06-10T15:41:05.166Z","facilityType":"community","facilityLabel":"🏘️ 活動中心","changingTable":false,"wheelchair":false,"needsAddr":false},{"id":2784773054,"name":"庭天宮","lat":25.0093252,"lng":121.4500605,"address":null,"hasBabyChanging":false,"hasAccessible":false,"source":"OpenStreetMap","updatedAt":"2026-06-10T15:41:05.166Z","facilityType":"temple","facilityLabel":"🛕 廟宇","changingTable":false,"wheelchair":false,"needsAddr":false},{"id":2784774652,"name":"歡仔園福德宮","lat":25.0059919,"lng":121.4427814,"address":"220新北市板橋區大觀路一段38巷156弄39號","hasBabyChanging":false,"hasAccessible":false,"source":"OpenStreetMap","updatedAt":"2026-06-10T15:41:05.166Z","facilityType":"temple","facilityLabel":"🛕 廟宇","changingTable":false,"wheelchair":false,"needsAddr":false},{"id":2784778533,"name":"聖賢宮","lat":25.0045256,"lng":121.4422676,"address":"220新北市板橋區大觀路一段38巷158號","hasBabyChanging":false,"hasAccessible":false,"source":"OpenStreetMap","updatedAt":"2026-06-10T15:41:05.166Z","facilityType":"temple","facilityLabel":"🛕 廟宇","changingTable":false,"wheelchair":false,"needsAddr":false},{"id":2784781240,"name":"神愛世人教會","lat":25.0045814,"lng":121.4462991,"address":null,"hasBabyChanging":false,"hasAccessible":false,"source":"OpenStreetMap","updatedAt":"2026-06-10T15:41:05.166Z","facilityType":"temple","facilityLabel":"🛕 廟宇","changingTable":false,"wheelchair":false,"needsAddr":false},{"id":2784782238,"name":"黃何耳鼻喉科 皮膚科聯合診所","lat":25.0105205,"lng":121.4577286,"address":null,"hasBabyChanging":false,"hasAccessible":false,"source":"OpenStreetMap","updatedAt":"2026-06-10T15:41:05.166Z","facilityType":"clinic","facilityLabel":"🩺 診所","changingTable":false,"wheelchair":false,"needsAddr":false},{"id":2784782240,"name":"陳正忠小兒科診所","lat":25.0092823,"lng":121.4554284,"address":null,"hasBabyChanging":false,"hasAccessible":false,"source":"OpenStreetMap","updatedAt":"2026-06-10T15:41:05.166Z","facilityType":"clinic","facilityLabel":"🩺 診所","changingTable":false,"wheelchair":false,"openingHours":"Mo-Sa 09:00-12:00, 15:30-18:00, 19:00-22:00; Su 09:00-12:00","needsAddr":false},{"id":2784790388,"name":"五福宮","lat":25.008354,"lng":121.4452136,"address":null,"hasBabyChanging":false,"hasAccessible":false,"source":"OpenStreetMap","updatedAt":"2026-06-10T15:41:05.166Z","facilityType":"temple","facilityLabel":"🛕 廟宇","changingTable":false,"wheelchair":false,"needsAddr":false},{"id":2784794570,"name":"福興堂","lat":25.006784,"lng":121.4449714,"address":"220新北市板橋區僑中二街114巷15號","hasBabyChanging":false,"hasAccessible":false,"source":"OpenStreetMap","updatedAt":"2026-06-10T15:41:05.166Z","facilityType":"temple","facilityLabel":"🛕 廟宇","changingTable":false,"wheelchair":false,"needsAddr":false},{"id":2784798143,"name":"順天宮","lat":25.0116198,"lng":121.4455781,"address":null,"hasBabyChanging":false,"hasAccessible":false,"source":"OpenStreetMap","updatedAt":"2026-06-10T15:41:05.166Z","facilityType":"temple","facilityLabel":"🛕 廟宇","changingTable":false,"wheelchair":false,"needsAddr":false},{"id":2784801520,"name":"福德祠","lat":25.0080279,"lng":121.4458344,"address":"新北市板橋區僑中二街104巷","hasBabyChanging":false,"hasAccessible":false,"source":"OpenStreetMap","updatedAt":"2026-06-10T15:41:05.166Z","facilityType":"temple","facilityLabel":"🛕 廟宇","changingTable":false,"wheelchair":false,"needsAddr":false},{"id":2784803451,"name":"天德宮","lat":25.0105002,"lng":121.4453198,"address":null,"hasBabyChanging":false,"hasAccessible":false,"source":"OpenStreetMap","updatedAt":"2026-06-10T15:41:05.166Z","facilityType":"temple","facilityLabel":"🛕 廟宇","changingTable":false,"wheelchair":false,"needsAddr":false},{"id":2784820883,"name":"東安宮","lat":25.0054646,"lng":121.449453,"address":null,"hasBabyChanging":false,"hasAccessible":false,"source":"OpenStreetMap","updatedAt":"2026-06-10T15:41:05.166Z","facilityType":"temple","facilityLabel":"🛕 廟宇","changingTable":false,"wheelchair":false,"needsAddr":false},{"id":2784820884,"name":"板橋天后壇","lat":25.0055115,"lng":121.4505798,"address":null,"hasBabyChanging":false,"hasAccessible":false,"source":"OpenStreetMap","updatedAt":"2026-06-10T15:41:05.166Z","facilityType":"temple","facilityLabel":"🛕 廟宇","changingTable":false,"wheelchair":false,"needsAddr":false},{"id":2785901698,"name":"板橋夜市","lat":25.0051046,"lng":121.4562209,"address":null,"hasBabyChanging":false,"hasAccessible":false,"source":"OpenStreetMap","updatedAt":"2026-06-10T15:41:05.166Z","facilityType":"nightmarket","facilityLabel":"🍢 夜市","changingTable":false,"wheelchair":false,"needsAddr":false},{"id":2810933504,"name":"板橋信合美眼科診所 3531016871","lat":25.0105265,"lng":121.4640199,"address":"220073新北市板橋區新民街33號1、2樓","hasBabyChanging":false,"hasAccessible":false,"source":"OpenStreetMap","updatedAt":"2026-06-10T15:41:05.166Z","facilityType":"clinic","facilityLabel":"🩺 診所","changingTable":false,"wheelchair":false,"openingHours":"Mo-Sa 09:00-12:00,14:30-17:30,18:30-21:00","needsAddr":false},{"id":2866559962,"name":"新埔民生 Y17","lat":25.0261266,"lng":121.4666661,"address":"220030新北市板橋區民生路三段70號","hasBabyChanging":false,"hasAccessible":false,"source":"OpenStreetMap","updatedAt":"2026-06-10T15:41:05.166Z","facilityType":"mrt","facilityLabel":"🚇 捷運站","changingTable":false,"wheelchair":false,"needsAddr":false},{"id":2866570655,"name":"板橋 Y16","lat":25.0151874,"lng":121.464592,"address":null,"hasBabyChanging":false,"hasAccessible":false,"source":"OpenStreetMap","updatedAt":"2026-06-10T15:41:05.166Z","facilityType":"mrt","facilityLabel":"🚇 捷運站","changingTable":false,"wheelchair":false,"needsAddr":false},{"id":2866590585,"name":"板新 Y15","lat":25.0145313,"lng":121.472418,"address":"220076新北市板橋區鄰板新路109號","hasBabyChanging":false,"hasAccessible":false,"source":"OpenStreetMap","updatedAt":"2026-06-10T15:41:05.166Z","facilityType":"mrt","facilityLabel":"🚇 捷運站","changingTable":false,"wheelchair":false,"needsAddr":false},{"id":2936870967,"name":"板橋夜市","lat":25.006608,"lng":121.4560729,"address":null,"hasBabyChanging":false,"hasAccessible":false,"source":"OpenStreetMap","updatedAt":"2026-06-10T15:41:05.166Z","facilityType":"nightmarket","facilityLabel":"🍢 夜市","changingTable":false,"wheelchair":false,"needsAddr":false},{"id":3205651518,"name":"新北市立圖書館板橋江子翠分館","lat":25.0260631,"lng":121.4722189,"address":"22044新北市板橋區莊敬路62號","hasBabyChanging":false,"hasAccessible":true,"source":"OpenStreetMap","updatedAt":"2026-06-10T15:41:05.166Z","facilityType":"library","facilityLabel":"📚 圖書館","changingTable":false,"wheelchair":true,"openingHours":"Tu-Sa 08:30-21:00; Su-Mo 08:30-17:00; Th[-1] off; PH off","needsAddr":false},{"id":3205736956,"name":"土地公廟","lat":25.0190568,"lng":121.455599,"address":null,"hasBabyChanging":false,"hasAccessible":false,"source":"OpenStreetMap","updatedAt":"2026-06-10T15:41:05.166Z","facilityType":"temple","facilityLabel":"🛕 廟宇","changingTable":false,"wheelchair":false,"needsAddr":false},{"id":3232347129,"name":"南雅閱覽室","lat":25.0037539,"lng":121.4549754,"address":"22060新北市板橋區南雅南路二段1之1號二樓","hasBabyChanging":false,"hasAccessible":false,"source":"OpenStreetMap","updatedAt":"2026-06-10T15:41:05.166Z","facilityType":"library","facilityLabel":"📚 圖書館","changingTable":false,"wheelchair":false,"openingHours":"Mo-Tu,Th-Sa 08:00-21:30;Su 08:00-11:30;We off","needsAddr":false},{"id":3234807768,"name":"寶雅板橋南雅店","lat":25.0060083,"lng":121.4559986,"address":"22060新北市板橋區南雅南路一段55號一樓","hasBabyChanging":false,"hasAccessible":false,"source":"OpenStreetMap","updatedAt":"2026-06-10T15:41:05.166Z","facilityType":"poya","facilityLabel":"💄 寶雅","changingTable":false,"wheelchair":false,"openingHours":"Mo-Su10:00-22:30","needsAddr":false},{"id":3234807778,"name":"新北市立圖書館板橋萬板親子閱覽室","lat":25.0223349,"lng":121.4724311,"address":"22042新北市板橋區萬板路28號","hasBabyChanging":false,"hasAccessible":false,"source":"OpenStreetMap","updatedAt":"2026-06-10T15:41:05.166Z","facilityType":"library","facilityLabel":"📚 圖書館","changingTable":false,"wheelchair":false,"openingHours":"Tu-Sa 08:30-21:00;Su-Mo 08:30-17:00;Tr[-1] off;PH off","needsAddr":false},{"id":3245728372,"name":"7-Eleven 油庫口門市","lat":25.0190314,"lng":121.466674,"address":"220002新北市板橋區文化路一段188巷38、40號1樓","hasBabyChanging":false,"hasAccessible":false,"source":"OpenStreetMap","updatedAt":"2026-06-10T15:41:05.166Z","facilityType":"convenience","facilityLabel":"🏪 超商","changingTable":false,"wheelchair":false,"openingHours":"24/7","needsAddr":false},{"id":3245728374,"name":"星巴克 板橋新埔門市","lat":25.0203602,"lng":121.4666927,"address":"220002新北市板橋區文化路一段220號","hasBabyChanging":false,"hasAccessible":false,"source":"OpenStreetMap","updatedAt":"2026-06-10T15:41:05.166Z","facilityType":"starbucks","facilityLabel":"☕ 星巴克","changingTable":false,"wheelchair":false,"openingHours":"Mo-Fr 07:00-21:30; Sa-Su 07:30-21:30","needsAddr":false},{"id":3292774933,"name":"林樹成骨節整復","lat":25.0194179,"lng":121.4662194,"address":"220新北市板橋區文化路一段188巷22號","hasBabyChanging":false,"hasAccessible":false,"source":"OpenStreetMap","updatedAt":"2026-06-10T15:41:05.166Z","facilityType":"clinic","facilityLabel":"🩺 診所","changingTable":false,"wheelchair":false,"needsAddr":false},{"id":3292774940,"name":"蔡英傑皮膚科","lat":25.0190066,"lng":121.4654684,"address":"220新北市板橋區文化路一段146號","hasBabyChanging":false,"hasAccessible":false,"source":"OpenStreetMap","updatedAt":"2026-06-10T15:41:05.166Z","facilityType":"clinic","facilityLabel":"🩺 診所","changingTable":false,"wheelchair":false,"needsAddr":false},{"id":3292774942,"name":"祐康獸醫院","lat":25.0189532,"lng":121.4653972,"address":"22041新北市板橋區文化路一段140號","hasBabyChanging":false,"hasAccessible":false,"source":"OpenStreetMap","updatedAt":"2026-06-10T15:41:05.166Z","facilityType":"vet","facilityLabel":"🐾 獸醫院","changingTable":false,"wheelchair":false,"openingHours":"Mo-Sa 09:00-21:30; Su 09:00-18:00","needsAddr":false},{"id":3292774951,"name":"張英睿皮膚專科診所","lat":25.0183704,"lng":121.4649675,"address":"220新北市板橋區文化路一段118號","hasBabyChanging":false,"hasAccessible":false,"source":"OpenStreetMap","updatedAt":"2026-06-10T15:41:05.166Z","facilityType":"clinic","facilityLabel":"🩺 診所","changingTable":false,"wheelchair":false,"needsAddr":false},{"id":3292774953,"name":"秀娥婦產科","lat":25.0178735,"lng":121.4645752,"address":"220新北市板橋區文化路一段98號","hasBabyChanging":false,"hasAccessible":false,"source":"OpenStreetMap","updatedAt":"2026-06-10T15:41:05.166Z","facilityType":"clinic","facilityLabel":"🩺 診所","changingTable":false,"wheelchair":false,"needsAddr":false},{"id":3292775592,"name":"楊孟達身心精神科","lat":25.0184743,"lng":121.464609,"address":"22050新北市板橋區文化路一段275號","hasBabyChanging":false,"hasAccessible":false,"source":"OpenStreetMap","updatedAt":"2026-06-10T15:41:05.166Z","facilityType":"clinic","facilityLabel":"🩺 診所","changingTable":false,"wheelchair":false,"openingHours":"Mo-Fr 10:00-12:00,15:00-18:00,19:00-22:00; Sa 10:00-12:00,15:00-18:00; Su off","needsAddr":false},{"id":3292775593,"name":"板英醫院","lat":25.0184062,"lng":121.464544,"address":"22050新北市板橋區文化路一段269號","hasBabyChanging":false,"hasAccessible":false,"source":"OpenStreetMap","updatedAt":"2026-06-10T15:41:05.166Z","facilityType":"hospital","facilityLabel":"🏥 醫院","changingTable":false,"wheelchair":false,"needsAddr":false},{"id":3302294400,"name":"公共廁所","lat":25.0172408,"lng":121.4679658,"address":null,"hasBabyChanging":false,"hasAccessible":false,"source":"OpenStreetMap","updatedAt":"2026-06-10T15:41:05.166Z","facilityType":"toilet","facilityLabel":null,"changingTable":false,"wheelchair":false,"needsAddr":true},{"id":3307115167,"name":"公共廁所","lat":25.0369053,"lng":121.4815914,"address":null,"hasBabyChanging":false,"hasAccessible":false,"source":"OpenStreetMap","updatedAt":"2026-06-10T15:41:05.166Z","facilityType":"toilet","facilityLabel":null,"changingTable":false,"wheelchair":false,"needsAddr":true},{"id":3366010227,"name":"新月橋","lat":25.0296349,"lng":121.4515822,"address":null,"hasBabyChanging":false,"hasAccessible":false,"source":"OpenStreetMap","updatedAt":"2026-06-10T15:41:05.166Z","facilityType":"attraction","facilityLabel":"🏞️ 景點","changingTable":false,"wheelchair":false,"needsAddr":false},{"id":3409809187,"name":"公共廁所","lat":25.0172828,"lng":121.464439,"address":null,"hasBabyChanging":false,"hasAccessible":false,"source":"OpenStreetMap","updatedAt":"2026-06-10T15:41:05.166Z","facilityType":"toilet","facilityLabel":null,"changingTable":false,"wheelchair":false,"needsAddr":true},{"id":3444713884,"name":"好樂迪 板後店","lat":25.0075523,"lng":121.46292,"address":"220066新北市板橋區館前東路106號","hasBabyChanging":false,"hasAccessible":false,"source":"OpenStreetMap","updatedAt":"2026-06-10T15:41:05.166Z","facilityType":"ktv","facilityLabel":"🎤 KTV","changingTable":false,"wheelchair":false,"fee":"yes","openingHours":"Mo-Su 12:00-06:00","needsAddr":false},{"id":3444713887,"name":"公共廁所","lat":25.0076862,"lng":121.4624252,"address":null,"hasBabyChanging":false,"hasAccessible":true,"source":"OpenStreetMap","updatedAt":"2026-06-10T15:41:05.166Z","facilityType":"toilet","facilityLabel":null,"changingTable":false,"wheelchair":true,"fee":"no","needsAddr":true},{"id":3444713888,"name":"公共廁所","lat":25.0084149,"lng":121.4632031,"address":null,"hasBabyChanging":false,"hasAccessible":false,"source":"OpenStreetMap","updatedAt":"2026-06-10T15:41:05.166Z","facilityType":"toilet","facilityLabel":null,"changingTable":false,"wheelchair":false,"needsAddr":true},{"id":3449668210,"name":"新民福德宮","lat":25.0177601,"lng":121.4661868,"address":null,"hasBabyChanging":false,"hasAccessible":false,"source":"OpenStreetMap","updatedAt":"2026-06-10T15:41:05.166Z","facilityType":"temple","facilityLabel":"🛕 廟宇","changingTable":false,"wheelchair":false,"needsAddr":false},{"id":4202253,"name":"新北市政府大樓","lat":25.0125205,"lng":121.4654278,"address":"22041新北市板橋區中山路一段161號","hasBabyChanging":false,"hasAccessible":true,"source":"OpenStreetMap","updatedAt":"2026-06-10T15:41:05.166Z","facilityType":"government","facilityLabel":"🏛 公務機關","changingTable":false,"wheelchair":true,"needsAddr":false},{"id":3455590518,"name":"新板藝廊","lat":25.0142114,"lng":121.4664414,"address":"22066新北市板橋區漢生東路166號3樓","hasBabyChanging":false,"hasAccessible":false,"source":"OpenStreetMap","updatedAt":"2026-06-10T15:41:05.166Z","facilityType":"arts","facilityLabel":"🎭 藝文場館","changingTable":false,"wheelchair":false,"openingHours":"Mo-Su 10:00-18:00","needsAddr":false},{"id":3459370310,"name":"燦明眼科診所","lat":25.0195101,"lng":121.4658658,"address":"22041新北市板橋區文化路一段180號","hasBabyChanging":false,"hasAccessible":false,"source":"OpenStreetMap","updatedAt":"2026-06-10T15:41:05.166Z","facilityType":"clinic","facilityLabel":"🩺 診所","changingTable":false,"wheelchair":false,"needsAddr":false},{"id":3472549303,"name":"錢櫃Partyworld","lat":25.0071268,"lng":121.458905,"address":null,"hasBabyChanging":false,"hasAccessible":false,"source":"OpenStreetMap","updatedAt":"2026-06-10T15:41:05.166Z","facilityType":"ktv","facilityLabel":"🎤 KTV","changingTable":false,"wheelchair":false,"fee":"yes","needsAddr":false},{"id":3500368931,"name":"新北市立圖書館板橋國光圖書閱覽室","lat":25.020257,"lng":121.4535945,"address":"22054新北市板橋區中正路375巷48號三樓","hasBabyChanging":false,"hasAccessible":false,"source":"OpenStreetMap","updatedAt":"2026-06-10T15:41:05.166Z","facilityType":"library","facilityLabel":"📚 圖書館","changingTable":false,"wheelchair":false,"openingHours":"Tu-Sa 08:30-21:00; Su-Mo 08:30-17:00; PH off; Th[-1] off","needsAddr":false},{"id":3503435953,"name":"新北市立圖書館板橋車站低碳智慧圖書館","lat":25.014651,"lng":121.4638977,"address":"22041新北市板橋區縣民大道二段7號B1樓","hasBabyChanging":false,"hasAccessible":true,"source":"OpenStreetMap","updatedAt":"2026-06-10T15:41:05.166Z","facilityType":"library","facilityLabel":"📚 圖書館","changingTable":false,"wheelchair":true,"openingHours":"Mo-Su 07:00-22:00","needsAddr":false},{"id":3504208016,"name":"新北市立圖書館板橋民生圖書閱覽室","lat":25.0134131,"lng":121.4758288,"address":"220077新北市板橋區民生路一段30號2樓","hasBabyChanging":false,"hasAccessible":false,"source":"OpenStreetMap","updatedAt":"2026-06-10T15:41:05.166Z","facilityType":"library","facilityLabel":"📚 圖書館","changingTable":false,"wheelchair":false,"openingHours":"Tu-Sa 08:30-21:00; Su-Mo 08:30-17:00; PH off; Th[-1] off","needsAddr":false},{"id":3524582519,"name":"新北市板橋區戶政事務所海山辦事處","lat":25.0115787,"lng":121.4700925,"address":"220071新北市板橋區漢生東路195之1號","hasBabyChanging":false,"hasAccessible":false,"source":"OpenStreetMap","updatedAt":"2026-06-10T15:41:05.166Z","facilityType":"government","facilityLabel":"🏛 公務機關","changingTable":false,"wheelchair":false,"openingHours":"Mo-Fr 08:00-17:30","needsAddr":false},{"id":3576345967,"name":"公共廁所","lat":25.0123163,"lng":121.4611746,"address":null,"hasBabyChanging":false,"hasAccessible":false,"source":"OpenStreetMap","updatedAt":"2026-06-10T15:41:05.166Z","facilityType":"toilet","facilityLabel":null,"changingTable":false,"wheelchair":false,"needsAddr":true},{"id":3612251249,"name":"7-Eleven 戰國門市","lat":25.0206193,"lng":121.4758101,"address":"220087新北市板橋區永豐街173、175號","hasBabyChanging":false,"hasAccessible":false,"source":"OpenStreetMap","updatedAt":"2026-06-10T15:41:05.166Z","facilityType":"convenience","facilityLabel":"🏪 超商","changingTable":false,"wheelchair":false,"openingHours":"24/7","needsAddr":false},{"id":3622808988,"name":"德一診所 3531017752","lat":25.0179942,"lng":121.4784624,"address":"220079新北市板橋區中山路二段236號","hasBabyChanging":false,"hasAccessible":false,"source":"OpenStreetMap","updatedAt":"2026-06-10T15:41:05.166Z","facilityType":"clinic","facilityLabel":"🩺 診所","changingTable":false,"wheelchair":false,"needsAddr":false},{"id":3622809708,"name":"和康中醫診所 3831012753","lat":25.0182236,"lng":121.4782407,"address":"220089新北市板橋區中山路二段291之11號","hasBabyChanging":false,"hasAccessible":false,"source":"OpenStreetMap","updatedAt":"2026-06-10T15:41:05.166Z","facilityType":"clinic","facilityLabel":"🩺 診所","changingTable":false,"wheelchair":false,"needsAddr":false},{"id":3622812490,"name":"家樂福 板橋店","lat":25.0177316,"lng":121.4794759,"address":"220337新北市板橋區三民路二段31號B1","hasBabyChanging":false,"hasAccessible":false,"source":"OpenStreetMap","updatedAt":"2026-06-10T15:41:05.166Z","facilityType":"hypermarket","facilityLabel":"🛒 量販店","changingTable":false,"wheelchair":false,"openingHours":"Mo-Su 09:00-23:00","needsAddr":false},{"id":241424548,"name":"亞東醫院","lat":24.9973048,"lng":121.4530666,"address":"新北市板橋區華東里南雅南路二段21號","hasBabyChanging":false,"hasAccessible":false,"source":"OpenStreetMap","updatedAt":"2026-06-10T15:41:05.166Z","facilityType":"hospital","facilityLabel":"🏥 醫院","changingTable":false,"wheelchair":false,"needsAddr":false},{"id":3639530943,"name":"府中 BL06","lat":25.0087697,"lng":121.4592803,"address":"新北市板橋區縣民大道一段193號B1","hasBabyChanging":false,"hasAccessible":false,"source":"OpenStreetMap","updatedAt":"2026-06-10T15:41:05.166Z","facilityType":"mrt","facilityLabel":"🚇 捷運站","changingTable":false,"wheelchair":false,"needsAddr":false},{"id":3639530946,"name":"新埔 BL08","lat":25.0234603,"lng":121.4683057,"address":"新北市板橋區民生路三段2號B1","hasBabyChanging":false,"hasAccessible":false,"source":"OpenStreetMap","updatedAt":"2026-06-10T15:41:05.166Z","facilityType":"mrt","facilityLabel":"🚇 捷運站","changingTable":false,"wheelchair":false,"needsAddr":false},{"id":3639530948,"name":"板橋 BL07","lat":25.0144988,"lng":121.462992,"address":"新北市板橋區新民里縣民大道二段7號","hasBabyChanging":false,"hasAccessible":false,"source":"OpenStreetMap","updatedAt":"2026-06-10T15:41:05.166Z","facilityType":"mrt","facilityLabel":"🚇 捷運站","changingTable":false,"wheelchair":false,"needsAddr":false},{"id":3639530950,"name":"江子翠 BL09","lat":25.0304238,"lng":121.4727783,"address":"新北市板橋區文化路二段296號B1","hasBabyChanging":false,"hasAccessible":false,"source":"OpenStreetMap","updatedAt":"2026-06-10T15:41:05.166Z","facilityType":"mrt","facilityLabel":"🚇 捷運站","changingTable":false,"wheelchair":false,"needsAddr":false},{"id":3671191751,"name":"寶雅板橋重慶店","lat":25.0003788,"lng":121.4634209,"address":null,"hasBabyChanging":false,"hasAccessible":false,"source":"OpenStreetMap","updatedAt":"2026-06-10T15:41:05.166Z","facilityType":"poya","facilityLabel":"💄 寶雅","changingTable":false,"wheelchair":false,"needsAddr":false},{"id":3754667662,"name":"廟宇","lat":25.0306511,"lng":121.4708259,"address":null,"hasBabyChanging":false,"hasAccessible":false,"source":"OpenStreetMap","updatedAt":"2026-06-10T15:41:05.166Z","facilityType":"temple","facilityLabel":"🛕 廟宇","changingTable":false,"wheelchair":false,"needsAddr":true},{"id":3933530681,"name":"板橋","lat":25.0137054,"lng":121.4642616,"address":"220新北市板橋區縣民大道二段7號","hasBabyChanging":false,"hasAccessible":true,"source":"OpenStreetMap","updatedAt":"2026-06-10T15:41:05.166Z","facilityType":"train","facilityLabel":"🚂 火車站","changingTable":false,"wheelchair":true,"needsAddr":false},{"id":4085141426,"name":"元智紀念館","lat":25.0002713,"lng":121.4528995,"address":null,"hasBabyChanging":false,"hasAccessible":false,"source":"OpenStreetMap","updatedAt":"2026-06-10T15:41:05.166Z","facilityType":"museum","facilityLabel":"🖼️ 博物館","changingTable":false,"wheelchair":false,"needsAddr":false},{"id":4085141431,"name":"麥當勞 板橋南雅餐廳","lat":24.9971931,"lng":121.4519666,"address":"220新北市板橋區南雅南路二段122之23號一樓","hasBabyChanging":false,"hasAccessible":false,"source":"OpenStreetMap","updatedAt":"2026-06-10T15:41:05.166Z","facilityType":"mcdonalds","facilityLabel":"🍔 麥當勞","changingTable":false,"wheelchair":false,"openingHours":"Mo-Su 06:00-00:00","needsAddr":false},{"id":4085141434,"name":"普因精舍","lat":25.0016206,"lng":121.4539559,"address":null,"hasBabyChanging":false,"hasAccessible":false,"source":"OpenStreetMap","updatedAt":"2026-06-10T15:41:05.166Z","facilityType":"temple","facilityLabel":"🛕 廟宇","changingTable":false,"wheelchair":false,"needsAddr":false},{"id":4085142311,"name":"聖成宮","lat":25.0034827,"lng":121.4536956,"address":null,"hasBabyChanging":false,"hasAccessible":false,"source":"OpenStreetMap","updatedAt":"2026-06-10T15:41:05.166Z","facilityType":"temple","facilityLabel":"🛕 廟宇","changingTable":false,"wheelchair":false,"needsAddr":false},{"id":4085142315,"name":"貴格會板城教會","lat":24.9964457,"lng":121.4515071,"address":null,"hasBabyChanging":false,"hasAccessible":false,"source":"OpenStreetMap","updatedAt":"2026-06-10T15:41:05.166Z","facilityType":"temple","facilityLabel":"🛕 廟宇","changingTable":false,"wheelchair":false,"needsAddr":false},{"id":4107785890,"name":"化育","lat":24.9967924,"lng":121.4561459,"address":"220新北市板橋區四川路二段16巷3號六樓","hasBabyChanging":false,"hasAccessible":false,"source":"OpenStreetMap","updatedAt":"2026-06-10T15:41:05.166Z","facilityType":"temple","facilityLabel":"🛕 廟宇","changingTable":false,"wheelchair":false,"needsAddr":false},{"id":4107800489,"name":"海濤悲願講堂","lat":25.0223508,"lng":121.484463,"address":"220新北市板橋區中山路二段581號","hasBabyChanging":false,"hasAccessible":false,"source":"OpenStreetMap","updatedAt":"2026-06-10T15:41:05.166Z","facilityType":"temple","facilityLabel":"🛕 廟宇","changingTable":false,"wheelchair":false,"needsAddr":false},{"id":4122381689,"name":"星巴克 萬板門市","lat":25.0223026,"lng":121.4720478,"address":"220新北市板橋區萬板路32號","hasBabyChanging":false,"hasAccessible":false,"source":"OpenStreetMap","updatedAt":"2026-06-10T15:41:05.166Z","facilityType":"starbucks","facilityLabel":"☕ 星巴克","changingTable":false,"wheelchair":false,"needsAddr":false},{"id":4122382492,"name":"景點","lat":25.0127027,"lng":121.4617735,"address":null,"hasBabyChanging":false,"hasAccessible":false,"source":"OpenStreetMap","updatedAt":"2026-06-10T15:41:05.166Z","facilityType":"attraction","facilityLabel":"🏞️ 景點","changingTable":false,"wheelchair":false,"needsAddr":true},{"id":4147270460,"name":"港仔嘴福德宮","lat":25.0270928,"lng":121.4821728,"address":null,"hasBabyChanging":false,"hasAccessible":false,"source":"OpenStreetMap","updatedAt":"2026-06-10T15:41:05.166Z","facilityType":"temple","facilityLabel":"🛕 廟宇","changingTable":false,"wheelchair":false,"needsAddr":false},{"id":4147356101,"name":"安胃診所 353101A048","lat":25.0179564,"lng":121.4783908,"address":"220079新北市板橋區中山路二段232號","hasBabyChanging":false,"hasAccessible":false,"source":"OpenStreetMap","updatedAt":"2026-06-10T15:41:05.166Z","facilityType":"clinic","facilityLabel":"🩺 診所","changingTable":false,"wheelchair":false,"openingHours":"Mo-Fr 08:30-12:30,14:30-17:30,18:00-21:00; Sa 08:30-12:30","needsAddr":false},{"id":4147356106,"name":"7-Eleven 板民門市","lat":25.0167691,"lng":121.4794676,"address":"220082新北市板橋區三民路二段77號","hasBabyChanging":false,"hasAccessible":false,"source":"OpenStreetMap","updatedAt":"2026-06-10T15:41:05.166Z","facilityType":"convenience","facilityLabel":"🏪 超商","changingTable":false,"wheelchair":false,"openingHours":"24/7","needsAddr":false},{"id":4149477982,"name":"好樂迪","lat":25.0067618,"lng":121.4560976,"address":null,"hasBabyChanging":false,"hasAccessible":false,"source":"OpenStreetMap","updatedAt":"2026-06-10T15:41:05.166Z","facilityType":"ktv","facilityLabel":"🎤 KTV","changingTable":false,"wheelchair":false,"fee":"yes","needsAddr":false},{"id":4149477986,"name":"板橋浸信會","lat":25.0064724,"lng":121.456206,"address":null,"hasBabyChanging":false,"hasAccessible":false,"source":"OpenStreetMap","updatedAt":"2026-06-10T15:41:05.166Z","facilityType":"temple","facilityLabel":"🛕 廟宇","changingTable":false,"wheelchair":false,"needsAddr":false},{"id":4290673191,"name":"東隆宮","lat":24.9881062,"lng":121.4245534,"address":null,"hasBabyChanging":false,"hasAccessible":false,"source":"OpenStreetMap","updatedAt":"2026-06-10T15:41:05.166Z","facilityType":"temple","facilityLabel":"🛕 廟宇","changingTable":false,"wheelchair":false,"needsAddr":false},{"id":4385066797,"name":"光復賞鳥綠地","lat":25.0248856,"lng":121.4860638,"address":null,"hasBabyChanging":false,"hasAccessible":false,"source":"OpenStreetMap","updatedAt":"2026-06-10T15:41:05.166Z","facilityType":"attraction","facilityLabel":"🏞️ 景點","changingTable":false,"wheelchair":false,"needsAddr":false},{"id":4412637380,"name":"公共廁所","lat":25.0127111,"lng":121.4649022,"address":null,"hasBabyChanging":false,"hasAccessible":true,"source":"OpenStreetMap","updatedAt":"2026-06-10T15:41:05.166Z","facilityType":"toilet","facilityLabel":null,"changingTable":false,"wheelchair":true,"fee":"no","needsAddr":true},{"id":4427348900,"name":"台亞石油(浮洲橋站)","lat":24.9942157,"lng":121.4320868,"address":"220新北市板橋區篤行路一段33號","hasBabyChanging":false,"hasAccessible":false,"source":"OpenStreetMap","updatedAt":"2026-06-10T15:41:05.166Z","facilityType":"fuel","facilityLabel":"⛽ 加油站","changingTable":false,"wheelchair":false,"openingHours":"24/7","needsAddr":false},{"id":4535763648,"name":"崑崙活動中心洗手間","lat":24.9926365,"lng":121.4292248,"address":null,"hasBabyChanging":false,"hasAccessible":false,"source":"OpenStreetMap","updatedAt":"2026-06-10T15:41:05.166Z","facilityType":"toilet","facilityLabel":null,"changingTable":false,"wheelchair":false,"needsAddr":false},{"id":4681583335,"name":"公共廁所","lat":25.0128388,"lng":121.4624967,"address":null,"hasBabyChanging":false,"hasAccessible":false,"source":"OpenStreetMap","updatedAt":"2026-06-10T15:41:05.166Z","facilityType":"toilet","facilityLabel":null,"changingTable":false,"wheelchair":false,"needsAddr":true},{"id":4732262582,"name":"板橋 1020","lat":25.0138099,"lng":121.4641275,"address":"220新北市板橋區縣民大道二段7號","hasBabyChanging":false,"hasAccessible":true,"source":"OpenStreetMap","updatedAt":"2026-06-10T15:41:05.166Z","facilityType":"train","facilityLabel":"🚂 火車站","changingTable":false,"wheelchair":true,"needsAddr":false},{"id":4846801486,"name":"全心中醫診所","lat":24.9961665,"lng":121.4617297,"address":null,"hasBabyChanging":false,"hasAccessible":false,"source":"OpenStreetMap","updatedAt":"2026-06-10T15:41:05.166Z","facilityType":"clinic","facilityLabel":"🩺 診所","changingTable":false,"wheelchair":false,"needsAddr":false},{"id":4846801489,"name":"坤隆診所","lat":24.9962759,"lng":121.4623131,"address":null,"hasBabyChanging":false,"hasAccessible":false,"source":"OpenStreetMap","updatedAt":"2026-06-10T15:41:05.166Z","facilityType":"clinic","facilityLabel":"🩺 診所","changingTable":false,"wheelchair":false,"needsAddr":false},{"id":4846801493,"name":"弘安耳鼻喉科","lat":24.9978985,"lng":121.4635952,"address":null,"hasBabyChanging":false,"hasAccessible":false,"source":"OpenStreetMap","updatedAt":"2026-06-10T15:41:05.166Z","facilityType":"clinic","facilityLabel":"🩺 診所","changingTable":false,"wheelchair":false,"needsAddr":false},{"id":4846801495,"name":"成安診所","lat":24.9980505,"lng":121.4635871,"address":null,"hasBabyChanging":false,"hasAccessible":false,"source":"OpenStreetMap","updatedAt":"2026-06-10T15:41:05.166Z","facilityType":"clinic","facilityLabel":"🩺 診所","changingTable":false,"wheelchair":false,"needsAddr":false},{"id":4873101927,"name":"全家便利商店 板橋長民店","lat":25.0150215,"lng":121.4795726,"address":"220082新北市板橋區三民路二段153巷1之3號","hasBabyChanging":false,"hasAccessible":false,"source":"OpenStreetMap","updatedAt":"2026-06-10T15:41:05.166Z","facilityType":"convenience","facilityLabel":"🏪 超商","changingTable":false,"wheelchair":false,"openingHours":"24/7","needsAddr":false},{"id":5110489226,"name":"韓眼科診所 3531012355","lat":25.0188181,"lng":121.4798686,"address":"220080新北市板橋區中山路二段300號","hasBabyChanging":false,"hasAccessible":false,"source":"OpenStreetMap","updatedAt":"2026-06-10T15:41:05.166Z","facilityType":"clinic","facilityLabel":"🩺 診所","changingTable":false,"wheelchair":false,"needsAddr":false},{"id":5239150055,"name":"真武廟","lat":25.020078,"lng":121.4859158,"address":null,"hasBabyChanging":false,"hasAccessible":false,"source":"OpenStreetMap","updatedAt":"2026-06-10T15:41:05.166Z","facilityType":"temple","facilityLabel":"🛕 廟宇","changingTable":false,"wheelchair":false,"needsAddr":false},{"id":5263069993,"name":"星巴克 (新北市板橋區南雅南路二段)","lat":24.9967381,"lng":121.4525398,"address":"新北市板橋區南雅南路二段","hasBabyChanging":false,"hasAccessible":false,"source":"OpenStreetMap","updatedAt":"2026-06-10T15:41:05.166Z","facilityType":"starbucks","facilityLabel":"☕ 星巴克","changingTable":false,"wheelchair":false,"needsAddr":false},{"id":5328354350,"name":"7-Eleven 舊社門市","lat":25.0207635,"lng":121.482912,"address":"220081新北市板橋區中山路二段412號","hasBabyChanging":false,"hasAccessible":false,"source":"OpenStreetMap","updatedAt":"2026-06-10T15:41:05.166Z","facilityType":"convenience","facilityLabel":"🏪 超商","changingTable":false,"wheelchair":false,"openingHours":"24/7","needsAddr":false},{"id":5360203929,"name":"公共廁所","lat":25.010015,"lng":121.4552468,"address":null,"hasBabyChanging":false,"hasAccessible":false,"source":"OpenStreetMap","updatedAt":"2026-06-10T15:41:05.166Z","facilityType":"toilet","facilityLabel":null,"changingTable":false,"wheelchair":false,"needsAddr":true},{"id":5513030395,"name":"劉仲彥皮膚專科診所","lat":25.0283776,"lng":121.474191,"address":"220新北市板橋區雙十路二段167號","hasBabyChanging":false,"hasAccessible":true,"source":"OpenStreetMap","updatedAt":"2026-06-10T15:41:05.166Z","facilityType":"clinic","facilityLabel":"🩺 診所","changingTable":false,"wheelchair":true,"needsAddr":false},{"id":5513096450,"name":"板橋紫玉宮","lat":25.0183078,"lng":121.472626,"address":"新北市板橋區永豐街55巷","hasBabyChanging":false,"hasAccessible":false,"source":"OpenStreetMap","updatedAt":"2026-06-10T15:41:05.166Z","facilityType":"temple","facilityLabel":"🛕 廟宇","changingTable":false,"wheelchair":false,"needsAddr":false},{"id":5687055383,"name":"板橋玉旨代天堂","lat":25.0226516,"lng":121.481916,"address":null,"hasBabyChanging":false,"hasAccessible":false,"source":"OpenStreetMap","updatedAt":"2026-06-10T15:41:05.166Z","facilityType":"temple","facilityLabel":"🛕 廟宇","changingTable":false,"wheelchair":false,"needsAddr":false},{"id":5687173485,"name":"鎮北宮","lat":24.9913589,"lng":121.4308568,"address":null,"hasBabyChanging":false,"hasAccessible":false,"source":"OpenStreetMap","updatedAt":"2026-06-10T15:41:05.166Z","facilityType":"temple","facilityLabel":"🛕 廟宇","changingTable":false,"wheelchair":false,"needsAddr":false},{"id":5719116710,"name":"協龍宮","lat":25.0020161,"lng":121.4500034,"address":null,"hasBabyChanging":false,"hasAccessible":false,"source":"OpenStreetMap","updatedAt":"2026-06-10T15:41:05.166Z","facilityType":"temple","facilityLabel":"🛕 廟宇","changingTable":false,"wheelchair":false,"needsAddr":false},{"id":5814956524,"name":"廣興里里長辦公室","lat":25.019897,"lng":121.47498,"address":null,"hasBabyChanging":false,"hasAccessible":false,"source":"OpenStreetMap","updatedAt":"2026-06-10T15:41:05.166Z","facilityType":"government","facilityLabel":"🏛 公務機關","changingTable":false,"wheelchair":false,"needsAddr":false},{"id":5814956525,"name":"玉光里里長辦公室","lat":25.0178991,"lng":121.4721127,"address":null,"hasBabyChanging":false,"hasAccessible":false,"source":"OpenStreetMap","updatedAt":"2026-06-10T15:41:05.166Z","facilityType":"government","facilityLabel":"🏛 公務機關","changingTable":false,"wheelchair":false,"needsAddr":false},{"id":5977881166,"name":"全家便利商店","lat":24.9915114,"lng":121.4286467,"address":null,"hasBabyChanging":false,"hasAccessible":false,"source":"OpenStreetMap","updatedAt":"2026-06-10T15:41:05.166Z","facilityType":"convenience","facilityLabel":"🏪 超商","changingTable":false,"wheelchair":false,"needsAddr":false},{"id":6024282261,"name":"中英醫院","lat":25.0198152,"lng":121.4662163,"address":"新北市板橋區文化路一段196號","hasBabyChanging":false,"hasAccessible":false,"source":"OpenStreetMap","updatedAt":"2026-06-10T15:41:05.166Z","facilityType":"hospital","facilityLabel":"🏥 醫院","changingTable":false,"wheelchair":false,"needsAddr":false},{"id":6024282272,"name":"爭鮮gogo 新埔店","lat":25.0225192,"lng":121.46743,"address":"220013新北市板橋區文化路一段415號","hasBabyChanging":false,"hasAccessible":false,"source":"OpenStreetMap","updatedAt":"2026-06-10T15:41:05.166Z","facilityType":"sushi","facilityLabel":"🍣 迴轉壽司","changingTable":false,"wheelchair":false,"openingHours":"Mo-Su 09:00-21:30","needsAddr":false},{"id":6029515630,"name":"麥當勞 板橋重慶餐廳","lat":25.0078913,"lng":121.4610753,"address":"220067新北市板橋區重慶路23號","hasBabyChanging":false,"hasAccessible":false,"source":"OpenStreetMap","updatedAt":"2026-06-10T15:41:05.166Z","facilityType":"mcdonalds","facilityLabel":"🍔 麥當勞","changingTable":false,"wheelchair":false,"openingHours":"24/7","needsAddr":false},{"id":6029650172,"name":"爭鮮迴轉壽司 府中店","lat":25.0079703,"lng":121.4606066,"address":"220067新北市板橋區重慶路8號2樓","hasBabyChanging":false,"hasAccessible":false,"source":"OpenStreetMap","updatedAt":"2026-06-10T15:41:05.166Z","facilityType":"sushi","facilityLabel":"🍣 迴轉壽司","changingTable":false,"wheelchair":false,"openingHours":"Mo-Su 11:00-21:30","needsAddr":false},{"id":6218228604,"name":"新北市殯葬管理處","lat":25.0210171,"lng":121.4483375,"address":null,"hasBabyChanging":false,"hasAccessible":false,"source":"OpenStreetMap","updatedAt":"2026-06-10T15:41:05.166Z","facilityType":"government","facilityLabel":"🏛 公務機關","changingTable":false,"wheelchair":false,"needsAddr":false},{"id":6397717903,"name":"靈濟宮","lat":25.0090863,"lng":121.4453784,"address":"新北市板橋區僑中二街92巷","hasBabyChanging":false,"hasAccessible":false,"source":"OpenStreetMap","updatedAt":"2026-06-10T15:41:05.166Z","facilityType":"temple","facilityLabel":"🛕 廟宇","changingTable":false,"wheelchair":false,"needsAddr":false},{"id":6550974068,"name":"公共廁所","lat":25.0223545,"lng":121.4859599,"address":null,"hasBabyChanging":false,"hasAccessible":false,"source":"OpenStreetMap","updatedAt":"2026-06-10T15:41:05.166Z","facilityType":"toilet","facilityLabel":null,"changingTable":false,"wheelchair":false,"needsAddr":true},{"id":6595520886,"name":"家樂福超市","lat":24.9926536,"lng":121.4294922,"address":"220新北市板橋區大觀路三段236-14號","hasBabyChanging":false,"hasAccessible":false,"source":"OpenStreetMap","updatedAt":"2026-06-10T15:41:05.166Z","facilityType":"supermarket","facilityLabel":"🧺 超市","changingTable":false,"wheelchair":false,"needsAddr":false},{"id":6655035419,"name":"亞麥動物醫院","lat":25.0182613,"lng":121.4596732,"address":"220新北市板橋區國光路77號","hasBabyChanging":false,"hasAccessible":false,"source":"OpenStreetMap","updatedAt":"2026-06-10T15:41:05.166Z","facilityType":"vet","facilityLabel":"🐾 獸醫院","changingTable":false,"wheelchair":false,"needsAddr":false},{"id":6693701081,"name":"大潤發便利店 雙十店","lat":25.0271639,"lng":121.4763476,"address":"220新北市板橋區雙十路二段26號","hasBabyChanging":false,"hasAccessible":false,"source":"OpenStreetMap","updatedAt":"2026-06-10T15:41:05.166Z","facilityType":"hypermarket","facilityLabel":"🛒 量販店","changingTable":false,"wheelchair":false,"openingHours":"Mo-Su 07:30-23:00","needsAddr":false},{"id":6694180171,"name":"爭鮮壽司","lat":25.0299156,"lng":121.4725826,"address":null,"hasBabyChanging":false,"hasAccessible":true,"source":"OpenStreetMap","updatedAt":"2026-06-10T15:41:05.166Z","facilityType":"sushi","facilityLabel":"🍣 迴轉壽司","changingTable":false,"wheelchair":true,"needsAddr":false},{"id":7229406386,"name":"法鼓山護法總會板橋分會","lat":25.0206743,"lng":121.4789003,"address":"220756新北市板橋區三民路一段126號13樓","hasBabyChanging":false,"hasAccessible":false,"source":"OpenStreetMap","updatedAt":"2026-06-10T15:41:05.166Z","facilityType":"temple","facilityLabel":"🛕 廟宇","changingTable":false,"wheelchair":false,"openingHours":"Mo-Fr 08:30-11:30,13:30-16:30,19:30-21:30; Sa 09:00-11:30; Su 19:30-21:30","needsAddr":false},{"id":7400038885,"name":"玉靈宮","lat":24.9868231,"lng":121.4254302,"address":"新北市板橋區滿平二街12號","hasBabyChanging":false,"hasAccessible":false,"source":"OpenStreetMap","updatedAt":"2026-06-10T15:41:05.166Z","facilityType":"temple","facilityLabel":"🛕 廟宇","changingTable":false,"wheelchair":false,"needsAddr":false},{"id":7400038886,"name":"板橋梨山慈惠堂","lat":24.9880033,"lng":121.425119,"address":"新北市板橋區滿平二街47號","hasBabyChanging":false,"hasAccessible":false,"source":"OpenStreetMap","updatedAt":"2026-06-10T15:41:05.166Z","facilityType":"temple","facilityLabel":"🛕 廟宇","changingTable":false,"wheelchair":false,"needsAddr":false},{"id":7400301885,"name":"無極紫玄宮","lat":24.9888453,"lng":121.4254143,"address":"新北市板橋區溪崑二街112巷33弄8號","hasBabyChanging":false,"hasAccessible":false,"source":"OpenStreetMap","updatedAt":"2026-06-10T15:41:05.166Z","facilityType":"temple","facilityLabel":"🛕 廟宇","changingTable":false,"wheelchair":false,"needsAddr":false},{"id":7400301985,"name":"鎮興宮","lat":24.988307,"lng":121.4280845,"address":"新北市板橋區滿平街110巷8號","hasBabyChanging":false,"hasAccessible":false,"source":"OpenStreetMap","updatedAt":"2026-06-10T15:41:05.166Z","facilityType":"temple","facilityLabel":"🛕 廟宇","changingTable":false,"wheelchair":false,"needsAddr":false},{"id":7701063347,"name":"星聚點KTV 板橋館","lat":25.0076266,"lng":121.4594403,"address":"新北市板橋區中山路一段1號","hasBabyChanging":false,"hasAccessible":false,"source":"OpenStreetMap","updatedAt":"2026-06-10T15:41:05.166Z","facilityType":"ktv","facilityLabel":"🎤 KTV","changingTable":false,"wheelchair":false,"needsAddr":false},{"id":7902835001,"name":"全家便利商店 板橋富山店","lat":25.0215724,"lng":121.4791744,"address":"220085新北市板橋區三民路一段94、96號","hasBabyChanging":false,"hasAccessible":false,"source":"OpenStreetMap","updatedAt":"2026-06-10T15:41:05.166Z","facilityType":"convenience","facilityLabel":"🏪 超商","changingTable":false,"wheelchair":false,"openingHours":"24/7","needsAddr":false},{"id":7902835004,"name":"7-Eleven 豐成門市","lat":25.0235297,"lng":121.4818343,"address":"220085新北市板橋區三民路一段31巷89弄10、12號","hasBabyChanging":false,"hasAccessible":false,"source":"OpenStreetMap","updatedAt":"2026-06-10T15:41:05.166Z","facilityType":"convenience","facilityLabel":"🏪 超商","changingTable":false,"wheelchair":false,"openingHours":"24/7","needsAddr":false},{"id":7926834385,"name":"公共廁所","lat":25.0071806,"lng":121.4662055,"address":null,"hasBabyChanging":false,"hasAccessible":true,"source":"OpenStreetMap","updatedAt":"2026-06-10T15:41:05.166Z","facilityType":"toilet","facilityLabel":null,"changingTable":false,"wheelchair":true,"fee":"no","needsAddr":true},{"id":8007268464,"name":"麥當勞 (新北市板橋區)","lat":25.0018372,"lng":121.456435,"address":"新北市板橋區","hasBabyChanging":false,"hasAccessible":false,"source":"OpenStreetMap","updatedAt":"2026-06-10T15:41:05.166Z","facilityType":"mcdonalds","facilityLabel":"🍔 麥當勞","changingTable":false,"wheelchair":false,"needsAddr":false},{"id":8018193990,"name":"晴天家醫科診所 3531019005","lat":25.0168947,"lng":121.4765685,"address":"220078新北市板橋區中山路二段144號1樓","hasBabyChanging":false,"hasAccessible":false,"source":"OpenStreetMap","updatedAt":"2026-06-10T15:41:05.166Z","facilityType":"clinic","facilityLabel":"🩺 診所","changingTable":false,"wheelchair":false,"needsAddr":false},{"id":8018193992,"name":"佳誠診所 3531017814","lat":25.0168461,"lng":121.4764703,"address":"220078新北市板橋區中山路二段140號","hasBabyChanging":false,"hasAccessible":false,"source":"OpenStreetMap","updatedAt":"2026-06-10T15:41:05.166Z","facilityType":"clinic","facilityLabel":"🩺 診所","changingTable":false,"wheelchair":false,"needsAddr":false},{"id":8018193995,"name":"璞和中醫診所 3831014248","lat":25.0168056,"lng":121.4763766,"address":"220078新北市板橋區中山路二段134號","hasBabyChanging":false,"hasAccessible":false,"source":"OpenStreetMap","updatedAt":"2026-06-10T15:41:05.166Z","facilityType":"clinic","facilityLabel":"🩺 診所","changingTable":false,"wheelchair":false,"needsAddr":false},{"id":8118272839,"name":"全家便利商店 板橋漢江店","lat":25.0314884,"lng":121.4655572,"address":"220028新北市板橋區長江路二段120號","hasBabyChanging":false,"hasAccessible":false,"source":"OpenStreetMap","updatedAt":"2026-06-10T15:41:05.166Z","facilityType":"convenience","facilityLabel":"🏪 超商","changingTable":false,"wheelchair":false,"openingHours":"24/7","needsAddr":false},{"id":8118279934,"name":"7-Eleven 板維門市","lat":25.0298018,"lng":121.4623654,"address":"220009新北市板橋區四維路345、347號","hasBabyChanging":false,"hasAccessible":false,"source":"OpenStreetMap","updatedAt":"2026-06-10T15:41:05.166Z","facilityType":"convenience","facilityLabel":"🏪 超商","changingTable":false,"wheelchair":false,"openingHours":"24/7","needsAddr":false},{"id":8224160978,"name":"公共廁所","lat":24.9948727,"lng":121.4397523,"address":null,"hasBabyChanging":false,"hasAccessible":true,"source":"OpenStreetMap","updatedAt":"2026-06-10T15:41:05.166Z","facilityType":"toilet","facilityLabel":null,"changingTable":false,"wheelchair":true,"needsAddr":true},{"id":8224169534,"name":"公共廁所","lat":25.0279876,"lng":121.4538529,"address":null,"hasBabyChanging":false,"hasAccessible":true,"source":"OpenStreetMap","updatedAt":"2026-06-10T15:41:05.166Z","facilityType":"toilet","facilityLabel":null,"changingTable":false,"wheelchair":true,"needsAddr":true},{"id":8224173409,"name":"公共廁所","lat":24.9902744,"lng":121.439833,"address":null,"hasBabyChanging":false,"hasAccessible":false,"source":"OpenStreetMap","updatedAt":"2026-06-10T15:41:05.166Z","facilityType":"toilet","facilityLabel":null,"changingTable":false,"wheelchair":false,"needsAddr":true},{"id":8224192807,"name":"公共廁所","lat":25.032594,"lng":121.4612709,"address":null,"hasBabyChanging":false,"hasAccessible":false,"source":"OpenStreetMap","updatedAt":"2026-06-10T15:41:05.166Z","facilityType":"toilet","facilityLabel":null,"changingTable":false,"wheelchair":false,"needsAddr":true},{"id":8224194254,"name":"公共廁所","lat":25.0043848,"lng":121.4404932,"address":null,"hasBabyChanging":false,"hasAccessible":false,"source":"OpenStreetMap","updatedAt":"2026-06-10T15:41:05.166Z","facilityType":"toilet","facilityLabel":null,"changingTable":false,"wheelchair":false,"needsAddr":true},{"id":8224204745,"name":"公共廁所","lat":25.015684,"lng":121.4435834,"address":null,"hasBabyChanging":false,"hasAccessible":false,"source":"OpenStreetMap","updatedAt":"2026-06-10T15:41:05.166Z","facilityType":"toilet","facilityLabel":null,"changingTable":false,"wheelchair":false,"needsAddr":true},{"id":8224216159,"name":"公共廁所","lat":25.0237417,"lng":121.4490661,"address":null,"hasBabyChanging":false,"hasAccessible":false,"source":"OpenStreetMap","updatedAt":"2026-06-10T15:41:05.166Z","facilityType":"toilet","facilityLabel":null,"changingTable":false,"wheelchair":false,"needsAddr":true},{"id":8224229517,"name":"公共廁所","lat":25.0356044,"lng":121.4682261,"address":null,"hasBabyChanging":false,"hasAccessible":false,"source":"OpenStreetMap","updatedAt":"2026-06-10T15:41:05.166Z","facilityType":"toilet","facilityLabel":null,"changingTable":false,"wheelchair":false,"needsAddr":true},{"id":8224256369,"name":"公共廁所","lat":25.0320946,"lng":121.482348,"address":null,"hasBabyChanging":false,"hasAccessible":true,"source":"OpenStreetMap","updatedAt":"2026-06-10T15:41:05.166Z","facilityType":"toilet","facilityLabel":null,"changingTable":false,"wheelchair":true,"fee":"no","needsAddr":true},{"id":8224258860,"name":"公共廁所","lat":25.0299193,"lng":121.4834946,"address":null,"hasBabyChanging":false,"hasAccessible":true,"source":"OpenStreetMap","updatedAt":"2026-06-10T15:41:05.166Z","facilityType":"toilet","facilityLabel":null,"changingTable":false,"wheelchair":true,"fee":"no","needsAddr":true},{"id":8301473896,"name":"誠悅耳鼻喉科診所 353101A208","lat":25.0170193,"lng":121.4768527,"address":"220078新北市板橋區中山路二段158號1樓","hasBabyChanging":false,"hasAccessible":false,"source":"OpenStreetMap","updatedAt":"2026-06-10T15:41:05.166Z","facilityType":"clinic","facilityLabel":"🩺 診所","changingTable":false,"wheelchair":false,"needsAddr":false},{"id":8301473897,"name":"順心診所 3531018311","lat":25.0170343,"lng":121.4768874,"address":"220078新北市板橋區中山路二段160號","hasBabyChanging":false,"hasAccessible":false,"source":"OpenStreetMap","updatedAt":"2026-06-10T15:41:05.166Z","facilityType":"clinic","facilityLabel":"🩺 診所","changingTable":false,"wheelchair":false,"openingHours":"Mo 09:00-12:00,14:00-17:00,18:00-21:00; Tu-Fr 14:00-17:00,18:00-21:00; Sa 09:00-12:00","needsAddr":false},{"id":8301473902,"name":"皮醫師皮膚專科診所 353101A137","lat":25.017185,"lng":121.4771757,"address":"220078新北市板橋區中山路二段172號","hasBabyChanging":false,"hasAccessible":false,"source":"OpenStreetMap","updatedAt":"2026-06-10T15:41:05.166Z","facilityType":"clinic","facilityLabel":"🩺 診所","changingTable":false,"wheelchair":false,"needsAddr":false},{"id":8357411935,"name":"7-Eleven 新埔站門市","lat":25.0223863,"lng":121.4688488,"address":"220401新北市板橋區民生路二段232之14、232之15號","hasBabyChanging":false,"hasAccessible":false,"source":"OpenStreetMap","updatedAt":"2026-06-10T15:41:05.166Z","facilityType":"convenience","facilityLabel":"🏪 超商","changingTable":false,"wheelchair":false,"openingHours":"24/7","needsAddr":false},{"id":8357411936,"name":"7-Eleven 縣道門市","lat":25.0172232,"lng":121.4696613,"address":"220090新北市板橋區縣民大道二段200巷1、3號","hasBabyChanging":false,"hasAccessible":false,"source":"OpenStreetMap","updatedAt":"2026-06-10T15:41:05.166Z","facilityType":"convenience","facilityLabel":"🏪 超商","changingTable":false,"wheelchair":false,"openingHours":"24/7","needsAddr":false},{"id":8520377752,"name":"板橋區龍翠市民活動中心","lat":25.026234,"lng":121.4799956,"address":null,"hasBabyChanging":false,"hasAccessible":false,"source":"OpenStreetMap","updatedAt":"2026-06-10T15:41:05.166Z","facilityType":"community","facilityLabel":"🏘️ 活動中心","changingTable":false,"wheelchair":false,"needsAddr":false},{"id":8608923093,"name":"明德中醫診所","lat":25.0237949,"lng":121.4714522,"address":"22042新北市板橋區莒光路78巷4號","hasBabyChanging":false,"hasAccessible":false,"source":"OpenStreetMap","updatedAt":"2026-06-10T15:41:05.166Z","facilityType":"clinic","facilityLabel":"🩺 診所","changingTable":false,"wheelchair":false,"needsAddr":false},{"id":8672219352,"name":"公共廁所","lat":25.0352165,"lng":121.4815865,"address":null,"hasBabyChanging":false,"hasAccessible":false,"source":"OpenStreetMap","updatedAt":"2026-06-10T15:41:05.166Z","facilityType":"toilet","facilityLabel":null,"changingTable":false,"wheelchair":false,"needsAddr":true},{"id":8672262845,"name":"公共廁所","lat":25.0191426,"lng":121.4865714,"address":null,"hasBabyChanging":false,"hasAccessible":false,"source":"OpenStreetMap","updatedAt":"2026-06-10T15:41:05.166Z","facilityType":"toilet","facilityLabel":null,"changingTable":false,"wheelchair":false,"needsAddr":true},{"id":8766621279,"name":"家樂福超市 板橋文化店","lat":25.0297483,"lng":121.4717739,"address":null,"hasBabyChanging":false,"hasAccessible":false,"source":"OpenStreetMap","updatedAt":"2026-06-10T15:41:05.166Z","facilityType":"supermarket","facilityLabel":"🧺 超市","changingTable":false,"wheelchair":false,"needsAddr":false},{"id":8767352228,"name":"李連成耳鼻喉科診所","lat":25.0295035,"lng":121.4731324,"address":null,"hasBabyChanging":false,"hasAccessible":true,"source":"OpenStreetMap","updatedAt":"2026-06-10T15:41:05.166Z","facilityType":"clinic","facilityLabel":"🩺 診所","changingTable":false,"wheelchair":true,"needsAddr":false},{"id":8767352229,"name":"建佑診所","lat":25.0295375,"lng":121.4730989,"address":null,"hasBabyChanging":false,"hasAccessible":true,"source":"OpenStreetMap","updatedAt":"2026-06-10T15:41:05.166Z","facilityType":"clinic","facilityLabel":"🩺 診所","changingTable":false,"wheelchair":true,"needsAddr":false},{"id":8767382381,"name":"翠豐診所","lat":25.0287786,"lng":121.4742114,"address":null,"hasBabyChanging":false,"hasAccessible":true,"source":"OpenStreetMap","updatedAt":"2026-06-10T15:41:05.166Z","facilityType":"clinic","facilityLabel":"🩺 診所","changingTable":false,"wheelchair":true,"needsAddr":false},{"id":8767382382,"name":"正陽骨科診所","lat":25.0287288,"lng":121.4742959,"address":null,"hasBabyChanging":false,"hasAccessible":true,"source":"OpenStreetMap","updatedAt":"2026-06-10T15:41:05.166Z","facilityType":"clinic","facilityLabel":"🩺 診所","changingTable":false,"wheelchair":true,"needsAddr":false},{"id":8767382403,"name":"雙十鄭林診所","lat":25.029052,"lng":121.4738157,"address":null,"hasBabyChanging":false,"hasAccessible":true,"source":"OpenStreetMap","updatedAt":"2026-06-10T15:41:05.166Z","facilityType":"clinic","facilityLabel":"🩺 診所","changingTable":false,"wheelchair":true,"needsAddr":false},{"id":8767589425,"name":"寶雅","lat":25.0280726,"lng":121.4745869,"address":null,"hasBabyChanging":false,"hasAccessible":true,"source":"OpenStreetMap","updatedAt":"2026-06-10T15:41:05.166Z","facilityType":"poya","facilityLabel":"💄 寶雅","changingTable":false,"wheelchair":true,"needsAddr":false},{"id":8769298662,"name":"鴻仁診所","lat":25.0264139,"lng":121.4763726,"address":null,"hasBabyChanging":false,"hasAccessible":false,"source":"OpenStreetMap","updatedAt":"2026-06-10T15:41:05.166Z","facilityType":"clinic","facilityLabel":"🩺 診所","changingTable":false,"wheelchair":false,"needsAddr":false},{"id":8769298711,"name":"勝原中醫診所","lat":25.0274103,"lng":121.4761238,"address":null,"hasBabyChanging":false,"hasAccessible":true,"source":"OpenStreetMap","updatedAt":"2026-06-10T15:41:05.166Z","facilityType":"clinic","facilityLabel":"🩺 診所","changingTable":false,"wheelchair":true,"needsAddr":false},{"id":8772736074,"name":"健福中醫","lat":25.0224292,"lng":121.4792834,"address":null,"hasBabyChanging":false,"hasAccessible":false,"source":"OpenStreetMap","updatedAt":"2026-06-10T15:41:05.166Z","facilityType":"clinic","facilityLabel":"🩺 診所","changingTable":false,"wheelchair":false,"needsAddr":false},{"id":8772841093,"name":"港口通靈宮","lat":25.0247393,"lng":121.4804207,"address":null,"hasBabyChanging":false,"hasAccessible":false,"source":"OpenStreetMap","updatedAt":"2026-06-10T15:41:05.166Z","facilityType":"temple","facilityLabel":"🛕 廟宇","changingTable":false,"wheelchair":false,"needsAddr":false},{"id":8775634078,"name":"舍人宮","lat":25.0250893,"lng":121.4779034,"address":null,"hasBabyChanging":false,"hasAccessible":false,"source":"OpenStreetMap","updatedAt":"2026-06-10T15:41:05.166Z","facilityType":"temple","facilityLabel":"🛕 廟宇","changingTable":false,"wheelchair":false,"needsAddr":false},{"id":8775634107,"name":"合聖宮","lat":25.0250553,"lng":121.4789066,"address":null,"hasBabyChanging":false,"hasAccessible":false,"source":"OpenStreetMap","updatedAt":"2026-06-10T15:41:05.166Z","facilityType":"temple","facilityLabel":"🛕 廟宇","changingTable":false,"wheelchair":false,"needsAddr":false},{"id":8788227654,"name":"嘉禾診所 3531018740","lat":25.0174785,"lng":121.4776427,"address":"220078新北市板橋區中山路二段194號","hasBabyChanging":false,"hasAccessible":false,"source":"OpenStreetMap","updatedAt":"2026-06-10T15:41:05.166Z","facilityType":"clinic","facilityLabel":"🩺 診所","changingTable":false,"wheelchair":false,"openingHours":"Mo-Sa 08:30-12:00,15:00-18:00,18:30-21:30; Su 08:30-12:00","needsAddr":false},{"id":8788227656,"name":"林子敬診所 3531015383","lat":25.0175321,"lng":121.4777125,"address":"220078新北市板橋區中山路二段198號","hasBabyChanging":false,"hasAccessible":false,"source":"OpenStreetMap","updatedAt":"2026-06-10T15:41:05.166Z","facilityType":"clinic","facilityLabel":"🩺 診所","changingTable":false,"wheelchair":false,"needsAddr":false},{"id":8813868887,"name":"大川診所 3531012837","lat":25.0161504,"lng":121.4750016,"address":"220077新北市板橋區中山路二段84之6號","hasBabyChanging":false,"hasAccessible":false,"source":"OpenStreetMap","updatedAt":"2026-06-10T15:41:05.166Z","facilityType":"clinic","facilityLabel":"🩺 診所","changingTable":false,"wheelchair":false,"needsAddr":false},{"id":8813868891,"name":"熊明旺耳鼻喉科診所 3531016433","lat":25.0160762,"lng":121.4748449,"address":"220077新北市板橋區中山路二段84之2號","hasBabyChanging":false,"hasAccessible":false,"source":"OpenStreetMap","updatedAt":"2026-06-10T15:41:05.166Z","facilityType":"clinic","facilityLabel":"🩺 診所","changingTable":false,"wheelchair":false,"needsAddr":false},{"id":8813868892,"name":"同心堂中醫診所 3831012593","lat":25.0164003,"lng":121.4748622,"address":"220089新北市板橋區中山路二段123號","hasBabyChanging":false,"hasAccessible":false,"source":"OpenStreetMap","updatedAt":"2026-06-10T15:41:05.166Z","facilityType":"clinic","facilityLabel":"🩺 診所","changingTable":false,"wheelchair":false,"needsAddr":false},{"id":8813868899,"name":"全泰中醫診所 3831013652","lat":25.015978,"lng":121.4746247,"address":"220077新北市板橋區中山路二段78號","hasBabyChanging":false,"hasAccessible":false,"source":"OpenStreetMap","updatedAt":"2026-06-10T15:41:05.166Z","facilityType":"clinic","facilityLabel":"🩺 診所","changingTable":false,"wheelchair":false,"needsAddr":false},{"id":8813868907,"name":"板新風澤中醫診所 3831015085","lat":25.0158281,"lng":121.4743012,"address":"220077新北市板橋區中山路二段64號1樓","hasBabyChanging":false,"hasAccessible":false,"source":"OpenStreetMap","updatedAt":"2026-06-10T15:41:05.166Z","facilityType":"clinic","facilityLabel":"🩺 診所","changingTable":false,"wheelchair":false,"needsAddr":false},{"id":8823518472,"name":"曾皮膚科診所 3531013343","lat":25.0192052,"lng":121.4797161,"address":"220769新北市板橋區中山路二段365號","hasBabyChanging":false,"hasAccessible":false,"source":"OpenStreetMap","updatedAt":"2026-06-10T15:41:05.166Z","facilityType":"clinic","facilityLabel":"🩺 診所","changingTable":false,"wheelchair":false,"needsAddr":false},{"id":8823518473,"name":"盛強耳鼻喉科診所 3531013487","lat":25.0192265,"lng":121.479747,"address":"220769新北市板橋區中山路二段367號","hasBabyChanging":false,"hasAccessible":false,"source":"OpenStreetMap","updatedAt":"2026-06-10T15:41:05.166Z","facilityType":"clinic","facilityLabel":"🩺 診所","changingTable":false,"wheelchair":false,"needsAddr":false},{"id":8823518486,"name":"瑞信眼科診所 3531016880","lat":25.0185254,"lng":121.4787401,"address":"220089新北市板橋區中山路二段305號","hasBabyChanging":false,"hasAccessible":false,"source":"OpenStreetMap","updatedAt":"2026-06-10T15:41:05.166Z","facilityType":"clinic","facilityLabel":"🩺 診所","changingTable":false,"wheelchair":false,"needsAddr":false},{"id":8823518489,"name":"聚靈宮","lat":25.0184408,"lng":121.4786077,"address":"新北市板橋區雙玉里002鄰中山路二段303號之1","hasBabyChanging":false,"hasAccessible":false,"source":"OpenStreetMap","updatedAt":"2026-06-10T15:41:05.166Z","facilityType":"temple","facilityLabel":"🛕 廟宇","changingTable":false,"wheelchair":false,"needsAddr":false},{"id":8823518495,"name":"柯明奇耳鼻喉科診所 3531011018","lat":25.0182631,"lng":121.4788766,"address":"220079新北市板橋區中山路二段256號","hasBabyChanging":false,"hasAccessible":false,"source":"OpenStreetMap","updatedAt":"2026-06-10T15:41:05.166Z","facilityType":"clinic","facilityLabel":"🩺 診所","changingTable":false,"wheelchair":false,"needsAddr":false},{"id":8823518497,"name":"全人中醫診所 3831014935","lat":25.0183277,"lng":121.4789736,"address":"220079新北市板橋區中山路二段262號","hasBabyChanging":false,"hasAccessible":false,"source":"OpenStreetMap","updatedAt":"2026-06-10T15:41:05.166Z","facilityType":"clinic","facilityLabel":"🩺 診所","changingTable":false,"wheelchair":false,"needsAddr":false},{"id":8976426706,"name":"新北板橋轉運站","lat":25.0153496,"lng":121.4649192,"address":null,"hasBabyChanging":false,"hasAccessible":false,"source":"OpenStreetMap","updatedAt":"2026-06-10T15:41:05.166Z","facilityType":"bus","facilityLabel":"🚌 客運站","changingTable":false,"wheelchair":false,"needsAddr":false},{"id":8981871323,"name":"公共廁所","lat":25.0279244,"lng":121.4569943,"address":null,"hasBabyChanging":false,"hasAccessible":false,"source":"OpenStreetMap","updatedAt":"2026-06-10T15:41:05.166Z","facilityType":"toilet","facilityLabel":null,"changingTable":false,"wheelchair":false,"needsAddr":true},{"id":9229352489,"name":"大學眼科","lat":25.0020907,"lng":121.4608364,"address":null,"hasBabyChanging":false,"hasAccessible":false,"source":"OpenStreetMap","updatedAt":"2026-06-10T15:41:05.166Z","facilityType":"clinic","facilityLabel":"🩺 診所","changingTable":false,"wheelchair":false,"needsAddr":false},{"id":9229352490,"name":"星巴克","lat":25.0020754,"lng":121.4607517,"address":null,"hasBabyChanging":false,"hasAccessible":false,"source":"OpenStreetMap","updatedAt":"2026-06-10T15:41:05.166Z","facilityType":"starbucks","facilityLabel":"☕ 星巴克","changingTable":false,"wheelchair":false,"needsAddr":true},{"id":9229363418,"name":"昌禾骨科診所","lat":25.0066613,"lng":121.4636196,"address":null,"hasBabyChanging":false,"hasAccessible":false,"source":"OpenStreetMap","updatedAt":"2026-06-10T15:41:05.166Z","facilityType":"clinic","facilityLabel":"🩺 診所","changingTable":false,"wheelchair":false,"needsAddr":false},{"id":9229363424,"name":"板橋光澤診所 3531018642","lat":25.0069073,"lng":121.4596743,"address":"220066新北市板橋區館前東路2號1樓及2樓，2之1號1樓及2樓","hasBabyChanging":false,"hasAccessible":false,"source":"OpenStreetMap","updatedAt":"2026-06-10T15:41:05.166Z","facilityType":"clinic","facilityLabel":"🩺 診所","changingTable":false,"wheelchair":false,"needsAddr":false},{"id":9229363445,"name":"建全中醫","lat":24.9994644,"lng":121.4636626,"address":null,"hasBabyChanging":false,"hasAccessible":false,"source":"OpenStreetMap","updatedAt":"2026-06-10T15:41:05.166Z","facilityType":"clinic","facilityLabel":"🩺 診所","changingTable":false,"wheelchair":false,"needsAddr":false},{"id":9230253921,"name":"湳雅觀光夜市(津渡橋) 500218012","lat":25.0079,"lng":121.45231,"address":null,"hasBabyChanging":false,"hasAccessible":false,"source":"OpenStreetMap","updatedAt":"2026-06-10T15:41:05.166Z","facilityType":"nightmarket","facilityLabel":"🍢 夜市","changingTable":false,"wheelchair":false,"fee":"yes","openingHours":"24/7","needsAddr":false},{"id":9231640695,"name":"板橋浮洲閱覽室","lat":25.0004306,"lng":121.4453163,"address":"220097新北市板橋區大觀路二段163號二樓","hasBabyChanging":false,"hasAccessible":false,"source":"OpenStreetMap","updatedAt":"2026-06-10T15:41:05.166Z","facilityType":"library","facilityLabel":"📚 圖書館","changingTable":false,"wheelchair":false,"openingHours":"Tu-Sa 08:30-21:00; Su, Mo 08:30-17:00, PH off; Th[-1]off","needsAddr":false},{"id":9331235389,"name":"麥當勞 (220新北市板橋區雨農路60號)","lat":25.0240393,"lng":121.4605944,"address":"220新北市板橋區雨農路60號","hasBabyChanging":false,"hasAccessible":false,"source":"OpenStreetMap","updatedAt":"2026-06-10T15:41:05.166Z","facilityType":"mcdonalds","facilityLabel":"🍔 麥當勞","changingTable":false,"wheelchair":false,"needsAddr":false},{"id":9336807038,"name":"寶雅 板橋新海店","lat":25.0221413,"lng":121.4614584,"address":"新北市板橋區新海路","hasBabyChanging":false,"hasAccessible":false,"source":"OpenStreetMap","updatedAt":"2026-06-10T15:41:05.166Z","facilityType":"poya","facilityLabel":"💄 寶雅","changingTable":false,"wheelchair":false,"needsAddr":false},{"id":9362238551,"name":"板橋觀音廟","lat":25.0268927,"lng":121.4836393,"address":null,"hasBabyChanging":false,"hasAccessible":false,"source":"OpenStreetMap","updatedAt":"2026-06-10T15:41:05.166Z","facilityType":"temple","facilityLabel":"🛕 廟宇","changingTable":false,"wheelchair":false,"needsAddr":false},{"id":9454331617,"name":"玄大宮","lat":24.9864798,"lng":121.4251741,"address":"新北市板橋區滿平二街2巷1弄10號","hasBabyChanging":false,"hasAccessible":false,"source":"OpenStreetMap","updatedAt":"2026-06-10T15:41:05.166Z","facilityType":"temple","facilityLabel":"🛕 廟宇","changingTable":false,"wheelchair":false,"needsAddr":false},{"id":9454335817,"name":"黎山寺","lat":24.9870476,"lng":121.4253139,"address":"新北市板橋區滿平二街18號","hasBabyChanging":false,"hasAccessible":false,"source":"OpenStreetMap","updatedAt":"2026-06-10T15:41:05.166Z","facilityType":"temple","facilityLabel":"🛕 廟宇","changingTable":false,"wheelchair":false,"needsAddr":false},{"id":9625809672,"name":"家樂福板橋店i郵箱","lat":25.017825,"lng":121.479549,"address":null,"hasBabyChanging":false,"hasAccessible":false,"source":"OpenStreetMap","updatedAt":"2026-06-10T15:41:05.166Z","facilityType":"hypermarket","facilityLabel":"🛒 量販店","changingTable":false,"wheelchair":false,"openingHours":"Mo-Su 09:00-23:00","needsAddr":false},{"id":9660073560,"name":"自立市民活動中心","lat":25.0143248,"lng":121.4501136,"address":"新北市板橋區大智街77號","hasBabyChanging":false,"hasAccessible":false,"source":"OpenStreetMap","updatedAt":"2026-06-10T15:41:05.166Z","facilityType":"community","facilityLabel":"🏘️ 活動中心","changingTable":false,"wheelchair":false,"needsAddr":false},{"id":9688150889,"name":"健生傳統整復中心","lat":25.0270336,"lng":121.4792828,"address":null,"hasBabyChanging":false,"hasAccessible":false,"source":"OpenStreetMap","updatedAt":"2026-06-10T15:41:05.166Z","facilityType":"clinic","facilityLabel":"🩺 診所","changingTable":false,"wheelchair":false,"needsAddr":false},{"id":9688184723,"name":"仲德中醫診所","lat":25.0277403,"lng":121.4787886,"address":null,"hasBabyChanging":false,"hasAccessible":false,"source":"OpenStreetMap","updatedAt":"2026-06-10T15:41:05.166Z","facilityType":"clinic","facilityLabel":"🩺 診所","changingTable":false,"wheelchair":false,"needsAddr":false},{"id":9691112868,"name":"板橋天后宮","lat":25.0260639,"lng":121.4776593,"address":null,"hasBabyChanging":false,"hasAccessible":false,"source":"OpenStreetMap","updatedAt":"2026-06-10T15:41:05.166Z","facilityType":"temple","facilityLabel":"🛕 廟宇","changingTable":false,"wheelchair":false,"needsAddr":false},{"id":9691369903,"name":"崑龍宮","lat":25.0265889,"lng":121.4782441,"address":null,"hasBabyChanging":false,"hasAccessible":false,"source":"OpenStreetMap","updatedAt":"2026-06-10T15:41:05.166Z","facilityType":"temple","facilityLabel":"🛕 廟宇","changingTable":false,"wheelchair":false,"needsAddr":false},{"id":9691379553,"name":"榮恩堂","lat":25.0278387,"lng":121.4785129,"address":null,"hasBabyChanging":false,"hasAccessible":false,"source":"OpenStreetMap","updatedAt":"2026-06-10T15:41:05.166Z","facilityType":"temple","facilityLabel":"🛕 廟宇","changingTable":false,"wheelchair":false,"needsAddr":false},{"id":9691379581,"name":"龍宏宮","lat":25.0276844,"lng":121.4775272,"address":null,"hasBabyChanging":false,"hasAccessible":false,"source":"OpenStreetMap","updatedAt":"2026-06-10T15:41:05.166Z","facilityType":"temple","facilityLabel":"🛕 廟宇","changingTable":false,"wheelchair":false,"needsAddr":false},{"id":9744939080,"name":"利人診所","lat":25.0306439,"lng":121.4762968,"address":null,"hasBabyChanging":false,"hasAccessible":false,"source":"OpenStreetMap","updatedAt":"2026-06-10T15:41:05.166Z","facilityType":"clinic","facilityLabel":"🩺 診所","changingTable":false,"wheelchair":false,"needsAddr":false},{"id":9744950756,"name":"長宏骨科診所","lat":25.0308638,"lng":121.4780134,"address":null,"hasBabyChanging":false,"hasAccessible":false,"source":"OpenStreetMap","updatedAt":"2026-06-10T15:41:05.166Z","facilityType":"clinic","facilityLabel":"🩺 診所","changingTable":false,"wheelchair":false,"needsAddr":false},{"id":9744950785,"name":"板聯診所","lat":25.0307903,"lng":121.4775293,"address":null,"hasBabyChanging":false,"hasAccessible":false,"source":"OpenStreetMap","updatedAt":"2026-06-10T15:41:05.166Z","facilityType":"clinic","facilityLabel":"🩺 診所","changingTable":false,"wheelchair":false,"needsAddr":false},{"id":9932969711,"name":"浸禮會","lat":25.0147254,"lng":121.4558525,"address":null,"hasBabyChanging":false,"hasAccessible":false,"source":"OpenStreetMap","updatedAt":"2026-06-10T15:41:05.166Z","facilityType":"temple","facilityLabel":"🛕 廟宇","changingTable":false,"wheelchair":false,"needsAddr":false},{"id":9932969712,"name":"板橋北極壇","lat":25.0147182,"lng":121.4568618,"address":null,"hasBabyChanging":false,"hasAccessible":false,"source":"OpenStreetMap","updatedAt":"2026-06-10T15:41:05.166Z","facilityType":"temple","facilityLabel":"🛕 廟宇","changingTable":false,"wheelchair":false,"needsAddr":false},{"id":9932969713,"name":"五洲獸醫院","lat":25.014704,"lng":121.4583812,"address":null,"hasBabyChanging":false,"hasAccessible":false,"source":"OpenStreetMap","updatedAt":"2026-06-10T15:41:05.166Z","facilityType":"vet","facilityLabel":"🐾 獸醫院","changingTable":false,"wheelchair":false,"needsAddr":false},{"id":9932969714,"name":"金妞妞動物醫院","lat":25.0145007,"lng":121.4586385,"address":null,"hasBabyChanging":false,"hasAccessible":false,"source":"OpenStreetMap","updatedAt":"2026-06-10T15:41:05.166Z","facilityType":"vet","facilityLabel":"🐾 獸醫院","changingTable":false,"wheelchair":false,"needsAddr":false},{"id":9942307378,"name":"聖航宮","lat":25.0234828,"lng":121.4814962,"address":null,"hasBabyChanging":false,"hasAccessible":false,"source":"OpenStreetMap","updatedAt":"2026-06-10T15:41:05.166Z","facilityType":"temple","facilityLabel":"🛕 廟宇","changingTable":false,"wheelchair":false,"needsAddr":false},{"id":9969480510,"name":"孚聖宮","lat":25.0240309,"lng":121.4746821,"address":null,"hasBabyChanging":false,"hasAccessible":false,"source":"OpenStreetMap","updatedAt":"2026-06-10T15:41:05.166Z","facilityType":"temple","facilityLabel":"🛕 廟宇","changingTable":false,"wheelchair":false,"needsAddr":false},{"id":10074052175,"name":"板橋雙十動物醫院","lat":25.0255074,"lng":121.4772401,"address":"220新北市板橋區雙十路二段4號一樓","hasBabyChanging":false,"hasAccessible":false,"source":"OpenStreetMap","updatedAt":"2026-06-10T15:41:05.166Z","facilityType":"vet","facilityLabel":"🐾 獸醫院","changingTable":false,"wheelchair":false,"needsAddr":false},{"id":10074080690,"name":"新大觀公園無障礙廁所","lat":25.0106123,"lng":121.4464195,"address":null,"hasBabyChanging":false,"hasAccessible":true,"source":"OpenStreetMap","updatedAt":"2026-06-10T15:41:05.166Z","facilityType":"toilet","facilityLabel":null,"changingTable":false,"wheelchair":true,"needsAddr":false},{"id":10074098709,"name":"八德公園的土地公廟","lat":25.0250036,"lng":121.4768951,"address":"新北市板橋區","hasBabyChanging":false,"hasAccessible":false,"source":"OpenStreetMap","updatedAt":"2026-06-10T15:41:05.166Z","facilityType":"temple","facilityLabel":"🛕 廟宇","changingTable":false,"wheelchair":false,"needsAddr":false},{"id":10131696986,"name":"心如寺","lat":24.9844829,"lng":121.4281483,"address":"220新北市板橋區金門街377號","hasBabyChanging":false,"hasAccessible":false,"source":"OpenStreetMap","updatedAt":"2026-06-10T15:41:05.166Z","facilityType":"temple","facilityLabel":"🛕 廟宇","changingTable":false,"wheelchair":false,"needsAddr":false},{"id":10250167562,"name":"鴻仁中醫診所 3831013429","lat":25.0162461,"lng":121.4790449,"address":"220079新北市板橋區三民路二段136之2號","hasBabyChanging":false,"hasAccessible":false,"source":"OpenStreetMap","updatedAt":"2026-06-10T15:41:05.166Z","facilityType":"clinic","facilityLabel":"🩺 診所","changingTable":false,"wheelchair":false,"needsAddr":false},{"id":10250167563,"name":"榮新診所 3531018400","lat":25.0198526,"lng":121.4793966,"address":"220085新北市板橋區三民路一段143號","hasBabyChanging":false,"hasAccessible":false,"source":"OpenStreetMap","updatedAt":"2026-06-10T15:41:05.166Z","facilityType":"clinic","facilityLabel":"🩺 診所","changingTable":false,"wheelchair":false,"needsAddr":false},{"id":10250167564,"name":"榮恩診所 3531018357","lat":25.0197257,"lng":121.4794015,"address":"220085新北市板橋區三民路一段147號","hasBabyChanging":false,"hasAccessible":false,"source":"OpenStreetMap","updatedAt":"2026-06-10T15:41:05.166Z","facilityType":"clinic","facilityLabel":"🩺 診所","changingTable":false,"wheelchair":false,"needsAddr":false},{"id":10250167567,"name":"好樂迪 埔墘店","lat":25.0195118,"lng":121.4794149,"address":"220768新北市板橋區三民路一段183號B1","hasBabyChanging":false,"hasAccessible":false,"source":"OpenStreetMap","updatedAt":"2026-06-10T15:41:05.166Z","facilityType":"ktv","facilityLabel":"🎤 KTV","changingTable":false,"wheelchair":false,"fee":"yes","openingHours":"Mo-Su 14:00-06:00","needsAddr":false},{"id":10250167568,"name":"京澄皮膚專科診所 3531019032","lat":25.0194655,"lng":121.4794173,"address":"220768新北市板橋區三民路一段181、183號","hasBabyChanging":false,"hasAccessible":false,"source":"OpenStreetMap","updatedAt":"2026-06-10T15:41:05.166Z","facilityType":"clinic","facilityLabel":"🩺 診所","changingTable":false,"wheelchair":false,"openingHours":"Mo-Fr 09:00-12:00,15:00-18:00,18:30-21:30; Sa 09:00-12:00,15:00-18:00; Su 09:00-12:00","needsAddr":false},{"id":10268953146,"name":"施丞修中醫診所 3831013509","lat":25.0200033,"lng":121.4817304,"address":"220080新北市板橋區中山路二段362號","hasBabyChanging":false,"hasAccessible":false,"source":"OpenStreetMap","updatedAt":"2026-06-10T15:41:05.166Z","facilityType":"clinic","facilityLabel":"🩺 診所","changingTable":false,"wheelchair":false,"needsAddr":false},{"id":10268953151,"name":"長生外科診所 3531011205","lat":25.0210167,"lng":121.4825913,"address":"220085新北市板橋區中山路二段497號","hasBabyChanging":false,"hasAccessible":false,"source":"OpenStreetMap","updatedAt":"2026-06-10T15:41:05.166Z","facilityType":"clinic","facilityLabel":"🩺 診所","changingTable":false,"wheelchair":false,"needsAddr":false},{"id":10268953155,"name":"裕安中醫診所 3831013983","lat":25.0208578,"lng":121.4823646,"address":"220085新北市板橋區中山路二段487號","hasBabyChanging":false,"hasAccessible":false,"source":"OpenStreetMap","updatedAt":"2026-06-10T15:41:05.166Z","facilityType":"clinic","facilityLabel":"🩺 診所","changingTable":false,"wheelchair":false,"needsAddr":false},{"id":10268953170,"name":"亞哲動物醫院","lat":25.0204675,"lng":121.4824586,"address":"220081新北市板橋區中山路二段388之4號","hasBabyChanging":false,"hasAccessible":false,"source":"OpenStreetMap","updatedAt":"2026-06-10T15:41:05.166Z","facilityType":"vet","facilityLabel":"🐾 獸醫院","changingTable":false,"wheelchair":false,"needsAddr":false},{"id":10271125764,"name":"樂福診所 3531017083","lat":25.0164558,"lng":121.4794588,"address":"220082新北市板橋區三民路二段89號","hasBabyChanging":false,"hasAccessible":false,"source":"OpenStreetMap","updatedAt":"2026-06-10T15:41:05.166Z","facilityType":"clinic","facilityLabel":"🩺 診所","changingTable":false,"wheelchair":false,"needsAddr":false},{"id":10271125766,"name":"蕭奕仁診所 3531012766","lat":25.0163576,"lng":121.4794588,"address":"220082新北市板橋區三民路二段93號","hasBabyChanging":false,"hasAccessible":false,"source":"OpenStreetMap","updatedAt":"2026-06-10T15:41:05.166Z","facilityType":"clinic","facilityLabel":"🩺 診所","changingTable":false,"wheelchair":false,"needsAddr":false},{"id":10271125775,"name":"天祐中醫診所 3831014819","lat":25.0156948,"lng":121.479387,"address":"220082新北市板橋區三民路二段119號","hasBabyChanging":false,"hasAccessible":false,"source":"OpenStreetMap","updatedAt":"2026-06-10T15:41:05.166Z","facilityType":"clinic","facilityLabel":"🩺 診所","changingTable":false,"wheelchair":false,"needsAddr":false},{"id":10271125778,"name":"悅安心復健專科診所 3531019747","lat":25.0154621,"lng":121.4793773,"address":"220082新北市板橋區三民路二段127號1樓及129號1樓","hasBabyChanging":false,"hasAccessible":false,"source":"OpenStreetMap","updatedAt":"2026-06-10T15:41:05.166Z","facilityType":"clinic","facilityLabel":"🩺 診所","changingTable":false,"wheelchair":false,"needsAddr":false},{"id":10271125786,"name":"連建安診所 3531015490","lat":25.015418,"lng":121.4789562,"address":"220079新北市板橋區三民路二段146號1樓","hasBabyChanging":false,"hasAccessible":false,"source":"OpenStreetMap","updatedAt":"2026-06-10T15:41:05.166Z","facilityType":"clinic","facilityLabel":"🩺 診所","changingTable":false,"wheelchair":false,"needsAddr":false},{"id":10553911606,"name":"慈蕙診所 3531011750","lat":25.0125641,"lng":121.4787545,"address":"220079新北市板橋區三民路二段202之29號","hasBabyChanging":false,"hasAccessible":false,"source":"OpenStreetMap","updatedAt":"2026-06-10T15:41:05.166Z","facilityType":"clinic","facilityLabel":"🩺 診所","changingTable":false,"wheelchair":false,"needsAddr":false},{"id":10553916313,"name":"台安動物醫院","lat":25.0123016,"lng":121.4787253,"address":"220739新北市板橋區三民路二段204之2號","hasBabyChanging":false,"hasAccessible":false,"source":"OpenStreetMap","updatedAt":"2026-06-10T15:41:05.166Z","facilityType":"vet","facilityLabel":"🐾 獸醫院","changingTable":false,"wheelchair":false,"needsAddr":false},{"id":10553916314,"name":"樂喆動物醫院","lat":25.0135821,"lng":121.4792133,"address":"220083新北市板橋區三民路二段203之4號","hasBabyChanging":false,"hasAccessible":false,"source":"OpenStreetMap","updatedAt":"2026-06-10T15:41:05.166Z","facilityType":"vet","facilityLabel":"🐾 獸醫院","changingTable":false,"wheelchair":false,"needsAddr":false},{"id":10553916322,"name":"伯特利之家","lat":25.0140387,"lng":121.4792498,"address":"220083新北市板橋區三民路二段191號","hasBabyChanging":false,"hasAccessible":false,"source":"OpenStreetMap","updatedAt":"2026-06-10T15:41:05.166Z","facilityType":"temple","facilityLabel":"🛕 廟宇","changingTable":false,"wheelchair":false,"needsAddr":false},{"id":10719155914,"name":"耀安小兒科診所 3531016862","lat":25.0079549,"lng":121.4716788,"address":"220071新北市板橋區漢生東路324號1樓及326巷2弄2號1樓","hasBabyChanging":false,"hasAccessible":false,"source":"OpenStreetMap","updatedAt":"2026-06-10T15:41:05.166Z","facilityType":"clinic","facilityLabel":"🩺 診所","changingTable":false,"wheelchair":false,"needsAddr":false},{"id":10720229135,"name":"星巴克 (新北市板橋區新站路28號九樓)","lat":25.0138899,"lng":121.467006,"address":"新北市板橋區新站路28號九樓","hasBabyChanging":false,"hasAccessible":false,"source":"OpenStreetMap","updatedAt":"2026-06-10T15:41:05.166Z","facilityType":"starbucks","facilityLabel":"☕ 星巴克","changingTable":false,"wheelchair":false,"openingHours":"Mo-Su 11:00-22:00","needsAddr":false},{"id":10731752064,"name":"遠東中醫診所 3831013009","lat":25.0077379,"lng":121.4720641,"address":"220071新北市板橋區漢生東路335號1樓","hasBabyChanging":false,"hasAccessible":false,"source":"OpenStreetMap","updatedAt":"2026-06-10T15:41:05.166Z","facilityType":"clinic","facilityLabel":"🩺 診所","changingTable":false,"wheelchair":false,"needsAddr":false},{"id":10731867568,"name":"藏壽司 板橋中山遠百店","lat":25.0109245,"lng":121.4644626,"address":"220687新北市板橋區中山路一段152號5樓","hasBabyChanging":false,"hasAccessible":false,"source":"OpenStreetMap","updatedAt":"2026-06-10T15:41:05.166Z","facilityType":"sushi","facilityLabel":"🍣 迴轉壽司","changingTable":false,"wheelchair":false,"openingHours":"Mo-Su 11:00-22:00","needsAddr":false},{"id":10740508963,"name":"欣安藥局","lat":25.0305333,"lng":121.4764711,"address":null,"hasBabyChanging":false,"hasAccessible":false,"source":"OpenStreetMap","updatedAt":"2026-06-10T15:41:05.166Z","facilityType":"clinic","facilityLabel":"🩺 診所","changingTable":false,"wheelchair":false,"needsAddr":false},{"id":10740509386,"name":"板橋聖昌中醫診所","lat":25.0305977,"lng":121.4761721,"address":null,"hasBabyChanging":false,"hasAccessible":false,"source":"OpenStreetMap","updatedAt":"2026-06-10T15:41:05.166Z","facilityType":"clinic","facilityLabel":"🩺 診所","changingTable":false,"wheelchair":false,"needsAddr":false},{"id":10742887941,"name":"公共廁所","lat":25.025597,"lng":121.4552026,"address":null,"hasBabyChanging":false,"hasAccessible":false,"source":"OpenStreetMap","updatedAt":"2026-06-10T15:41:05.166Z","facilityType":"toilet","facilityLabel":null,"changingTable":false,"wheelchair":false,"needsAddr":true},{"id":11001027777,"name":"華東市民活動中心","lat":24.9945225,"lng":121.4496252,"address":"新北市板橋區四川路二段130巷32號","hasBabyChanging":false,"hasAccessible":false,"source":"OpenStreetMap","updatedAt":"2026-06-10T15:41:05.166Z","facilityType":"community","facilityLabel":"🏘️ 活動中心","changingTable":false,"wheelchair":false,"needsAddr":false},{"id":11001027781,"name":"文翠市民活動中心","lat":25.0338362,"lng":121.4780428,"address":null,"hasBabyChanging":false,"hasAccessible":false,"source":"OpenStreetMap","updatedAt":"2026-06-10T15:41:05.166Z","facilityType":"community","facilityLabel":"🏘️ 活動中心","changingTable":false,"wheelchair":false,"needsAddr":false},{"id":11004819578,"name":"宏益信合美診所 3531017430","lat":25.0105125,"lng":121.463981,"address":"220073新北市板橋區新民街33號3、4樓","hasBabyChanging":false,"hasAccessible":false,"source":"OpenStreetMap","updatedAt":"2026-06-10T15:41:05.166Z","facilityType":"clinic","facilityLabel":"🩺 診所","changingTable":false,"wheelchair":false,"openingHours":"Mo-Fr 10:00-19:00; Sa 09:00-18:00; We off","needsAddr":false},{"id":11017158618,"name":"謙禾家醫診所 3531019925","lat":25.0088672,"lng":121.4715431,"address":"220722新北市板橋區漢生東路285、287號1、2樓","hasBabyChanging":false,"hasAccessible":false,"source":"OpenStreetMap","updatedAt":"2026-06-10T15:41:05.166Z","facilityType":"clinic","facilityLabel":"🩺 診所","changingTable":false,"wheelchair":false,"needsAddr":false},{"id":11017158619,"name":"晨陽診所 3531017958","lat":25.0074478,"lng":121.4718972,"address":"220071新北市板橋區漢生東路342號1樓","hasBabyChanging":false,"hasAccessible":false,"source":"OpenStreetMap","updatedAt":"2026-06-10T15:41:05.166Z","facilityType":"clinic","facilityLabel":"🩺 診所","changingTable":false,"wheelchair":false,"needsAddr":false},{"id":11043924290,"name":"雅音眼科診所 3531010379","lat":25.015031,"lng":121.4741364,"address":"220078新北市板橋區民生路一段60號","hasBabyChanging":false,"hasAccessible":false,"source":"OpenStreetMap","updatedAt":"2026-06-10T15:41:05.166Z","facilityType":"clinic","facilityLabel":"🩺 診所","changingTable":false,"wheelchair":false,"needsAddr":false},{"id":11043977912,"name":"實健診所 353101A075","lat":25.0151115,"lng":121.4728499,"address":"220078新北市板橋區中山路二段32號","hasBabyChanging":false,"hasAccessible":false,"source":"OpenStreetMap","updatedAt":"2026-06-10T15:41:05.166Z","facilityType":"clinic","facilityLabel":"🩺 診所","changingTable":false,"wheelchair":false,"needsAddr":false},{"id":11043977913,"name":"馨杏園婦產科診所 3531012211","lat":25.015009,"lng":121.4726515,"address":"220076新北市板橋區中山路二段24號","hasBabyChanging":false,"hasAccessible":false,"source":"OpenStreetMap","updatedAt":"2026-06-10T15:41:05.166Z","facilityType":"clinic","facilityLabel":"🩺 診所","changingTable":false,"wheelchair":false,"needsAddr":false},{"id":11043977917,"name":"牧村動物醫院","lat":25.0150608,"lng":121.4727538,"address":"220076新北市板橋區中山路二段28號","hasBabyChanging":false,"hasAccessible":false,"source":"OpenStreetMap","updatedAt":"2026-06-10T15:41:05.166Z","facilityType":"vet","facilityLabel":"🐾 獸醫院","changingTable":false,"wheelchair":false,"needsAddr":false},{"id":11049327157,"name":"海山派出所","lat":25.0113723,"lng":121.4700777,"address":"220225新北市板橋區漢生東路195號","hasBabyChanging":false,"hasAccessible":false,"source":"OpenStreetMap","updatedAt":"2026-06-10T15:41:05.166Z","facilityType":"police","facilityLabel":"🚔 派出所","changingTable":false,"wheelchair":false,"needsAddr":false},{"id":11049327164,"name":"華晟中醫診所 3831014284","lat":25.0116994,"lng":121.4698676,"address":"220071新北市板橋區漢生東路189號1樓及193巷1號1樓","hasBabyChanging":false,"hasAccessible":false,"source":"OpenStreetMap","updatedAt":"2026-06-10T15:41:05.166Z","facilityType":"clinic","facilityLabel":"🩺 診所","changingTable":false,"wheelchair":false,"needsAddr":false},{"id":11049327168,"name":"新北市政府體育處","lat":25.0104282,"lng":121.4692226,"address":"220071新北市板橋區漢生東路278號","hasBabyChanging":false,"hasAccessible":true,"source":"OpenStreetMap","updatedAt":"2026-06-10T15:41:05.166Z","facilityType":"government","facilityLabel":"🏛 公務機關","changingTable":false,"wheelchair":true,"openingHours":"Mo-Fr 08:30-12:30,13:30-17:30","needsAddr":false},{"id":11049327176,"name":"曙光動物醫院","lat":25.0147161,"lng":121.4714291,"address":"220074新北市板橋區中山路一段309號1樓","hasBabyChanging":false,"hasAccessible":false,"source":"OpenStreetMap","updatedAt":"2026-06-10T15:41:05.166Z","facilityType":"vet","facilityLabel":"🐾 獸醫院","changingTable":false,"wheelchair":false,"needsAddr":false},{"id":11050485962,"name":"台電北南區營業處","lat":25.0118502,"lng":121.4617605,"address":null,"hasBabyChanging":false,"hasAccessible":false,"source":"OpenStreetMap","updatedAt":"2026-06-10T15:41:05.166Z","facilityType":"government","facilityLabel":"🏛 公務機關","changingTable":false,"wheelchair":false,"openingHours":"Mo-Fr 08:00-12:00,13:00-17:00; Sa-Su off; PH off","needsAddr":false},{"id":11050485966,"name":"電幻1號所","lat":25.0119231,"lng":121.4620006,"address":null,"hasBabyChanging":false,"hasAccessible":false,"source":"OpenStreetMap","updatedAt":"2026-06-10T15:41:05.166Z","facilityType":"museum","facilityLabel":"🖼️ 博物館","changingTable":false,"wheelchair":false,"fee":"no","openingHours":"Tu-Su 10:00-18:00","needsAddr":false},{"id":11061673344,"name":"優生婦產科診所 3531010324","lat":25.0076683,"lng":121.4611497,"address":"220067新北市板橋區重慶路30號1、2、8樓","hasBabyChanging":false,"hasAccessible":false,"source":"OpenStreetMap","updatedAt":"2026-06-10T15:41:05.166Z","facilityType":"clinic","facilityLabel":"🩺 診所","changingTable":false,"wheelchair":false,"needsAddr":false},{"id":11061673345,"name":"板橋京都堂中醫診所","lat":25.0083106,"lng":121.4604907,"address":"220067新北市板橋區重慶路3號1、2樓","hasBabyChanging":false,"hasAccessible":false,"source":"OpenStreetMap","updatedAt":"2026-06-10T15:41:05.166Z","facilityType":"clinic","facilityLabel":"🩺 診所","changingTable":false,"wheelchair":false,"needsAddr":false},{"id":11061673364,"name":"和一診所 3531019881","lat":25.0070774,"lng":121.4603987,"address":"220066新北市板橋區館前東路26號3樓之2","hasBabyChanging":false,"hasAccessible":false,"source":"OpenStreetMap","updatedAt":"2026-06-10T15:41:05.166Z","facilityType":"clinic","facilityLabel":"🩺 診所","changingTable":false,"wheelchair":false,"needsAddr":false},{"id":11061673372,"name":"板杏內科診所 3531019587","lat":25.0070527,"lng":121.4604012,"address":"220066新北市板橋區館前東路26號4樓","hasBabyChanging":false,"hasAccessible":false,"source":"OpenStreetMap","updatedAt":"2026-06-10T15:41:05.166Z","facilityType":"clinic","facilityLabel":"🩺 診所","changingTable":false,"wheelchair":false,"needsAddr":false},{"id":11061673374,"name":"趙小兒科診所 3531011303","lat":25.0072332,"lng":121.461202,"address":"220066新北市板橋區館前東路64號1樓","hasBabyChanging":false,"hasAccessible":false,"source":"OpenStreetMap","updatedAt":"2026-06-10T15:41:05.166Z","facilityType":"clinic","facilityLabel":"🩺 診所","changingTable":false,"wheelchair":false,"needsAddr":false},{"id":11096920833,"name":"板橋元帥府","lat":25.0123801,"lng":121.4751475,"address":null,"hasBabyChanging":false,"hasAccessible":false,"source":"OpenStreetMap","updatedAt":"2026-06-10T15:41:05.166Z","facilityType":"temple","facilityLabel":"🛕 廟宇","changingTable":false,"wheelchair":false,"needsAddr":false},{"id":11096920837,"name":"御品堂中醫診所 3831014855","lat":25.012224,"lng":121.474567,"address":"220075新北市板橋區長安街333號1樓","hasBabyChanging":false,"hasAccessible":false,"source":"OpenStreetMap","updatedAt":"2026-06-10T15:41:05.166Z","facilityType":"clinic","facilityLabel":"🩺 診所","changingTable":false,"wheelchair":false,"needsAddr":false},{"id":11096920838,"name":"倪國欽中醫診所 3831014408","lat":25.0125668,"lng":121.4737575,"address":"220075新北市板橋區長安街331巷23號1樓","hasBabyChanging":false,"hasAccessible":false,"source":"OpenStreetMap","updatedAt":"2026-06-10T15:41:05.166Z","facilityType":"clinic","facilityLabel":"🩺 診所","changingTable":false,"wheelchair":false,"needsAddr":false},{"id":11099537663,"name":"健福中醫診所 3831011345","lat":25.0175637,"lng":121.4771855,"address":"220089新北市板橋區中山路二段237號1樓及成功路6巷34號1樓","hasBabyChanging":false,"hasAccessible":false,"source":"OpenStreetMap","updatedAt":"2026-06-10T15:41:05.166Z","facilityType":"clinic","facilityLabel":"🩺 診所","changingTable":false,"wheelchair":false,"needsAddr":false},{"id":11141086488,"name":"星巴克 板橋新巨蛋門市","lat":25.0234887,"lng":121.4689412,"address":"220792新北市板橋區文化路一段360號","hasBabyChanging":false,"hasAccessible":false,"source":"OpenStreetMap","updatedAt":"2026-06-10T15:41:05.166Z","facilityType":"starbucks","facilityLabel":"☕ 星巴克","changingTable":false,"wheelchair":false,"openingHours":"Mo-Sa 07:00-21:30; Su 07:30-21:30","needsAddr":false},{"id":11141086489,"name":"爭鮮迴轉壽司 新埔店","lat":25.0226709,"lng":121.4687932,"address":"220007新北市板橋區民生路二段232之10號2樓","hasBabyChanging":false,"hasAccessible":false,"source":"OpenStreetMap","updatedAt":"2026-06-10T15:41:05.166Z","facilityType":"sushi","facilityLabel":"🍣 迴轉壽司","changingTable":false,"wheelchair":false,"openingHours":"Mo-Su 11:00-21:30","needsAddr":false},{"id":11148195366,"name":"金融監督管理委員會","lat":25.014309,"lng":121.4634798,"address":"220新北市板橋區縣民大道二段7號18樓","hasBabyChanging":false,"hasAccessible":false,"source":"OpenStreetMap","updatedAt":"2026-06-10T15:41:05.166Z","facilityType":"government","facilityLabel":"🏛 公務機關","changingTable":false,"wheelchair":false,"needsAddr":false},{"id":11148195371,"name":"交通部鐵道局","lat":25.0144996,"lng":121.4636311,"address":"220新北市板橋區縣民大道二段7號9樓","hasBabyChanging":false,"hasAccessible":false,"source":"OpenStreetMap","updatedAt":"2026-06-10T15:41:05.166Z","facilityType":"government","facilityLabel":"🏛 公務機關","changingTable":false,"wheelchair":false,"needsAddr":false},{"id":11346175165,"name":"台灣中油 車榮坊板橋站","lat":25.0180518,"lng":121.4709645,"address":"新北市板橋區縣民大道二段288號","hasBabyChanging":false,"hasAccessible":false,"source":"OpenStreetMap","updatedAt":"2026-06-10T15:41:05.166Z","facilityType":"fuel","facilityLabel":"⛽ 加油站","changingTable":false,"wheelchair":false,"openingHours":"24/7","needsAddr":false},{"id":11449094959,"name":"湳雅夜市停車場 500218163","lat":25.00557,"lng":121.45345,"address":null,"hasBabyChanging":false,"hasAccessible":false,"source":"OpenStreetMap","updatedAt":"2026-06-10T15:41:05.166Z","facilityType":"nightmarket","facilityLabel":"🍢 夜市","changingTable":false,"wheelchair":false,"fee":"yes","openingHours":"24/7","needsAddr":false},{"id":11503480997,"name":"高端眼科診所","lat":25.0285137,"lng":121.4724773,"address":null,"hasBabyChanging":false,"hasAccessible":true,"source":"OpenStreetMap","updatedAt":"2026-06-10T15:41:05.166Z","facilityType":"clinic","facilityLabel":"🩺 診所","changingTable":false,"wheelchair":true,"needsAddr":false},{"id":11503481009,"name":"家樺診所","lat":25.0288041,"lng":121.4724646,"address":null,"hasBabyChanging":false,"hasAccessible":false,"source":"OpenStreetMap","updatedAt":"2026-06-10T15:41:05.166Z","facilityType":"clinic","facilityLabel":"🩺 診所","changingTable":false,"wheelchair":false,"needsAddr":false},{"id":11510555467,"name":"有好美學診所","lat":25.0291505,"lng":121.4721702,"address":null,"hasBabyChanging":false,"hasAccessible":true,"source":"OpenStreetMap","updatedAt":"2026-06-10T15:41:05.166Z","facilityType":"clinic","facilityLabel":"🩺 診所","changingTable":false,"wheelchair":true,"needsAddr":false},{"id":11510559048,"name":"富安家畜醫院","lat":25.0304276,"lng":121.4724659,"address":null,"hasBabyChanging":false,"hasAccessible":false,"source":"OpenStreetMap","updatedAt":"2026-06-10T15:41:05.166Z","facilityType":"vet","facilityLabel":"🐾 獸醫院","changingTable":false,"wheelchair":false,"needsAddr":false},{"id":11913560469,"name":"小北百貨 長江店","lat":25.032775,"lng":121.469193,"address":"220新北市板橋區長江路二段245號","hasBabyChanging":true,"hasAccessible":false,"source":"OpenStreetMap","updatedAt":"2026-06-10T15:41:05.166Z","facilityType":"department","facilityLabel":"🏬 百貨","changingTable":true,"wheelchair":false,"openingHours":"24/7","needsAddr":false},{"id":11925880469,"name":"萊爾富","lat":25.0278725,"lng":121.4686656,"address":null,"hasBabyChanging":false,"hasAccessible":false,"source":"OpenStreetMap","updatedAt":"2026-06-10T15:41:05.166Z","facilityType":"toilet","facilityLabel":null,"changingTable":false,"wheelchair":false,"needsAddr":false},{"id":11953893169,"name":"欣心診所","lat":25.024013,"lng":121.4718732,"address":"220新北市板橋區莒光路94號","hasBabyChanging":false,"hasAccessible":false,"source":"OpenStreetMap","updatedAt":"2026-06-10T15:41:05.166Z","facilityType":"clinic","facilityLabel":"🩺 診所","changingTable":false,"wheelchair":false,"openingHours":"Mo-Sa 08:00-12:00,Mo-Sa 15:00-18:00,Mo-Sa 18:30-21:30","needsAddr":false},{"id":12056497662,"name":"華江橋下自行車練習場","lat":25.0380099,"lng":121.4814131,"address":null,"hasBabyChanging":false,"hasAccessible":false,"source":"OpenStreetMap","updatedAt":"2026-06-10T15:41:05.166Z","facilityType":"attraction","facilityLabel":"🏞️ 景點","changingTable":false,"wheelchair":false,"openingHours":"24/7","needsAddr":false},{"id":12056497663,"name":"華江自行車教育園區","lat":25.0361435,"lng":121.4821641,"address":null,"hasBabyChanging":false,"hasAccessible":false,"source":"OpenStreetMap","updatedAt":"2026-06-10T15:41:05.166Z","facilityType":"attraction","facilityLabel":"🏞️ 景點","changingTable":false,"wheelchair":false,"openingHours":"24/7","needsAddr":false},