{"city":"高雄市","district":"楠梓區","category":"medical","updatedAt":"2026-06-12T02:55:18.707Z","rev":1,"count":81,"items":[{"id":2377816040,"name":"建榮牙醫診所","lat":22.7254265,"lng":120.3024418,"address":"高雄市楠梓區德民路366號","hasBabyChanging":false,"hasAccessible":false,"source":"OpenStreetMap","updatedAt":"2026-06-12T02:55:18.707Z","facilityType":"dentist","facilityLabel":"🦷 牙醫","phone":"+886 7 366 1553","website":null,"wheelchair":false,"needsAddr":false},{"id":2378612820,"name":"宏霖牙醫診所","lat":22.7264873,"lng":120.3046952,"address":"高雄市楠梓區德民路356巷30-1號","hasBabyChanging":false,"hasAccessible":false,"source":"OpenStreetMap","updatedAt":"2026-06-12T02:55:18.707Z","facilityType":"dentist","facilityLabel":"🦷 牙醫","phone":"+886 7 365 9246","website":null,"wheelchair":false,"needsAddr":false},{"id":2400260460,"name":"孫欲珍小兒科","lat":22.7263417,"lng":120.3050624,"address":"高雄市楠梓區德賢路241號","hasBabyChanging":false,"hasAccessible":false,"source":"OpenStreetMap","updatedAt":"2026-06-12T02:55:18.707Z","facilityType":"clinic","facilityLabel":"👶 小兒科","phone":null,"website":null,"wheelchair":false,"needsAddr":false},{"id":2400275567,"name":"芳程牙醫","lat":22.7253387,"lng":120.3001155,"address":"高雄市楠梓區德賢路547號","hasBabyChanging":false,"hasAccessible":false,"source":"OpenStreetMap","updatedAt":"2026-06-12T02:55:18.707Z","facilityType":"dentist","facilityLabel":"🦷 牙醫","phone":"+886-7-365-0544","website":null,"wheelchair":false,"needsAddr":false},{"id":2400275568,"name":"長義診所","lat":22.7248729,"lng":120.2987287,"address":"81153高雄市楠梓區惠民路46號","hasBabyChanging":false,"hasAccessible":false,"source":"OpenStreetMap","updatedAt":"2026-06-12T02:55:18.707Z","facilityType":"clinic","facilityLabel":"🩺 診所","phone":null,"website":null,"wheelchair":false,"needsAddr":false},{"id":2401070551,"name":"顏威裕醫院","lat":22.7111887,"lng":120.2956585,"address":null,"hasBabyChanging":false,"hasAccessible":false,"source":"OpenStreetMap","updatedAt":"2026-06-12T02:55:18.707Z","facilityType":"hospital","facilityLabel":"🏥 醫院","phone":null,"website":null,"wheelchair":false,"needsAddr":true},{"id":2401078497,"name":"屈臣氏","lat":22.7271439,"lng":120.3266585,"address":"811高雄市楠梓區建楠路156號","hasBabyChanging":false,"hasAccessible":false,"source":"OpenStreetMap","updatedAt":"2026-06-12T02:55:18.707Z","facilityType":"pharmacy","facilityLabel":"💊 藥妝","phone":"+886 7 3524242","website":null,"wheelchair":false,"needsAddr":false},{"id":2401078498,"name":"蕙榮牙醫","lat":22.7271676,"lng":120.3263269,"address":null,"hasBabyChanging":false,"hasAccessible":false,"source":"OpenStreetMap","updatedAt":"2026-06-12T02:55:18.707Z","facilityType":"dentist","facilityLabel":"🦷 牙醫","phone":null,"website":null,"wheelchair":false,"needsAddr":true},{"id":2401078499,"name":"康是美","lat":22.7271522,"lng":120.3264525,"address":"811高雄市楠梓區建楠路166號","hasBabyChanging":false,"hasAccessible":false,"source":"OpenStreetMap","updatedAt":"2026-06-12T02:55:18.707Z","facilityType":"pharmacy","facilityLabel":"💊 藥妝","phone":"+886 7 3529646","website":null,"wheelchair":false,"needsAddr":false},{"id":2401078503,"name":"林自強內科","lat":22.7268261,"lng":120.3271302,"address":null,"hasBabyChanging":false,"hasAccessible":false,"source":"OpenStreetMap","updatedAt":"2026-06-12T02:55:18.707Z","facilityType":"clinic","facilityLabel":"🩺 診所","phone":null,"website":null,"wheelchair":false,"needsAddr":true},{"id":2401078505,"name":"楠梓聯合婦產科","lat":22.7267409,"lng":120.3275587,"address":null,"hasBabyChanging":false,"hasAccessible":false,"source":"OpenStreetMap","updatedAt":"2026-06-12T02:55:18.707Z","facilityType":"clinic","facilityLabel":"🩺 診所","phone":null,"website":null,"wheelchair":false,"needsAddr":true},{"id":2401086115,"name":"屈臣氏","lat":22.7264541,"lng":120.3059425,"address":null,"hasBabyChanging":false,"hasAccessible":false,"source":"OpenStreetMap","updatedAt":"2026-06-12T02:55:18.707Z","facilityType":"pharmacy","facilityLabel":"💊 藥妝","phone":null,"website":null,"wheelchair":false,"needsAddr":true},{"id":2401153810,"name":"愷哲牙醫診所","lat":22.710344,"lng":120.2949586,"address":null,"hasBabyChanging":false,"hasAccessible":false,"source":"OpenStreetMap","updatedAt":"2026-06-12T02:55:18.707Z","facilityType":"dentist","facilityLabel":"🦷 牙醫","phone":null,"website":null,"wheelchair":false,"needsAddr":true},{"id":2401245926,"name":"康是美","lat":22.7259963,"lng":120.3025703,"address":"高雄市楠梓區德賢路473號","hasBabyChanging":false,"hasAccessible":false,"source":"OpenStreetMap","updatedAt":"2026-06-12T02:55:18.707Z","facilityType":"pharmacy","facilityLabel":"💊 藥妝","phone":"+886 7 976 5019","website":null,"wheelchair":false,"needsAddr":false},{"id":2402254291,"name":"久億藥局","lat":22.726595,"lng":120.3077949,"address":null,"hasBabyChanging":false,"hasAccessible":false,"source":"OpenStreetMap","updatedAt":"2026-06-12T02:55:18.707Z","facilityType":"pharmacy","facilityLabel":"💊 藥局","phone":null,"website":null,"wheelchair":false,"needsAddr":true},{"id":2402254292,"name":"杏美診所","lat":22.7266074,"lng":120.3092031,"address":"高雄市楠梓區德祥路149號","hasBabyChanging":false,"hasAccessible":false,"source":"OpenStreetMap","updatedAt":"2026-06-12T02:55:18.707Z","facilityType":"clinic","facilityLabel":"🩺 診所","phone":"+886 7 364 5599","website":null,"wheelchair":false,"needsAddr":false},{"id":2402254298,"name":"進昇藥局","lat":22.7268993,"lng":120.3067489,"address":"高雄市楠梓區德賢路202號","hasBabyChanging":false,"hasAccessible":false,"source":"OpenStreetMap","updatedAt":"2026-06-12T02:55:18.707Z","facilityType":"pharmacy","facilityLabel":"💊 藥局","phone":"+886-7-365-2334","website":null,"wheelchair":false,"needsAddr":false},{"id":2402254299,"name":"漢唐中醫診所","lat":22.726546,"lng":120.3079342,"address":null,"hasBabyChanging":false,"hasAccessible":false,"source":"OpenStreetMap","updatedAt":"2026-06-12T02:55:18.707Z","facilityType":"clinic","facilityLabel":"🩺 診所","phone":null,"website":null,"wheelchair":false,"needsAddr":true},{"id":2402254301,"name":"新高橋藥局","lat":22.7264836,"lng":120.3060226,"address":"高雄市楠梓區德賢路191號","hasBabyChanging":false,"hasAccessible":false,"source":"OpenStreetMap","updatedAt":"2026-06-12T02:55:18.707Z","facilityType":"pharmacy","facilityLabel":"💊 藥局","phone":"+886 7 366 1348","website":"https://www.bgdrug.com.tw/","wheelchair":false,"needsAddr":false},{"id":2405911110,"name":"薺莘中醫診所","lat":22.7279925,"lng":120.3007604,"address":"高雄市楠梓區加仁路61號","hasBabyChanging":false,"hasAccessible":false,"source":"OpenStreetMap","updatedAt":"2026-06-12T02:55:18.707Z","facilityType":"clinic","facilityLabel":"🩺 診所","phone":"+886 7 360 2188","website":null,"wheelchair":false,"needsAddr":false},{"id":2406781747,"name":"優瑞卡中醫診所","lat":22.7250394,"lng":120.2998258,"address":"高雄市楠梓區翠屏路6號","hasBabyChanging":false,"hasAccessible":false,"source":"OpenStreetMap","updatedAt":"2026-06-12T02:55:18.707Z","facilityType":"clinic","facilityLabel":"🩺 診所","phone":"+886 7 364 9780","website":null,"wheelchair":false,"needsAddr":false},{"id":2418713947,"name":"杏生婦產小兒科","lat":22.7259339,"lng":120.3074194,"address":"高雄市楠梓區德民路292號","hasBabyChanging":false,"hasAccessible":false,"source":"OpenStreetMap","updatedAt":"2026-06-12T02:55:18.707Z","facilityType":"clinic","facilityLabel":"👶 小兒科","phone":"+886 7 365 8288","website":null,"wheelchair":false,"needsAddr":false},{"id":2418893869,"name":"陳顯明診所","lat":22.7262688,"lng":120.3040944,"address":"高雄市楠梓區德賢路265號一樓","hasBabyChanging":false,"hasAccessible":false,"source":"OpenStreetMap","updatedAt":"2026-06-12T02:55:18.707Z","facilityType":"clinic","facilityLabel":"🩺 診所","phone":"+886 7 364 8127","website":null,"wheelchair":false,"needsAddr":false},{"id":2637690276,"name":"成吉藥局","lat":22.7296595,"lng":120.3299844,"address":"811高雄市楠梓區楠梓東街74號","hasBabyChanging":false,"hasAccessible":false,"source":"OpenStreetMap","updatedAt":"2026-06-12T02:55:18.707Z","facilityType":"pharmacy","facilityLabel":"💊 藥局","phone":"+886 7 3513339","website":null,"wheelchair":false,"needsAddr":false},{"id":3353365087,"name":"橘井藥局","lat":22.7302482,"lng":120.3285426,"address":"811高雄市楠梓區楠梓路129號","hasBabyChanging":false,"hasAccessible":false,"source":"OpenStreetMap","updatedAt":"2026-06-12T02:55:18.707Z","facilityType":"pharmacy","facilityLabel":"💊 藥局","phone":null,"website":null,"wheelchair":false,"needsAddr":false},{"id":3665912303,"name":"長青連鎖藥局","lat":22.7254226,"lng":120.3002466,"address":"高雄市楠梓區德賢路551號零樓","hasBabyChanging":false,"hasAccessible":false,"source":"OpenStreetMap","updatedAt":"2026-06-12T02:55:18.707Z","facilityType":"pharmacy","facilityLabel":"💊 藥局","phone":"+886-7-360-6056","website":null,"wheelchair":false,"needsAddr":false},{"id":3671215696,"name":"仁和堂中醫診所","lat":22.7267409,"lng":120.3060123,"address":"高雄市楠梓區德賢路220巷2號一樓","hasBabyChanging":false,"hasAccessible":false,"source":"OpenStreetMap","updatedAt":"2026-06-12T02:55:18.707Z","facilityType":"clinic","facilityLabel":"🩺 診所","phone":"+886 7 365 6838","website":null,"wheelchair":false,"needsAddr":false},{"id":3674524703,"name":"祥霖診所","lat":22.726472,"lng":120.3018442,"address":"高雄市楠梓區德賢路530巷9號1;2樓","hasBabyChanging":false,"hasAccessible":false,"source":"OpenStreetMap","updatedAt":"2026-06-12T02:55:18.707Z","facilityType":"clinic","facilityLabel":"🩺 診所","phone":"+886 7 363 0930","website":null,"wheelchair":false,"needsAddr":false},{"id":3689067540,"name":"楊宗憲診所","lat":22.726637,"lng":120.3065161,"address":"高雄市楠梓區德賢路165號","hasBabyChanging":false,"hasAccessible":false,"source":"OpenStreetMap","updatedAt":"2026-06-12T02:55:18.707Z","facilityType":"clinic","facilityLabel":"🩺 診所","phone":"+886-7-366-3511","website":"https://www.facebook.com/chest.Dr.Yang","wheelchair":false,"needsAddr":false},{"id":3739986265,"name":"丁丁藥局","lat":22.7270907,"lng":120.327151,"address":"81162高雄市楠梓區建楠路136號","hasBabyChanging":false,"hasAccessible":false,"source":"OpenStreetMap","updatedAt":"2026-06-12T02:55:18.707Z","facilityType":"pharmacy","facilityLabel":"💊 藥局","phone":"+886-7 353 3743","website":"https://www.norbelbaby.com.tw/","wheelchair":false,"needsAddr":false},{"id":3739989059,"name":"丁丁藥局","lat":22.71887,"lng":120.2919753,"address":"81152高雄市楠梓區後昌新路38號","hasBabyChanging":false,"hasAccessible":false,"source":"OpenStreetMap","updatedAt":"2026-06-12T02:55:18.707Z","facilityType":"pharmacy","facilityLabel":"💊 藥局","phone":"+886-7 360 0707","website":"https://www.norbelbaby.com.tw/","wheelchair":false,"needsAddr":false},{"id":3752319133,"name":"美日安藥局","lat":22.7266827,"lng":120.308831,"address":"高雄市楠梓區德祥路142號","hasBabyChanging":false,"hasAccessible":false,"source":"OpenStreetMap","updatedAt":"2026-06-12T02:55:18.707Z","facilityType":"pharmacy","facilityLabel":"💊 藥局","phone":"+886 7 361 1178","website":null,"wheelchair":false,"needsAddr":false},{"id":3763488519,"name":"德民動物醫院","lat":22.7261069,"lng":120.3087392,"address":"高雄市楠梓區德民路208號","hasBabyChanging":false,"hasAccessible":false,"source":"OpenStreetMap","updatedAt":"2026-06-12T02:55:18.707Z","facilityType":"vet","facilityLabel":"🐾 動物醫院","phone":"+886 7 364 2642","website":"http://www.demin.com.tw/","wheelchair":false,"needsAddr":false},{"id":3763548823,"name":"屈臣氏","lat":22.7246996,"lng":120.2969051,"address":null,"hasBabyChanging":false,"hasAccessible":false,"source":"OpenStreetMap","updatedAt":"2026-06-12T02:55:18.707Z","facilityType":"pharmacy","facilityLabel":"💊 藥妝","phone":null,"website":null,"wheelchair":false,"needsAddr":true},{"id":3806191300,"name":"張森仁牙醫診所","lat":22.7263491,"lng":120.3051214,"address":"高雄市楠梓區德賢路237號","hasBabyChanging":false,"hasAccessible":false,"source":"OpenStreetMap","updatedAt":"2026-06-12T02:55:18.707Z","facilityType":"dentist","facilityLabel":"🦷 牙醫","phone":"+886 7 363 3729","website":null,"wheelchair":false,"needsAddr":false},{"id":4138619989,"name":"寶雅","lat":22.7263671,"lng":120.3054315,"address":"高雄市楠梓區德賢路211號","hasBabyChanging":false,"hasAccessible":true,"source":"OpenStreetMap","updatedAt":"2026-06-12T02:55:18.707Z","facilityType":"pharmacy","facilityLabel":"💊 藥局","phone":"+886 7 360 2266","website":"http://ec.poya.com.tw/","wheelchair":true,"needsAddr":false},{"id":4239079593,"name":"萊美牙醫診所","lat":22.7249434,"lng":120.2967588,"address":"高雄市楠梓區益群路69號","hasBabyChanging":false,"hasAccessible":false,"source":"OpenStreetMap","updatedAt":"2026-06-12T02:55:18.707Z","facilityType":"dentist","facilityLabel":"🦷 牙醫","phone":"+886-7-360-0702","website":"https://www.facebook.com/pg/萊美牙醫診所-681748301948241/","wheelchair":false,"needsAddr":false},{"id":4289550129,"name":"德昌藥局 德賢店","lat":22.7263555,"lng":120.3052837,"address":"高雄市楠梓區德賢路215號","hasBabyChanging":false,"hasAccessible":false,"source":"OpenStreetMap","updatedAt":"2026-06-12T02:55:18.707Z","facilityType":"pharmacy","facilityLabel":"💊 藥局","phone":"+886 7 361 9998","website":"https://www.te-chang.com/","wheelchair":false,"needsAddr":false},{"id":5110375563,"name":"媄仁診所","lat":22.7274562,"lng":120.3061142,"address":"高雄市楠梓區德賢路220巷29號一樓","hasBabyChanging":false,"hasAccessible":false,"source":"OpenStreetMap","updatedAt":"2026-06-12T02:55:18.707Z","facilityType":"clinic","facilityLabel":"🩺 診所","phone":"+886-7-365-7800","website":"https://www.nhi.gov.tw/Query/Query3_Detail.aspx?HospID=3507310235","wheelchair":false,"needsAddr":false},{"id":5302274091,"name":"林邑樵耳鼻喉科診所","lat":22.7236739,"lng":120.2977247,"address":null,"hasBabyChanging":false,"hasAccessible":false,"source":"OpenStreetMap","updatedAt":"2026-06-12T02:55:18.707Z","facilityType":"clinic","facilityLabel":"👂 耳鼻喉科","phone":null,"website":null,"wheelchair":false,"needsAddr":true},{"id":5306594112,"name":"佑安中醫醫院","lat":22.7093767,"lng":120.2930738,"address":null,"hasBabyChanging":false,"hasAccessible":false,"source":"OpenStreetMap","updatedAt":"2026-06-12T02:55:18.707Z","facilityType":"hospital","facilityLabel":"🏥 醫院","phone":null,"website":null,"wheelchair":false,"needsAddr":true},{"id":5306618133,"name":"大樹藥局","lat":22.7127002,"lng":120.2918507,"address":"811003高雄市楠梓區軍校路908號","hasBabyChanging":false,"hasAccessible":false,"source":"OpenStreetMap","updatedAt":"2026-06-12T02:55:18.707Z","facilityType":"pharmacy","facilityLabel":"💊 藥局","phone":"+886 7 363 2322","website":"https://www.greattree.com.tw","wheelchair":false,"needsAddr":false},{"id":5308559369,"name":"瑞鴻堂中醫診所","lat":22.7099625,"lng":120.2907654,"address":null,"hasBabyChanging":false,"hasAccessible":false,"source":"OpenStreetMap","updatedAt":"2026-06-12T02:55:18.707Z","facilityType":"clinic","facilityLabel":"🩺 診所","phone":null,"website":null,"wheelchair":false,"needsAddr":true},{"id":5308559382,"name":"建佑藥局","lat":22.7115801,"lng":120.2889862,"address":null,"hasBabyChanging":false,"hasAccessible":false,"source":"OpenStreetMap","updatedAt":"2026-06-12T02:55:18.707Z","facilityType":"pharmacy","facilityLabel":"💊 藥局","phone":null,"website":null,"wheelchair":false,"needsAddr":true},{"id":5310389332,"name":"大大牙醫","lat":22.7186121,"lng":120.2976882,"address":null,"hasBabyChanging":false,"hasAccessible":false,"source":"OpenStreetMap","updatedAt":"2026-06-12T02:55:18.707Z","facilityType":"dentist","facilityLabel":"🦷 牙醫","phone":null,"website":null,"wheelchair":false,"needsAddr":true},{"id":5312843505,"name":"至美牙醫診所","lat":22.7260238,"lng":120.2992638,"address":"高雄市楠梓區翠屏路47號","hasBabyChanging":false,"hasAccessible":false,"source":"OpenStreetMap","updatedAt":"2026-06-12T02:55:18.707Z","facilityType":"dentist","facilityLabel":"🦷 牙醫","phone":"+886 7 366 2526","website":null,"wheelchair":false,"needsAddr":false},{"id":5323865249,"name":"莒光動物醫院","lat":22.7135555,"lng":120.2933272,"address":null,"hasBabyChanging":false,"hasAccessible":false,"source":"OpenStreetMap","updatedAt":"2026-06-12T02:55:18.707Z","facilityType":"vet","facilityLabel":"🐾 動物醫院","phone":null,"website":null,"wheelchair":false,"needsAddr":true},{"id":5323865251,"name":"歐慈德內小兒科診所","lat":22.7134526,"lng":120.2938172,"address":null,"hasBabyChanging":false,"hasAccessible":false,"source":"OpenStreetMap","updatedAt":"2026-06-12T02:55:18.707Z","facilityType":"clinic","facilityLabel":"👶 小兒科","phone":null,"website":null,"wheelchair":false,"needsAddr":true},{"id":5323865252,"name":"慈光藥局","lat":22.7136272,"lng":120.2937395,"address":null,"hasBabyChanging":false,"hasAccessible":false,"source":"OpenStreetMap","updatedAt":"2026-06-12T02:55:18.707Z","facilityType":"pharmacy","facilityLabel":"💊 藥局","phone":null,"website":null,"wheelchair":false,"needsAddr":true},{"id":5323865254,"name":"健泰中醫","lat":22.7127855,"lng":120.29402,"address":null,"hasBabyChanging":false,"hasAccessible":false,"source":"OpenStreetMap","updatedAt":"2026-06-12T02:55:18.707Z","facilityType":"clinic","facilityLabel":"🩺 診所","phone":null,"website":null,"wheelchair":false,"needsAddr":true},{"id":5323865256,"name":"郭士彰耳鼻喉科","lat":22.7122961,"lng":120.2945978,"address":null,"hasBabyChanging":false,"hasAccessible":false,"source":"OpenStreetMap","updatedAt":"2026-06-12T02:55:18.707Z","facilityType":"clinic","facilityLabel":"👂 耳鼻喉科","phone":null,"website":null,"wheelchair":false,"needsAddr":true},{"id":5323865258,"name":"仁康牙醫","lat":22.7118566,"lng":120.2946384,"address":null,"hasBabyChanging":false,"hasAccessible":false,"source":"OpenStreetMap","updatedAt":"2026-06-12T02:55:18.707Z","facilityType":"dentist","facilityLabel":"🦷 牙醫","phone":null,"website":null,"wheelchair":false,"needsAddr":true},{"id":5323865259,"name":"上明眼科","lat":22.7119345,"lng":120.2945809,"address":null,"hasBabyChanging":false,"hasAccessible":false,"source":"OpenStreetMap","updatedAt":"2026-06-12T02:55:18.707Z","facilityType":"clinic","facilityLabel":"🩺 診所","phone":null,"website":null,"wheelchair":false,"needsAddr":true},{"id":5323865266,"name":"康是美","lat":22.7119283,"lng":120.2949121,"address":null,"hasBabyChanging":false,"hasAccessible":false,"source":"OpenStreetMap","updatedAt":"2026-06-12T02:55:18.707Z","facilityType":"pharmacy","facilityLabel":"💊 藥妝","phone":null,"website":null,"wheelchair":false,"needsAddr":true},{"id":5323865274,"name":"康健軍診所","lat":22.7107237,"lng":120.2956873,"address":null,"hasBabyChanging":false,"hasAccessible":false,"source":"OpenStreetMap","updatedAt":"2026-06-12T02:55:18.707Z","facilityType":"clinic","facilityLabel":"🩺 診所","phone":null,"website":null,"wheelchair":false,"needsAddr":true},{"id":5323865275,"name":"愛生診所","lat":22.7106786,"lng":120.2957448,"address":null,"hasBabyChanging":false,"hasAccessible":false,"source":"OpenStreetMap","updatedAt":"2026-06-12T02:55:18.707Z","facilityType":"clinic","facilityLabel":"🩺 診所","phone":null,"website":null,"wheelchair":false,"needsAddr":true},{"id":5323865279,"name":"ㄚㄚ藥局","lat":22.7107611,"lng":120.2959768,"address":null,"hasBabyChanging":false,"hasAccessible":false,"source":"OpenStreetMap","updatedAt":"2026-06-12T02:55:18.707Z","facilityType":"pharmacy","facilityLabel":"💊 藥局","phone":null,"website":null,"wheelchair":false,"needsAddr":true},{"id":5323865280,"name":"陳嘉偉皮膚科診所","lat":22.7106079,"lng":120.296096,"address":null,"hasBabyChanging":false,"hasAccessible":false,"source":"OpenStreetMap","updatedAt":"2026-06-12T02:55:18.707Z","facilityType":"clinic","facilityLabel":"🩺 診所","phone":null,"website":null,"wheelchair":false,"needsAddr":true},{"id":5323865281,"name":"陳建良診所","lat":22.7103192,"lng":120.2960343,"address":null,"hasBabyChanging":false,"hasAccessible":false,"source":"OpenStreetMap","updatedAt":"2026-06-12T02:55:18.707Z","facilityType":"clinic","facilityLabel":"🩺 診所","phone":null,"website":null,"wheelchair":false,"needsAddr":true},{"id":5323865307,"name":"戴元昌內科","lat":22.7087854,"lng":120.2979865,"address":null,"hasBabyChanging":false,"hasAccessible":false,"source":"OpenStreetMap","updatedAt":"2026-06-12T02:55:18.707Z","facilityType":"clinic","facilityLabel":"🩺 診所","phone":null,"website":null,"wheelchair":false,"needsAddr":true},{"id":6926402596,"name":"黃藥局","lat":22.7271674,"lng":120.3260251,"address":"811高雄市楠梓區建楠路186號","hasBabyChanging":false,"hasAccessible":false,"source":"OpenStreetMap","updatedAt":"2026-06-12T02:55:18.707Z","facilityType":"pharmacy","facilityLabel":"💊 藥局","phone":"+886 7 3515700","website":null,"wheelchair":false,"needsAddr":false},{"id":7103666413,"name":"建霖診所","lat":22.7261298,"lng":120.3295406,"address":"811高雄市楠梓區鳳楠路248號","hasBabyChanging":false,"hasAccessible":false,"source":"OpenStreetMap","updatedAt":"2026-06-12T02:55:18.707Z","facilityType":"clinic","facilityLabel":"👂 耳鼻喉科","phone":"+886 7 3523006","website":null,"wheelchair":false,"needsAddr":false},{"id":7281673926,"name":"合德中西藥師藥局","lat":22.7381217,"lng":120.3243023,"address":"811高雄市楠梓區楠梓路486號","hasBabyChanging":false,"hasAccessible":false,"source":"OpenStreetMap","updatedAt":"2026-06-12T02:55:18.707Z","facilityType":"pharmacy","facilityLabel":"💊 藥局","phone":"+886 7 3581291","website":null,"wheelchair":false,"needsAddr":false},{"id":7470263070,"name":"德民動物醫院","lat":22.7249355,"lng":120.3123914,"address":null,"hasBabyChanging":false,"hasAccessible":false,"source":"OpenStreetMap","updatedAt":"2026-06-12T02:55:18.707Z","facilityType":"vet","facilityLabel":"🐾 動物醫院","phone":null,"website":null,"wheelchair":false,"needsAddr":true},{"id":7836294512,"name":"健昌骨外科診所","lat":22.7143771,"lng":120.2843243,"address":"811高雄市楠梓區三山街210號","hasBabyChanging":false,"hasAccessible":false,"source":"OpenStreetMap","updatedAt":"2026-06-12T02:55:18.707Z","facilityType":"clinic","facilityLabel":"🩺 診所","phone":"+886 7 3603434","website":null,"wheelchair":false,"needsAddr":false},{"id":7903708191,"name":"馮文瑋皮膚專科診所","lat":22.7258654,"lng":120.3245909,"address":"811高雄市楠梓區楠梓新路158號","hasBabyChanging":false,"hasAccessible":false,"source":"OpenStreetMap","updatedAt":"2026-06-12T02:55:18.707Z","facilityType":"clinic","facilityLabel":"🩺 診所","phone":"+886 7 3520333","website":null,"wheelchair":false,"needsAddr":false},{"id":8942827350,"name":"丁丁藥局","lat":22.7301154,"lng":120.3328886,"address":"811023高雄市楠梓區興楠路262號一樓","hasBabyChanging":false,"hasAccessible":false,"source":"OpenStreetMap","updatedAt":"2026-06-12T02:55:18.707Z","facilityType":"pharmacy","facilityLabel":"💊 藥局","phone":"+886 7 355 9668","website":"https://www.norbelbaby.com.tw/TinTin/","wheelchair":false,"needsAddr":false},{"id":10941406882,"name":"家恩診所","lat":22.7416965,"lng":120.3382006,"address":null,"hasBabyChanging":false,"hasAccessible":false,"source":"OpenStreetMap","updatedAt":"2026-06-12T02:55:18.707Z","facilityType":"clinic","facilityLabel":"🩺 診所","phone":null,"website":null,"wheelchair":false,"needsAddr":true},{"id":11013479599,"name":"大樹藥局","lat":22.7260662,"lng":120.3245066,"address":null,"hasBabyChanging":false,"hasAccessible":false,"source":"OpenStreetMap","updatedAt":"2026-06-12T02:55:18.707Z","facilityType":"clinic","facilityLabel":"🩺 診所","phone":null,"website":null,"wheelchair":false,"needsAddr":true},{"id":11013518361,"name":"九大聯合診所","lat":22.7269439,"lng":120.3248419,"address":null,"hasBabyChanging":false,"hasAccessible":false,"source":"OpenStreetMap","updatedAt":"2026-06-12T02:55:18.707Z","facilityType":"clinic","facilityLabel":"🩺 診所","phone":null,"website":null,"wheelchair":false,"needsAddr":true},{"id":11013518362,"name":"杏一","lat":22.7268833,"lng":120.3253515,"address":null,"hasBabyChanging":false,"hasAccessible":false,"source":"OpenStreetMap","updatedAt":"2026-06-12T02:55:18.707Z","facilityType":"pharmacy","facilityLabel":"💊 藥局","phone":null,"website":null,"wheelchair":false,"needsAddr":true},{"id":11013518364,"name":"祈福診所","lat":22.7288408,"lng":120.326187,"address":null,"hasBabyChanging":false,"hasAccessible":false,"source":"OpenStreetMap","updatedAt":"2026-06-12T02:55:18.707Z","facilityType":"clinic","facilityLabel":"🩺 診所","phone":null,"website":null,"wheelchair":false,"needsAddr":true},{"id":11013518366,"name":"廖宏輝診所","lat":22.7289824,"lng":120.3262749,"address":null,"hasBabyChanging":false,"hasAccessible":false,"source":"OpenStreetMap","updatedAt":"2026-06-12T02:55:18.707Z","facilityType":"clinic","facilityLabel":"🩺 診所","phone":null,"website":null,"wheelchair":false,"needsAddr":true},{"id":11013539726,"name":"頌讚牙醫診所","lat":22.7259914,"lng":120.3244637,"address":null,"hasBabyChanging":false,"hasAccessible":false,"source":"OpenStreetMap","updatedAt":"2026-06-12T02:55:18.707Z","facilityType":"dentist","facilityLabel":"🦷 牙醫","phone":null,"website":null,"wheelchair":false,"needsAddr":true},{"id":12762244500,"name":"醫務所","lat":22.7061465,"lng":120.2924969,"address":null,"hasBabyChanging":false,"hasAccessible":false,"source":"OpenStreetMap","updatedAt":"2026-06-12T02:55:18.707Z","facilityType":"clinic","facilityLabel":"🩺 診所","phone":null,"website":null,"wheelchair":false,"needsAddr":true},{"id":13860140128,"name":"養安中醫診所","lat":22.7375852,"lng":120.3248218,"address":"高雄市楠梓區清豐里45鄰楠梓路446號","hasBabyChanging":false,"hasAccessible":false,"source":"OpenStreetMap","updatedAt":"2026-06-12T02:55:18.707Z","facilityType":"clinic","facilityLabel":"🩺 診所","phone":null,"website":null,"wheelchair":false,"needsAddr":false},{"id":120104992,"name":"國軍高雄總醫院左營分院","lat":22.7026862,"lng":120.2908096,"address":"813高雄市左營區軍校路553號","hasBabyChanging":false,"hasAccessible":false,"source":"OpenStreetMap","updatedAt":"2026-06-12T02:55:18.707Z","facilityType":"hospital","facilityLabel":"🏥 醫院","phone":null,"website":null,"wheelchair":false,"needsAddr":false},{"id":126081005,"name":"右昌聯合醫院","lat":22.7135631,"lng":120.2909466,"address":"811高雄市楠梓區軍校路930號","hasBabyChanging":false,"hasAccessible":false,"source":"OpenStreetMap","updatedAt":"2026-06-12T02:55:18.707Z","facilityType":"hospital","facilityLabel":"🏥 醫院","phone":"+886 7 3643388","website":"https://www.ycuh.com.tw//","wheelchair":false,"needsAddr":false},{"id":230012494,"name":"健仁醫院","lat":22.7238059,"lng":120.3290731,"address":"811高雄市楠梓區楠陽路136號","hasBabyChanging":false,"hasAccessible":false,"source":"OpenStreetMap","updatedAt":"2026-06-12T02:55:18.707Z","facilityType":"hospital","facilityLabel":"🏥 醫院","phone":"+886 7 3517166","website":"https://www.jiannren.org.tw/","wheelchair":false,"needsAddr":false},{"id":336151603,"name":"楠梓區衛生所","lat":22.7322713,"lng":120.3283129,"address":"高雄市楠梓區楠梓路202號","hasBabyChanging":false,"hasAccessible":true,"source":"OpenStreetMap","updatedAt":"2026-06-12T02:55:18.707Z","facilityType":"health_center","facilityLabel":"🏥 衛生所","phone":"+886 7 351 2110","website":null,"wheelchair":true,"needsAddr":false},{"id":852417304,"name":"煉製事業部國光聯合診所","lat":22.7083115,"lng":120.3012913,"address":null,"hasBabyChanging":false,"hasAccessible":false,"source":"OpenStreetMap","updatedAt":"2026-06-12T02:55:18.707Z","facilityType":"clinic","facilityLabel":"🩺 診所","phone":null,"website":null,"wheelchair":false,"needsAddr":true}]}