{"city":"高雄市","district":"橋頭區","category":"medical","updatedAt":"2026-06-12T02:55:18.707Z","rev":1,"count":15,"items":[{"id":4007042169,"name":"陳性良診所","lat":22.753733,"lng":120.3071626,"address":"825高雄市橋頭區隆豐路220號","hasBabyChanging":false,"hasAccessible":false,"source":"OpenStreetMap","updatedAt":"2026-06-12T02:55:18.707Z","facilityType":"clinic","facilityLabel":"🩺 診所","phone":"+886 7 6127655","website":null,"wheelchair":false,"needsAddr":false},{"id":5568044813,"name":"正心診所","lat":22.7545629,"lng":120.306514,"address":"82541高雄市橋頭區隆豐路170號","hasBabyChanging":false,"hasAccessible":false,"source":"OpenStreetMap","updatedAt":"2026-06-12T02:55:18.707Z","facilityType":"clinic","facilityLabel":"👂 耳鼻喉科","phone":"+886 7 6128080","website":null,"wheelchair":false,"needsAddr":false},{"id":5724401415,"name":"丁丁藥局","lat":22.7527946,"lng":120.3128748,"address":"82541高雄市橋頭區成功南路148巷1號","hasBabyChanging":false,"hasAccessible":false,"source":"OpenStreetMap","updatedAt":"2026-06-12T02:55:18.707Z","facilityType":"pharmacy","facilityLabel":"💊 藥局","phone":"+886 7 6113633","website":"https://www.norbelbaby.com.tw/","wheelchair":false,"needsAddr":false},{"id":7185693464,"name":"昱佳藥局","lat":22.7491146,"lng":120.3098235,"address":"825高雄市橋頭區仕豐南路66號","hasBabyChanging":false,"hasAccessible":false,"source":"OpenStreetMap","updatedAt":"2026-06-12T02:55:18.707Z","facilityType":"pharmacy","facilityLabel":"💊 藥局","phone":"+886 7 6110302","website":null,"wheelchair":false,"needsAddr":false},{"id":7185717442,"name":"廖俊安診所","lat":22.7602416,"lng":120.3045446,"address":"825高雄市橋頭區樹德路63號零樓","hasBabyChanging":false,"hasAccessible":false,"source":"OpenStreetMap","updatedAt":"2026-06-12T02:55:18.707Z","facilityType":"clinic","facilityLabel":"🩺 診所","phone":"+886 7 6115040","website":null,"wheelchair":false,"needsAddr":false},{"id":7185717443,"name":"言安藥局","lat":22.7602797,"lng":120.3045442,"address":"825高雄市橋頭區樹德路65號零樓","hasBabyChanging":false,"hasAccessible":false,"source":"OpenStreetMap","updatedAt":"2026-06-12T02:55:18.707Z","facilityType":"pharmacy","facilityLabel":"💊 藥局","phone":"+886 7 6110719","website":null,"wheelchair":false,"needsAddr":false},{"id":7185745485,"name":"安麗兒藥局","lat":22.7549222,"lng":120.3061469,"address":"825高雄市橋頭區隆豐路148號","hasBabyChanging":false,"hasAccessible":false,"source":"OpenStreetMap","updatedAt":"2026-06-12T02:55:18.707Z","facilityType":"pharmacy","facilityLabel":"💊 藥局","phone":"+886 7 6111209","website":null,"wheelchair":false,"needsAddr":false},{"id":7185758444,"name":"和德藥局","lat":22.7544467,"lng":120.3124307,"address":"825高雄市橋頭區橋南路116-1號","hasBabyChanging":false,"hasAccessible":false,"source":"OpenStreetMap","updatedAt":"2026-06-12T02:55:18.707Z","facilityType":"pharmacy","facilityLabel":"💊 藥局","phone":"+886 7 6113580","website":null,"wheelchair":false,"needsAddr":false},{"id":7185763507,"name":"照安藥局","lat":22.7558581,"lng":120.3117749,"address":"825高雄市橋頭區橋南路55號","hasBabyChanging":false,"hasAccessible":false,"source":"OpenStreetMap","updatedAt":"2026-06-12T02:55:18.707Z","facilityType":"pharmacy","facilityLabel":"💊 藥局","phone":"+886 7 6113230","website":null,"wheelchair":false,"needsAddr":false},{"id":7185765758,"name":"民權藥局","lat":22.756402,"lng":120.3105979,"address":"825高雄市橋頭區成功路229號","hasBabyChanging":false,"hasAccessible":false,"source":"OpenStreetMap","updatedAt":"2026-06-12T02:55:18.707Z","facilityType":"pharmacy","facilityLabel":"💊 藥局","phone":"+886 7 6113632","website":null,"wheelchair":false,"needsAddr":false},{"id":7246912047,"name":"屈臣氏","lat":22.7539435,"lng":120.307288,"address":"825高雄市橋頭區隆豐路201號","hasBabyChanging":false,"hasAccessible":false,"source":"OpenStreetMap","updatedAt":"2026-06-12T02:55:18.707Z","facilityType":"pharmacy","facilityLabel":"💊 藥妝","phone":"+886 7 6117337","website":"https://www.watsons.com.tw/","wheelchair":false,"needsAddr":false},{"id":7867485269,"name":"慈德診所","lat":22.7499095,"lng":120.3065441,"address":"825高雄市橋頭區仕豐路97號","hasBabyChanging":false,"hasAccessible":false,"source":"OpenStreetMap","updatedAt":"2026-06-12T02:55:18.707Z","facilityType":"clinic","facilityLabel":"🩺 診所","phone":"+886 7 6112927","website":null,"wheelchair":false,"needsAddr":false},{"id":11329288494,"name":"大樹藥局","lat":22.7559523,"lng":120.3054066,"address":"825001高雄市橋頭區隆豐路120號","hasBabyChanging":false,"hasAccessible":false,"source":"OpenStreetMap","updatedAt":"2026-06-12T02:55:18.707Z","facilityType":"pharmacy","facilityLabel":"💊 藥局","phone":"+886 7 611 1300","website":"https://www.greattree.com.tw","wheelchair":false,"needsAddr":false},{"id":382800856,"name":"順和藥局","lat":22.7514434,"lng":120.3087388,"address":"825高雄市橋頭區仕豐路5號","hasBabyChanging":false,"hasAccessible":false,"source":"OpenStreetMap","updatedAt":"2026-06-12T02:55:18.707Z","facilityType":"pharmacy","facilityLabel":"💊 藥局","phone":"+886 7 6118688","website":null,"wheelchair":false,"needsAddr":false},{"id":395738977,"name":"橋頭區衛生所","lat":22.7573421,"lng":120.3054537,"address":"825高雄市橋頭區隆豐路2號","hasBabyChanging":false,"hasAccessible":false,"source":"OpenStreetMap","updatedAt":"2026-06-12T02:55:18.707Z","facilityType":"health_center","facilityLabel":"🏥 衛生所","phone":"+886 7 6120762","website":null,"wheelchair":false,"needsAddr":false}]}