{"city":"高雄市","district":"燕巢區","category":"medical","updatedAt":"2026-06-12T02:55:18.707Z","rev":1,"count":6,"items":[{"id":3361687433,"name":"燕巢衛生所","lat":22.7932059,"lng":120.361214,"address":null,"hasBabyChanging":false,"hasAccessible":false,"source":"OpenStreetMap","updatedAt":"2026-06-12T02:55:18.707Z","facilityType":"health_center","facilityLabel":"🏥 衛生所","phone":null,"website":null,"wheelchair":false,"needsAddr":true},{"id":10963210696,"name":"杏一","lat":22.7582927,"lng":120.3602779,"address":null,"hasBabyChanging":false,"hasAccessible":false,"source":"OpenStreetMap","updatedAt":"2026-06-12T02:55:18.707Z","facilityType":"pharmacy","facilityLabel":"💊 藥局","phone":null,"website":null,"wheelchair":false,"needsAddr":true},{"id":11007323585,"name":"全加診所","lat":22.7933101,"lng":120.3632659,"address":null,"hasBabyChanging":false,"hasAccessible":false,"source":"OpenStreetMap","updatedAt":"2026-06-12T02:55:18.707Z","facilityType":"clinic","facilityLabel":"🩺 診所","phone":null,"website":null,"wheelchair":false,"needsAddr":true},{"id":11012836728,"name":"寶雅","lat":22.7927797,"lng":120.3549698,"address":null,"hasBabyChanging":false,"hasAccessible":false,"source":"OpenStreetMap","updatedAt":"2026-06-12T02:55:18.707Z","facilityType":"pharmacy","facilityLabel":"💊 藥局","phone":null,"website":null,"wheelchair":false,"needsAddr":true},{"id":165578312,"name":"義大醫院","lat":22.765949,"lng":120.3630096,"address":"824高雄市燕巢區義大路1號","hasBabyChanging":false,"hasAccessible":false,"source":"OpenStreetMap","updatedAt":"2026-06-12T02:55:18.707Z","facilityType":"hospital","facilityLabel":"🏥 醫院","phone":"+886 7 615 0011","website":"https://www.edah.org.tw/","wheelchair":false,"needsAddr":false},{"id":398450502,"name":"靜和醫院燕巢分院","lat":22.7817901,"lng":120.4165443,"address":"高雄市燕巢區深水里2鄰深水路3之20號","hasBabyChanging":false,"hasAccessible":false,"source":"OpenStreetMap","updatedAt":"2026-06-12T02:55:18.707Z","facilityType":"hospital","facilityLabel":"🏥 醫院","phone":"+886 7 6156555","website":"https://www.jing-ho.com.tw/","wheelchair":false,"needsAddr":false}]}