{"city":"台中市","district":"外埔區","category":"family","updatedAt":"2026-06-10T15:41:05.166Z","rev":14,"count":19,"items":[{"id":260894914,"name":"省牧場平交道","lat":24.3314834,"lng":120.6141985,"address":null,"hasBabyChanging":false,"hasAccessible":false,"source":"OpenStreetMap","updatedAt":"2026-06-10T15:41:05.166Z","facilityType":"farm","facilityLabel":"🌾 休閒農場","phone":null,"website":null,"wheelchair":false,"paid":null,"needsAddr":true},{"id":664098096,"name":"天馬牧場","lat":24.3313441,"lng":120.6202417,"address":null,"hasBabyChanging":false,"hasAccessible":false,"source":"OpenStreetMap","updatedAt":"2026-06-10T15:41:05.166Z","facilityType":"farm","facilityLabel":"🌾 休閒農場","phone":null,"website":null,"wheelchair":false,"paid":null,"needsAddr":true},{"id":1136506018,"name":"日光牧場","lat":24.3563114,"lng":120.6539111,"address":null,"hasBabyChanging":false,"hasAccessible":false,"source":"OpenStreetMap","updatedAt":"2026-06-10T15:41:05.166Z","facilityType":"farm","facilityLabel":"🌾 休閒農場","phone":null,"website":null,"wheelchair":false,"paid":null,"needsAddr":true},{"id":275616876,"name":"裕珍馨觀光工廠","lat":24.33939795,"lng":120.6415773,"address":null,"hasBabyChanging":false,"hasAccessible":false,"source":"OpenStreetMap","updatedAt":"2026-06-10T15:41:05.166Z","facilityType":"factory","facilityLabel":"🏭 觀光工廠","phone":null,"website":null,"wheelchair":false,"paid":null,"needsAddr":true},{"id":301730802,"name":"麗寶樂園渡假村","lat":24.3233677,"lng":120.69273785,"address":null,"hasBabyChanging":false,"hasAccessible":false,"source":"OpenStreetMap","updatedAt":"2026-06-10T15:41:05.166Z","facilityType":"mall","facilityLabel":"🛍 商場親子","phone":null,"website":"http://www.lihpaoland.com.tw/","wheelchair":false,"paid":null,"needsAddr":true},{"id":352115897,"name":"幸福公園","lat":24.34093125,"lng":120.63330545,"address":null,"hasBabyChanging":false,"hasAccessible":false,"source":"OpenStreetMap","updatedAt":"2026-06-10T15:41:05.166Z","facilityType":"park","facilityLabel":"🌳 小型公園","phone":null,"website":null,"wheelchair":false,"paid":null,"needsAddr":true},{"id":541910290,"name":"臺中花博外埔園區","lat":24.3242255,"lng":120.6831311,"address":null,"hasBabyChanging":false,"hasAccessible":false,"source":"OpenStreetMap","updatedAt":"2026-06-10T15:41:05.166Z","facilityType":"park","facilityLabel":"🌳 大型公園","phone":null,"website":null,"wheelchair":false,"paid":null,"needsAddr":true},{"id":975336800,"name":"摩天輪營地","lat":24.32779845,"lng":120.70032105,"address":null,"hasBabyChanging":false,"hasAccessible":false,"source":"OpenStreetMap","updatedAt":"2026-06-10T15:41:05.166Z","facilityType":"camp","facilityLabel":"⛺ 露營休閒","phone":null,"website":null,"wheelchair":false,"paid":null,"needsAddr":true},{"id":989270761,"name":"重光公園","lat":24.33094055,"lng":120.65249449999999,"address":null,"hasBabyChanging":false,"hasAccessible":false,"source":"OpenStreetMap","updatedAt":"2026-06-10T15:41:05.166Z","facilityType":"park","facilityLabel":"🌳 小型公園","phone":null,"website":null,"wheelchair":false,"paid":null,"needsAddr":true},{"id":1013434346,"name":"石頭公園生態休閒農場","lat":24.354853900000002,"lng":120.67506995,"address":"438臺中市外埔區廍子路108號","hasBabyChanging":false,"hasAccessible":false,"source":"OpenStreetMap","updatedAt":"2026-06-10T15:41:05.166Z","facilityType":"farm","facilityLabel":"🌾 休閒農場","phone":"+886 4 2683 9888","website":"https://www.facebook.com/StonePark2018/?locale=zh_TW","wheelchair":false,"paid":true,"needsAddr":false},{"id":1044716448,"name":"外埔區親水公園","lat":24.332766149999998,"lng":120.65148665,"address":null,"hasBabyChanging":false,"hasAccessible":false,"source":"OpenStreetMap","updatedAt":"2026-06-10T15:41:05.166Z","facilityType":"water","facilityLabel":"💧 戲水親水","phone":null,"website":null,"wheelchair":false,"paid":null,"needsAddr":true},{"id":1124810542,"name":"鐵山腳公園","lat":24.3461061,"lng":120.64205845000001,"address":null,"hasBabyChanging":false,"hasAccessible":false,"source":"OpenStreetMap","updatedAt":"2026-06-10T15:41:05.166Z","facilityType":"park","facilityLabel":"🌳 小型公園","phone":null,"website":null,"wheelchair":false,"paid":null,"needsAddr":true},{"id":1154793791,"name":"大東公園","lat":24.3380236,"lng":120.64242315,"address":null,"hasBabyChanging":false,"hasAccessible":false,"source":"OpenStreetMap","updatedAt":"2026-06-10T15:41:05.166Z","facilityType":"park","facilityLabel":"🌳 小型公園","phone":null,"website":null,"wheelchair":false,"paid":null,"needsAddr":true},{"id":1154793792,"name":"水美公園","lat":24.3336571,"lng":120.6332411,"address":null,"hasBabyChanging":false,"hasAccessible":false,"source":"OpenStreetMap","updatedAt":"2026-06-10T15:41:05.166Z","facilityType":"park","facilityLabel":"🌳 小型公園","phone":null,"website":null,"wheelchair":false,"paid":null,"needsAddr":true},{"id":1154793793,"name":"磁磘公園","lat":24.33025255,"lng":120.6536844,"address":null,"hasBabyChanging":false,"hasAccessible":false,"source":"OpenStreetMap","updatedAt":"2026-06-10T15:41:05.166Z","facilityType":"park","facilityLabel":"🌳 小型公園","phone":null,"website":null,"wheelchair":false,"paid":null,"needsAddr":true},{"id":1154793794,"name":"六分公園","lat":24.3313735,"lng":120.6567964,"address":null,"hasBabyChanging":false,"hasAccessible":false,"source":"OpenStreetMap","updatedAt":"2026-06-10T15:41:05.166Z","facilityType":"park","facilityLabel":"🌳 小型公園","phone":null,"website":null,"wheelchair":false,"paid":null,"needsAddr":true},{"id":1154793795,"name":"龍鳳公園","lat":24.3287975,"lng":120.65477139999999,"address":null,"hasBabyChanging":false,"hasAccessible":false,"source":"OpenStreetMap","updatedAt":"2026-06-10T15:41:05.166Z","facilityType":"park","facilityLabel":"🌳 小型公園","phone":null,"website":null,"wheelchair":false,"paid":null,"needsAddr":true},{"id":1204064394,"name":"中華民國農會休閒綜合農牧場","lat":24.33041485,"lng":120.6197804,"address":null,"hasBabyChanging":false,"hasAccessible":false,"source":"OpenStreetMap","updatedAt":"2026-06-10T15:41:05.166Z","facilityType":"farm","facilityLabel":"🌾 休閒農場","phone":null,"website":null,"wheelchair":false,"paid":null,"needsAddr":true},{"id":1204064395,"name":"中華民國農會休閒綜合農牧場","lat":24.3271575,"lng":120.6197731,"address":null,"hasBabyChanging":false,"hasAccessible":false,"source":"OpenStreetMap","updatedAt":"2026-06-10T15:41:05.166Z","facilityType":"farm","facilityLabel":"🌾 休閒農場","phone":null,"website":null,"wheelchair":false,"paid":null,"needsAddr":true}]}