{"city":"台中市","district":"梧棲區","category":"family","updatedAt":"2026-06-10T15:41:05.166Z","rev":14,"count":19,"items":[{"id":6125150299,"name":"SNOW TOWN","lat":24.2595413,"lng":120.5168946,"address":null,"hasBabyChanging":false,"hasAccessible":false,"source":"OpenStreetMap","updatedAt":"2026-06-10T15:41:05.166Z","facilityType":"theme_park","facilityLabel":"🎡 遊樂園","phone":null,"website":null,"wheelchair":false,"paid":null,"needsAddr":true},{"id":6125150300,"name":"ASOBI SQUARE","lat":24.2597712,"lng":120.5169681,"address":null,"hasBabyChanging":false,"hasAccessible":false,"source":"OpenStreetMap","updatedAt":"2026-06-10T15:41:05.166Z","facilityType":"theme_park","facilityLabel":"🎡 遊樂園","phone":null,"website":null,"wheelchair":false,"paid":null,"needsAddr":true},{"id":9453528030,"name":"臺中市立圖書館梧棲親子館","lat":24.251971,"lng":120.532989,"address":null,"hasBabyChanging":false,"hasAccessible":false,"source":"OpenStreetMap","updatedAt":"2026-06-10T15:41:05.166Z","facilityType":"kids","facilityLabel":"🧸 親子館","phone":null,"website":null,"wheelchair":false,"paid":true,"needsAddr":true},{"id":313373003,"name":"梧棲區運動公園","lat":24.2472588,"lng":120.5292634,"address":null,"hasBabyChanging":false,"hasAccessible":false,"source":"OpenStreetMap","updatedAt":"2026-06-10T15:41:05.166Z","facilityType":"park","facilityLabel":"🌳 中型公園","phone":null,"website":null,"wheelchair":false,"paid":null,"needsAddr":true},{"id":313373004,"name":"梧棲運動公園","lat":24.249111550000002,"lng":120.529829,"address":null,"hasBabyChanging":false,"hasAccessible":false,"source":"OpenStreetMap","updatedAt":"2026-06-10T15:41:05.166Z","facilityType":"park","facilityLabel":"🌳 中型公園","phone":null,"website":null,"wheelchair":false,"paid":null,"needsAddr":true},{"id":1117530251,"name":"梧棲兒童第二公園","lat":24.240888249999998,"lng":120.5315645,"address":null,"hasBabyChanging":false,"hasAccessible":false,"source":"OpenStreetMap","updatedAt":"2026-06-10T15:41:05.166Z","facilityType":"park","facilityLabel":"🌳 小型公園","phone":null,"website":null,"wheelchair":false,"paid":null,"needsAddr":true},{"id":491095145,"name":"三井 OUTLET","lat":24.25821575,"lng":120.5190053,"address":"43541臺中市梧棲區台灣大道十段168號","hasBabyChanging":false,"hasAccessible":false,"source":"OpenStreetMap","updatedAt":"2026-06-10T15:41:05.166Z","facilityType":"mall","facilityLabel":"🛍 商場親子","phone":null,"website":null,"wheelchair":false,"paid":null,"needsAddr":false},{"id":526925881,"name":"南簡公園","lat":24.258778300000003,"lng":120.5441935,"address":null,"hasBabyChanging":false,"hasAccessible":false,"source":"OpenStreetMap","updatedAt":"2026-06-10T15:41:05.166Z","facilityType":"park","facilityLabel":"🌳 中型公園","phone":null,"website":null,"wheelchair":false,"paid":null,"needsAddr":true},{"id":526927349,"name":"魚寮運動公園","lat":24.26254,"lng":120.5305125,"address":null,"hasBabyChanging":false,"hasAccessible":false,"source":"OpenStreetMap","updatedAt":"2026-06-10T15:41:05.166Z","facilityType":"park","facilityLabel":"🌳 小型公園","phone":null,"website":null,"wheelchair":false,"paid":null,"needsAddr":true},{"id":526931535,"name":"情人公園","lat":24.255186600000002,"lng":120.53262685,"address":null,"hasBabyChanging":false,"hasAccessible":false,"source":"OpenStreetMap","updatedAt":"2026-06-10T15:41:05.166Z","facilityType":"park","facilityLabel":"🌳 小型公園","phone":null,"website":null,"wheelchair":false,"paid":null,"needsAddr":true},{"id":526982231,"name":"大溝公園","lat":24.2580217,"lng":120.530889,"address":null,"hasBabyChanging":false,"hasAccessible":false,"source":"OpenStreetMap","updatedAt":"2026-06-10T15:41:05.166Z","facilityType":"park","facilityLabel":"🌳 小型公園","phone":null,"website":null,"wheelchair":false,"paid":null,"needsAddr":true},{"id":527008412,"name":"奇妙電子遊戲場","lat":24.25890115,"lng":120.537428,"address":null,"hasBabyChanging":false,"hasAccessible":false,"source":"OpenStreetMap","updatedAt":"2026-06-10T15:41:05.166Z","facilityType":"park","facilityLabel":"🌳 小型公園","phone":null,"website":null,"wheelchair":false,"paid":null,"needsAddr":true},{"id":527028918,"name":"市立圖書館 梧棲親子館","lat":24.2517441,"lng":120.53313535000001,"address":null,"hasBabyChanging":false,"hasAccessible":false,"source":"OpenStreetMap","updatedAt":"2026-06-10T15:41:05.166Z","facilityType":"kids","facilityLabel":"🧸 親子館","phone":null,"website":null,"wheelchair":false,"paid":null,"needsAddr":true},{"id":547661824,"name":"台中港榕樹公園","lat":24.2718241,"lng":120.53186195,"address":null,"hasBabyChanging":false,"hasAccessible":false,"source":"OpenStreetMap","updatedAt":"2026-06-10T15:41:05.166Z","facilityType":"park","facilityLabel":"🌳 小型公園","phone":null,"website":null,"wheelchair":false,"paid":null,"needsAddr":true},{"id":591456741,"name":"地景公園","lat":24.266149900000002,"lng":120.53294565,"address":null,"hasBabyChanging":false,"hasAccessible":false,"source":"OpenStreetMap","updatedAt":"2026-06-10T15:41:05.166Z","facilityType":"park","facilityLabel":"🌳 中型公園","phone":null,"website":null,"wheelchair":false,"paid":null,"needsAddr":true},{"id":639689848,"name":"頂魚寮公園","lat":24.2646638,"lng":120.53709180000001,"address":null,"hasBabyChanging":false,"hasAccessible":false,"source":"OpenStreetMap","updatedAt":"2026-06-10T15:41:05.166Z","facilityType":"park","facilityLabel":"🌳 中型公園","phone":null,"website":null,"wheelchair":false,"paid":null,"needsAddr":true},{"id":641396835,"name":"加工出口區中港園區環保公園","lat":24.23806145,"lng":120.51294975,"address":null,"hasBabyChanging":false,"hasAccessible":false,"source":"OpenStreetMap","updatedAt":"2026-06-10T15:41:05.166Z","facilityType":"park","facilityLabel":"🌳 中型公園","phone":null,"website":null,"wheelchair":false,"paid":null,"needsAddr":true},{"id":645171616,"name":"港區公園","lat":24.256503549999998,"lng":120.52219975,"address":null,"hasBabyChanging":false,"hasAccessible":false,"source":"OpenStreetMap","updatedAt":"2026-06-10T15:41:05.166Z","facilityType":"park","facilityLabel":"🌳 中型公園","phone":null,"website":null,"wheelchair":false,"paid":null,"needsAddr":true},{"id":645171619,"name":"港區公園","lat":24.258875,"lng":120.5218042,"address":null,"hasBabyChanging":false,"hasAccessible":false,"source":"OpenStreetMap","updatedAt":"2026-06-10T15:41:05.166Z","facilityType":"park","facilityLabel":"🌳 中型公園","phone":null,"website":null,"wheelchair":false,"paid":null,"needsAddr":true}]}