{"city":"台中市","district":"沙鹿區","category":"family","updatedAt":"2026-06-10T15:41:05.166Z","rev":14,"count":19,"items":[{"id":4081270498,"name":"藝術中心","lat":24.2266377,"lng":120.5798983,"address":null,"hasBabyChanging":false,"hasAccessible":false,"source":"OpenStreetMap","updatedAt":"2026-06-10T15:41:05.166Z","facilityType":"spot","facilityLabel":"📍 親子景點","phone":null,"website":null,"wheelchair":false,"paid":null,"needsAddr":true},{"id":222442314,"name":"沙鹿公園","lat":24.23379575,"lng":120.5647433,"address":"臺中市沙鹿區鎮南路二段500號","hasBabyChanging":false,"hasAccessible":false,"source":"OpenStreetMap","updatedAt":"2026-06-10T15:41:05.166Z","facilityType":"park","facilityLabel":"🌳 中型公園","phone":null,"website":null,"wheelchair":false,"paid":null,"needsAddr":false},{"id":314373925,"name":"臺中都會公園","lat":24.20770285,"lng":120.59737770000001,"address":null,"hasBabyChanging":false,"hasAccessible":false,"source":"OpenStreetMap","updatedAt":"2026-06-10T15:41:05.166Z","facilityType":"park","facilityLabel":"🌳 超大型公園","phone":null,"website":"http://tcmp.cpami.gov.tw/","wheelchair":false,"paid":null,"needsAddr":true},{"id":338493512,"name":"青山公園","lat":24.2254511,"lng":120.5673384,"address":null,"hasBabyChanging":false,"hasAccessible":false,"source":"OpenStreetMap","updatedAt":"2026-06-10T15:41:05.166Z","facilityType":"park","facilityLabel":"🌳 中型公園","phone":null,"website":null,"wheelchair":false,"paid":null,"needsAddr":true},{"id":346686246,"name":"鹿鳴公園","lat":24.243295099999997,"lng":120.5675944,"address":"臺中市沙鹿區鹿寮里光華路378巷1號","hasBabyChanging":false,"hasAccessible":false,"source":"OpenStreetMap","updatedAt":"2026-06-10T15:41:05.166Z","facilityType":"park","facilityLabel":"🌳 中型公園","phone":null,"website":null,"wheelchair":false,"paid":null,"needsAddr":false},{"id":353330116,"name":"親鳥公園","lat":24.2678495,"lng":120.5815506,"address":null,"hasBabyChanging":false,"hasAccessible":false,"source":"OpenStreetMap","updatedAt":"2026-06-10T15:41:05.166Z","facilityType":"park","facilityLabel":"🌳 中型公園","phone":null,"website":null,"wheelchair":false,"paid":null,"needsAddr":true},{"id":353331632,"name":"鰲峰山公園","lat":24.271079200000003,"lng":120.58215185,"address":null,"hasBabyChanging":false,"hasAccessible":false,"source":"OpenStreetMap","updatedAt":"2026-06-10T15:41:05.166Z","facilityType":"park","facilityLabel":"🌳 大型公園","phone":null,"website":null,"wheelchair":false,"paid":null,"needsAddr":true},{"id":353991794,"name":"明秀公園","lat":24.204434499999998,"lng":120.57331255,"address":null,"hasBabyChanging":false,"hasAccessible":false,"source":"OpenStreetMap","updatedAt":"2026-06-10T15:41:05.166Z","facilityType":"park","facilityLabel":"🌳 中型公園","phone":null,"website":null,"wheelchair":false,"paid":null,"needsAddr":true},{"id":353991795,"name":"南勢溪公園","lat":24.216382799999998,"lng":120.56347535,"address":null,"hasBabyChanging":false,"hasAccessible":false,"source":"OpenStreetMap","updatedAt":"2026-06-10T15:41:05.166Z","facilityType":"park","facilityLabel":"🌳 小型公園","phone":null,"website":null,"wheelchair":false,"paid":null,"needsAddr":true},{"id":353991796,"name":"六福公園","lat":24.2160236,"lng":120.57920835,"address":null,"hasBabyChanging":false,"hasAccessible":false,"source":"OpenStreetMap","updatedAt":"2026-06-10T15:41:05.166Z","facilityType":"park","facilityLabel":"🌳 中型公園","phone":null,"website":null,"wheelchair":false,"paid":null,"needsAddr":true},{"id":354002394,"name":"沙鹿區兒童公園","lat":24.229187,"lng":120.5698822,"address":null,"hasBabyChanging":false,"hasAccessible":false,"source":"OpenStreetMap","updatedAt":"2026-06-10T15:41:05.166Z","facilityType":"park","facilityLabel":"🌳 小型公園","phone":null,"website":null,"wheelchair":false,"paid":null,"needsAddr":true},{"id":557400336,"name":"三鹿公園","lat":24.20145695,"lng":120.56773655,"address":null,"hasBabyChanging":false,"hasAccessible":false,"source":"OpenStreetMap","updatedAt":"2026-06-10T15:41:05.166Z","facilityType":"park","facilityLabel":"🌳 小型公園","phone":null,"website":null,"wheelchair":false,"paid":null,"needsAddr":true},{"id":633051369,"name":"舞衫公園","lat":24.2094694,"lng":120.55530855,"address":null,"hasBabyChanging":false,"hasAccessible":false,"source":"OpenStreetMap","updatedAt":"2026-06-10T15:41:05.166Z","facilityType":"park","facilityLabel":"🌳 中型公園","phone":null,"website":null,"wheelchair":false,"paid":null,"needsAddr":true},{"id":760924137,"name":"洛泉公園","lat":24.23676,"lng":120.56361705,"address":null,"hasBabyChanging":false,"hasAccessible":false,"source":"OpenStreetMap","updatedAt":"2026-06-10T15:41:05.166Z","facilityType":"park","facilityLabel":"🌳 小型公園","phone":null,"website":null,"wheelchair":false,"paid":null,"needsAddr":true},{"id":959941573,"name":"鹿峰公園","lat":24.2595625,"lng":120.57454494999999,"address":null,"hasBabyChanging":false,"hasAccessible":false,"source":"OpenStreetMap","updatedAt":"2026-06-10T15:41:05.166Z","facilityType":"park","facilityLabel":"🌳 小型公園","phone":null,"website":null,"wheelchair":false,"paid":null,"needsAddr":true},{"id":1093580786,"name":"晉宜公園","lat":24.2233806,"lng":120.58108855,"address":null,"hasBabyChanging":false,"hasAccessible":false,"source":"OpenStreetMap","updatedAt":"2026-06-10T15:41:05.166Z","facilityType":"park","facilityLabel":"🌳 小型公園","phone":null,"website":null,"wheelchair":false,"paid":null,"needsAddr":true},{"id":1093580787,"name":"青年公園","lat":24.221975399999998,"lng":120.57351875,"address":null,"hasBabyChanging":false,"hasAccessible":false,"source":"OpenStreetMap","updatedAt":"2026-06-10T15:41:05.166Z","facilityType":"park","facilityLabel":"🌳 小型公園","phone":null,"website":null,"wheelchair":false,"paid":null,"needsAddr":true},{"id":1302166689,"name":"光大公園","lat":24.2439476,"lng":120.56555365,"address":null,"hasBabyChanging":false,"hasAccessible":false,"source":"OpenStreetMap","updatedAt":"2026-06-10T15:41:05.166Z","facilityType":"park","facilityLabel":"🌳 小型公園","phone":null,"website":null,"wheelchair":false,"paid":null,"needsAddr":true},{"id":1473763296,"name":"沙鹿區公所前廣場公園","lat":24.2337372,"lng":120.56594630000001,"address":null,"hasBabyChanging":false,"hasAccessible":false,"source":"OpenStreetMap","updatedAt":"2026-06-10T15:41:05.166Z","facilityType":"park","facilityLabel":"🌳 小型公園","phone":null,"website":null,"wheelchair":false,"paid":null,"needsAddr":true}]}