{"city":"台中市","district":"石岡區","category":"family","updatedAt":"2026-06-10T15:41:05.166Z","rev":14,"count":6,"items":[{"id":264061322,"name":"土牛休閒運動公園","lat":24.267313,"lng":120.8135415,"address":null,"hasBabyChanging":false,"hasAccessible":false,"source":"OpenStreetMap","updatedAt":"2026-06-10T15:41:05.166Z","facilityType":"park","facilityLabel":"🌳 大型公園","phone":null,"website":null,"wheelchair":false,"paid":null,"needsAddr":true},{"id":266321806,"name":"和盛公園","lat":24.258442600000002,"lng":120.8157443,"address":null,"hasBabyChanging":false,"hasAccessible":false,"source":"OpenStreetMap","updatedAt":"2026-06-10T15:41:05.166Z","facilityType":"park","facilityLabel":"🌳 小型公園","phone":null,"website":null,"wheelchair":false,"paid":null,"needsAddr":true},{"id":288728174,"name":"萬興公園","lat":24.2740607,"lng":120.79369324999999,"address":null,"hasBabyChanging":false,"hasAccessible":false,"source":"OpenStreetMap","updatedAt":"2026-06-10T15:41:05.166Z","facilityType":"park","facilityLabel":"🌳 小型公園","phone":null,"website":null,"wheelchair":false,"paid":null,"needsAddr":true},{"id":293949761,"name":"萬興公園","lat":24.27419525,"lng":120.79192760000001,"address":null,"hasBabyChanging":false,"hasAccessible":false,"source":"OpenStreetMap","updatedAt":"2026-06-10T15:41:05.166Z","facilityType":"park","facilityLabel":"🌳 小型公園","phone":null,"website":null,"wheelchair":false,"paid":null,"needsAddr":true},{"id":1460289596,"name":"八仙山森林鐵道","lat":24.2560418,"lng":120.8155166,"address":null,"hasBabyChanging":false,"hasAccessible":false,"source":"OpenStreetMap","updatedAt":"2026-06-10T15:41:05.166Z","facilityType":"railway","facilityLabel":"🚂 鐵道交通","phone":null,"website":null,"wheelchair":false,"paid":null,"needsAddr":true},{"id":1460289598,"name":"八仙山森林鐵道","lat":24.26988175,"lng":120.8037252,"address":null,"hasBabyChanging":false,"hasAccessible":false,"source":"OpenStreetMap","updatedAt":"2026-06-10T15:41:05.166Z","facilityType":"railway","facilityLabel":"🚂 鐵道交通","phone":null,"website":null,"wheelchair":false,"paid":null,"needsAddr":true}]}