{"city":"彰化縣","district":"和美鎮","category":"medical","updatedAt":"2026-06-12T14:35:28.702Z","rev":1,"count":19,"items":[{"id":2074490069,"name":"屈臣氏","lat":24.1121373,"lng":120.4978535,"address":null,"hasBabyChanging":false,"hasAccessible":false,"source":"OpenStreetMap","updatedAt":"2026-06-12T14:35:28.702Z","facilityType":"pharmacy","facilityLabel":"💊 藥妝","phone":null,"website":null,"wheelchair":false,"needsAddr":true},{"id":2074492063,"name":"康是美","lat":24.1114714,"lng":120.4987547,"address":null,"hasBabyChanging":false,"hasAccessible":false,"source":"OpenStreetMap","updatedAt":"2026-06-12T14:35:28.702Z","facilityType":"pharmacy","facilityLabel":"💊 藥妝","phone":null,"website":null,"wheelchair":false,"needsAddr":true},{"id":2087077478,"name":"權美牙醫","lat":24.1083745,"lng":120.4954438,"address":null,"hasBabyChanging":false,"hasAccessible":false,"source":"OpenStreetMap","updatedAt":"2026-06-12T14:35:28.702Z","facilityType":"dentist","facilityLabel":"🦷 牙醫","phone":null,"website":null,"wheelchair":false,"needsAddr":true},{"id":2087095075,"name":"丁丁藥局","lat":24.1075875,"lng":120.4970915,"address":"50845彰化縣和美鎮道周路312號","hasBabyChanging":false,"hasAccessible":false,"source":"OpenStreetMap","updatedAt":"2026-06-12T14:35:28.702Z","facilityType":"pharmacy","facilityLabel":"💊 藥局","phone":"+886-4 7576 322","website":"https://www.norbelbaby.com.tw/","wheelchair":false,"needsAddr":false},{"id":2090847087,"name":"順天醫院","lat":24.1157082,"lng":120.4957453,"address":null,"hasBabyChanging":false,"hasAccessible":false,"source":"OpenStreetMap","updatedAt":"2026-06-12T14:35:28.702Z","facilityType":"hospital","facilityLabel":"🏥 醫院","phone":null,"website":null,"wheelchair":false,"needsAddr":true},{"id":2090847089,"name":"和田藥局","lat":24.1142244,"lng":120.4931653,"address":null,"hasBabyChanging":false,"hasAccessible":false,"source":"OpenStreetMap","updatedAt":"2026-06-12T14:35:28.702Z","facilityType":"pharmacy","facilityLabel":"💊 藥局","phone":null,"website":null,"wheelchair":false,"needsAddr":true},{"id":2090847093,"name":"ㄧ品堂中醫診所","lat":24.1149184,"lng":120.4950738,"address":null,"hasBabyChanging":false,"hasAccessible":false,"source":"OpenStreetMap","updatedAt":"2026-06-12T14:35:28.702Z","facilityType":"clinic","facilityLabel":"🩺 診所","phone":null,"website":null,"wheelchair":false,"needsAddr":true},{"id":2090847096,"name":"黃志平牙醫診所","lat":24.1146905,"lng":120.4949183,"address":null,"hasBabyChanging":false,"hasAccessible":false,"source":"OpenStreetMap","updatedAt":"2026-06-12T14:35:28.702Z","facilityType":"dentist","facilityLabel":"🦷 牙醫","phone":null,"website":null,"wheelchair":false,"needsAddr":true},{"id":4315420590,"name":"和平藥局","lat":24.1124996,"lng":120.4985907,"address":null,"hasBabyChanging":false,"hasAccessible":false,"source":"OpenStreetMap","updatedAt":"2026-06-12T14:35:28.702Z","facilityType":"pharmacy","facilityLabel":"💊 藥局","phone":null,"website":null,"wheelchair":false,"needsAddr":true},{"id":4510725418,"name":"東方中醫診所","lat":24.107199,"lng":120.5008447,"address":null,"hasBabyChanging":false,"hasAccessible":false,"source":"OpenStreetMap","updatedAt":"2026-06-12T14:35:28.702Z","facilityType":"clinic","facilityLabel":"🩺 診所","phone":null,"website":null,"wheelchair":false,"needsAddr":true},{"id":5115433786,"name":"和美衛生所","lat":24.1108141,"lng":120.49973,"address":null,"hasBabyChanging":false,"hasAccessible":false,"source":"OpenStreetMap","updatedAt":"2026-06-12T14:35:28.702Z","facilityType":"health_center","facilityLabel":"🏥 衛生所","phone":null,"website":null,"wheelchair":false,"needsAddr":true},{"id":5905574093,"name":"福倫藥局","lat":24.1146508,"lng":120.4963817,"address":null,"hasBabyChanging":false,"hasAccessible":false,"source":"OpenStreetMap","updatedAt":"2026-06-12T14:35:28.702Z","facilityType":"pharmacy","facilityLabel":"💊 藥局","phone":null,"website":null,"wheelchair":false,"needsAddr":true},{"id":5905592275,"name":"蔡盈德眼科診所","lat":24.1158012,"lng":120.4953173,"address":null,"hasBabyChanging":false,"hasAccessible":false,"source":"OpenStreetMap","updatedAt":"2026-06-12T14:35:28.702Z","facilityType":"clinic","facilityLabel":"🩺 診所","phone":null,"website":null,"wheelchair":false,"needsAddr":true},{"id":9141504058,"name":"吳祥富內科復健科診所","lat":24.1090969,"lng":120.5008358,"address":null,"hasBabyChanging":false,"hasAccessible":false,"source":"OpenStreetMap","updatedAt":"2026-06-12T14:35:28.702Z","facilityType":"clinic","facilityLabel":"🦽 復健科","phone":null,"website":null,"wheelchair":false,"needsAddr":true},{"id":585927478,"name":"寶雅","lat":24.1086596,"lng":120.4955554,"address":"50845彰化縣和美鎮鹿和路六段360號","hasBabyChanging":false,"hasAccessible":false,"source":"OpenStreetMap","updatedAt":"2026-06-12T14:35:28.702Z","facilityType":"pharmacy","facilityLabel":"💊 藥局","phone":null,"website":null,"wheelchair":false,"needsAddr":false},{"id":874820147,"name":"道周醫院","lat":24.1106893,"lng":120.4917984,"address":null,"hasBabyChanging":false,"hasAccessible":false,"source":"OpenStreetMap","updatedAt":"2026-06-12T14:35:28.702Z","facilityType":"hospital","facilityLabel":"🏥 醫院","phone":null,"website":null,"wheelchair":false,"needsAddr":true},{"id":877717981,"name":"診所","lat":24.1108029,"lng":120.4997789,"address":null,"hasBabyChanging":false,"hasAccessible":false,"source":"OpenStreetMap","updatedAt":"2026-06-12T14:35:28.702Z","facilityType":"clinic","facilityLabel":"🩺 診所","phone":null,"website":null,"wheelchair":false,"needsAddr":true},{"id":877717987,"name":"和美鎮衛生所","lat":24.1108411,"lng":120.4992922,"address":null,"hasBabyChanging":false,"hasAccessible":false,"source":"OpenStreetMap","updatedAt":"2026-06-12T14:35:28.702Z","facilityType":"health_center","facilityLabel":"🏥 衛生所","phone":null,"website":null,"wheelchair":false,"needsAddr":true},{"id":1415313334,"name":"義德堂國術館","lat":24.1321936,"lng":120.5203923,"address":"彰化縣和美鎮","hasBabyChanging":false,"hasAccessible":false,"source":"OpenStreetMap","updatedAt":"2026-06-12T14:35:28.702Z","facilityType":"bonesetting","facilityLabel":"🦴 國術館","phone":null,"website":null,"wheelchair":false,"needsAddr":false}]}