{"city":"彰化縣","district":"溪湖鎮","category":"medical","updatedAt":"2026-06-12T14:35:28.702Z","rev":1,"count":10,"items":[{"id":2087127597,"name":"正泰成中醫診所","lat":23.967634,"lng":120.4802046,"address":null,"hasBabyChanging":false,"hasAccessible":false,"source":"OpenStreetMap","updatedAt":"2026-06-12T14:35:28.702Z","facilityType":"clinic","facilityLabel":"🩺 診所","phone":null,"website":null,"wheelchair":false,"needsAddr":true},{"id":2087134633,"name":"許立德小兒科","lat":23.9676536,"lng":120.4818085,"address":null,"hasBabyChanging":false,"hasAccessible":false,"source":"OpenStreetMap","updatedAt":"2026-06-12T14:35:28.702Z","facilityType":"clinic","facilityLabel":"👶 小兒科","phone":null,"website":null,"wheelchair":false,"needsAddr":true},{"id":2087141840,"name":"欣亞牙醫診所","lat":23.9676511,"lng":120.4818514,"address":null,"hasBabyChanging":false,"hasAccessible":false,"source":"OpenStreetMap","updatedAt":"2026-06-12T14:35:28.702Z","facilityType":"dentist","facilityLabel":"🦷 牙醫","phone":null,"website":null,"wheelchair":false,"needsAddr":true},{"id":2087143381,"name":"楊育瑋獸醫診所","lat":23.9676487,"lng":120.481889,"address":"培英路","hasBabyChanging":false,"hasAccessible":false,"source":"OpenStreetMap","updatedAt":"2026-06-12T14:35:28.702Z","facilityType":"vet","facilityLabel":"🐾 動物醫院","phone":null,"website":null,"wheelchair":false,"needsAddr":false},{"id":2088249046,"name":"顧明國診所","lat":23.9602447,"lng":120.4794168,"address":null,"hasBabyChanging":false,"hasAccessible":false,"source":"OpenStreetMap","updatedAt":"2026-06-12T14:35:28.702Z","facilityType":"clinic","facilityLabel":"🩺 診所","phone":null,"website":null,"wheelchair":false,"needsAddr":true},{"id":2088249681,"name":"光良牙醫","lat":23.9610659,"lng":120.479414,"address":null,"hasBabyChanging":false,"hasAccessible":false,"source":"OpenStreetMap","updatedAt":"2026-06-12T14:35:28.702Z","facilityType":"dentist","facilityLabel":"🦷 牙醫","phone":null,"website":null,"wheelchair":false,"needsAddr":true},{"id":4855214134,"name":"屈臣氏","lat":23.9601929,"lng":120.480288,"address":null,"hasBabyChanging":false,"hasAccessible":false,"source":"OpenStreetMap","updatedAt":"2026-06-12T14:35:28.702Z","facilityType":"pharmacy","facilityLabel":"💊 藥妝","phone":null,"website":null,"wheelchair":false,"needsAddr":true},{"id":9620594581,"name":"慶華藥局","lat":23.9593902,"lng":120.4790515,"address":null,"hasBabyChanging":false,"hasAccessible":false,"source":"OpenStreetMap","updatedAt":"2026-06-12T14:35:28.702Z","facilityType":"pharmacy","facilityLabel":"💊 藥局","phone":null,"website":null,"wheelchair":false,"needsAddr":true},{"id":370282099,"name":"丁丁藥局","lat":23.9564317,"lng":120.4854452,"address":"51449彰化縣溪湖鎮員鹿路二段431號","hasBabyChanging":false,"hasAccessible":false,"source":"OpenStreetMap","updatedAt":"2026-06-12T14:35:28.702Z","facilityType":"pharmacy","facilityLabel":"💊 藥局","phone":"+886-4 881 9508","website":"https://www.norbelbaby.com.tw/","wheelchair":false,"needsAddr":false},{"id":782277163,"name":"道安醫院","lat":23.9615058,"lng":120.4802767,"address":"彰化縣溪湖鎮光平里2鄰彰水路三段362號","hasBabyChanging":false,"hasAccessible":false,"source":"OpenStreetMap","updatedAt":"2026-06-12T14:35:28.702Z","facilityType":"hospital","facilityLabel":"🏥 醫院","phone":null,"website":null,"wheelchair":false,"needsAddr":false}]}