{"city":"彰化縣","district":"田中鎮","category":"medical","updatedAt":"2026-06-12T14:35:28.702Z","rev":1,"count":43,"items":[{"id":3866385154,"name":"寶雅","lat":23.8580331,"lng":120.5885703,"address":"彰化縣田中鎮中州路一段123號","hasBabyChanging":false,"hasAccessible":false,"source":"OpenStreetMap","updatedAt":"2026-06-12T14:35:28.702Z","facilityType":"pharmacy","facilityLabel":"💊 藥局","phone":null,"website":null,"wheelchair":false,"needsAddr":false},{"id":4649245510,"name":"田中仁和醫院","lat":23.8579738,"lng":120.5878793,"address":null,"hasBabyChanging":false,"hasAccessible":false,"source":"OpenStreetMap","updatedAt":"2026-06-12T14:35:28.702Z","facilityType":"hospital","facilityLabel":"🏥 醫院","phone":null,"website":null,"wheelchair":false,"needsAddr":true},{"id":11356047638,"name":"屈臣氏","lat":23.8581323,"lng":120.5877364,"address":null,"hasBabyChanging":false,"hasAccessible":false,"source":"OpenStreetMap","updatedAt":"2026-06-12T14:35:28.702Z","facilityType":"pharmacy","facilityLabel":"💊 藥妝","phone":null,"website":null,"wheelchair":false,"needsAddr":true},{"id":11356047650,"name":"家禾診所","lat":23.8578944,"lng":120.5853574,"address":null,"hasBabyChanging":false,"hasAccessible":false,"source":"OpenStreetMap","updatedAt":"2026-06-12T14:35:28.702Z","facilityType":"clinic","facilityLabel":"🩺 診所","phone":null,"website":null,"wheelchair":false,"needsAddr":true},{"id":11356047654,"name":"大嘉藥局","lat":23.8578168,"lng":120.5847113,"address":null,"hasBabyChanging":false,"hasAccessible":false,"source":"OpenStreetMap","updatedAt":"2026-06-12T14:35:28.702Z","facilityType":"pharmacy","facilityLabel":"💊 藥局","phone":null,"website":null,"wheelchair":false,"needsAddr":true},{"id":11356047655,"name":"景平藥局","lat":23.8578012,"lng":120.5845547,"address":null,"hasBabyChanging":false,"hasAccessible":false,"source":"OpenStreetMap","updatedAt":"2026-06-12T14:35:28.702Z","facilityType":"pharmacy","facilityLabel":"💊 藥局","phone":null,"website":null,"wheelchair":false,"needsAddr":true},{"id":11358836826,"name":"祥品藥局","lat":23.8637096,"lng":120.5873678,"address":null,"hasBabyChanging":false,"hasAccessible":false,"source":"OpenStreetMap","updatedAt":"2026-06-12T14:35:28.702Z","facilityType":"pharmacy","facilityLabel":"💊 藥局","phone":null,"website":null,"wheelchair":false,"needsAddr":true},{"id":11358836827,"name":"良安藥局","lat":23.8635609,"lng":120.5855461,"address":null,"hasBabyChanging":false,"hasAccessible":false,"source":"OpenStreetMap","updatedAt":"2026-06-12T14:35:28.702Z","facilityType":"pharmacy","facilityLabel":"💊 藥局","phone":null,"website":null,"wheelchair":false,"needsAddr":true},{"id":11358836830,"name":"光順藥局","lat":23.8630579,"lng":120.5850456,"address":null,"hasBabyChanging":false,"hasAccessible":false,"source":"OpenStreetMap","updatedAt":"2026-06-12T14:35:28.702Z","facilityType":"pharmacy","facilityLabel":"💊 藥局","phone":null,"website":null,"wheelchair":false,"needsAddr":true},{"id":11358836831,"name":"大安藥局","lat":23.862626,"lng":120.586033,"address":null,"hasBabyChanging":false,"hasAccessible":false,"source":"OpenStreetMap","updatedAt":"2026-06-12T14:35:28.702Z","facilityType":"pharmacy","facilityLabel":"💊 藥局","phone":null,"website":null,"wheelchair":false,"needsAddr":true},{"id":11358836832,"name":"公園診所","lat":23.8626925,"lng":120.5860724,"address":null,"hasBabyChanging":false,"hasAccessible":false,"source":"OpenStreetMap","updatedAt":"2026-06-12T14:35:28.702Z","facilityType":"clinic","facilityLabel":"🩺 診所","phone":null,"website":null,"wheelchair":false,"needsAddr":true},{"id":11358836833,"name":"正益藥局","lat":23.8627786,"lng":120.5864914,"address":null,"hasBabyChanging":false,"hasAccessible":false,"source":"OpenStreetMap","updatedAt":"2026-06-12T14:35:28.702Z","facilityType":"pharmacy","facilityLabel":"💊 藥局","phone":null,"website":null,"wheelchair":false,"needsAddr":true},{"id":11358836834,"name":"陳宏志小兒科診所","lat":23.8625689,"lng":120.5864645,"address":null,"hasBabyChanging":false,"hasAccessible":false,"source":"OpenStreetMap","updatedAt":"2026-06-12T14:35:28.702Z","facilityType":"clinic","facilityLabel":"👶 小兒科","phone":null,"website":null,"wheelchair":false,"needsAddr":true},{"id":11358836835,"name":"大樹藥局","lat":23.8620684,"lng":120.5862265,"address":"520021彰化縣田中鎮新生街150巷2號","hasBabyChanging":false,"hasAccessible":false,"source":"OpenStreetMap","updatedAt":"2026-06-12T14:35:28.702Z","facilityType":"pharmacy","facilityLabel":"💊 藥局","phone":"+886 4 8761 988","website":"https://www.greattree.com.tw","wheelchair":false,"needsAddr":false},{"id":11358836836,"name":"全德藥局","lat":23.8616326,"lng":120.5891069,"address":null,"hasBabyChanging":false,"hasAccessible":false,"source":"OpenStreetMap","updatedAt":"2026-06-12T14:35:28.702Z","facilityType":"pharmacy","facilityLabel":"💊 藥局","phone":null,"website":null,"wheelchair":false,"needsAddr":true},{"id":11358836837,"name":"明輝藥局","lat":23.8610982,"lng":120.5870225,"address":null,"hasBabyChanging":false,"hasAccessible":false,"source":"OpenStreetMap","updatedAt":"2026-06-12T14:35:28.702Z","facilityType":"pharmacy","facilityLabel":"💊 藥局","phone":null,"website":null,"wheelchair":false,"needsAddr":true},{"id":11358836838,"name":"仁春藥局","lat":23.8602671,"lng":120.584895,"address":null,"hasBabyChanging":false,"hasAccessible":false,"source":"OpenStreetMap","updatedAt":"2026-06-12T14:35:28.702Z","facilityType":"pharmacy","facilityLabel":"💊 藥局","phone":null,"website":null,"wheelchair":false,"needsAddr":true},{"id":11358836839,"name":"大眾藥局","lat":23.8609412,"lng":120.5820737,"address":null,"hasBabyChanging":false,"hasAccessible":false,"source":"OpenStreetMap","updatedAt":"2026-06-12T14:35:28.702Z","facilityType":"pharmacy","facilityLabel":"💊 藥局","phone":null,"website":null,"wheelchair":false,"needsAddr":true},{"id":11358836840,"name":"啄木鳥藥局","lat":23.8564225,"lng":120.5863639,"address":null,"hasBabyChanging":false,"hasAccessible":false,"source":"OpenStreetMap","updatedAt":"2026-06-12T14:35:28.702Z","facilityType":"pharmacy","facilityLabel":"💊 藥局","phone":null,"website":null,"wheelchair":false,"needsAddr":true},{"id":11358836841,"name":"佑全保健藥妝","lat":23.8585693,"lng":120.5827575,"address":null,"hasBabyChanging":false,"hasAccessible":false,"source":"OpenStreetMap","updatedAt":"2026-06-12T14:35:28.702Z","facilityType":"pharmacy","facilityLabel":"💊 藥局","phone":null,"website":null,"wheelchair":false,"needsAddr":true},{"id":11358836842,"name":"世華藥局","lat":23.8541195,"lng":120.5848936,"address":null,"hasBabyChanging":false,"hasAccessible":false,"source":"OpenStreetMap","updatedAt":"2026-06-12T14:35:28.702Z","facilityType":"pharmacy","facilityLabel":"💊 藥局","phone":null,"website":null,"wheelchair":false,"needsAddr":true},{"id":11358836843,"name":"喜喜藥局","lat":23.8611022,"lng":120.580579,"address":null,"hasBabyChanging":false,"hasAccessible":false,"source":"OpenStreetMap","updatedAt":"2026-06-12T14:35:28.702Z","facilityType":"pharmacy","facilityLabel":"💊 藥局","phone":null,"website":null,"wheelchair":false,"needsAddr":true},{"id":11358836844,"name":"朝仁大藥局","lat":23.868893,"lng":120.5617529,"address":null,"hasBabyChanging":false,"hasAccessible":false,"source":"OpenStreetMap","updatedAt":"2026-06-12T14:35:28.702Z","facilityType":"pharmacy","facilityLabel":"💊 藥局","phone":null,"website":null,"wheelchair":false,"needsAddr":true},{"id":11358836845,"name":"健潔犬貓診所","lat":23.8642893,"lng":120.5830775,"address":null,"hasBabyChanging":false,"hasAccessible":false,"source":"OpenStreetMap","updatedAt":"2026-06-12T14:35:28.702Z","facilityType":"vet","facilityLabel":"🐾 動物醫院","phone":null,"website":null,"wheelchair":false,"needsAddr":true},{"id":11358836846,"name":"聖一中醫診所","lat":23.8631154,"lng":120.5862985,"address":null,"hasBabyChanging":false,"hasAccessible":false,"source":"OpenStreetMap","updatedAt":"2026-06-12T14:35:28.702Z","facilityType":"clinic","facilityLabel":"🩺 診所","phone":null,"website":null,"wheelchair":false,"needsAddr":true},{"id":11358836847,"name":"焜燿中醫診所","lat":23.8623611,"lng":120.5872735,"address":null,"hasBabyChanging":false,"hasAccessible":false,"source":"OpenStreetMap","updatedAt":"2026-06-12T14:35:28.702Z","facilityType":"clinic","facilityLabel":"🩺 診所","phone":null,"website":null,"wheelchair":false,"needsAddr":true},{"id":11358836848,"name":"田中卓牙醫診所","lat":23.8623124,"lng":120.5855249,"address":null,"hasBabyChanging":false,"hasAccessible":false,"source":"OpenStreetMap","updatedAt":"2026-06-12T14:35:28.702Z","facilityType":"dentist","facilityLabel":"🦷 牙醫","phone":null,"website":null,"wheelchair":false,"needsAddr":true},{"id":11358836849,"name":"周武昌診所","lat":23.8617936,"lng":120.5865207,"address":null,"hasBabyChanging":false,"hasAccessible":false,"source":"OpenStreetMap","updatedAt":"2026-06-12T14:35:28.702Z","facilityType":"clinic","facilityLabel":"🩺 診所","phone":null,"website":null,"wheelchair":false,"needsAddr":true},{"id":11358836850,"name":"田安診所","lat":23.8628836,"lng":120.5884952,"address":null,"hasBabyChanging":false,"hasAccessible":false,"source":"OpenStreetMap","updatedAt":"2026-06-12T14:35:28.702Z","facilityType":"clinic","facilityLabel":"🩺 診所","phone":null,"website":null,"wheelchair":false,"needsAddr":true},{"id":11358836851,"name":"玉樹診所","lat":23.8624453,"lng":120.5847932,"address":null,"hasBabyChanging":false,"hasAccessible":false,"source":"OpenStreetMap","updatedAt":"2026-06-12T14:35:28.702Z","facilityType":"clinic","facilityLabel":"🩺 診所","phone":null,"website":null,"wheelchair":false,"needsAddr":true},{"id":11358836852,"name":"謝進國佑家聯合診所","lat":23.8616454,"lng":120.58572,"address":null,"hasBabyChanging":false,"hasAccessible":false,"source":"OpenStreetMap","updatedAt":"2026-06-12T14:35:28.702Z","facilityType":"clinic","facilityLabel":"🩺 診所","phone":null,"website":null,"wheelchair":false,"needsAddr":true},{"id":11465332986,"name":"林錦成診所","lat":23.8580817,"lng":120.5871194,"address":null,"hasBabyChanging":false,"hasAccessible":false,"source":"OpenStreetMap","updatedAt":"2026-06-12T14:35:28.702Z","facilityType":"clinic","facilityLabel":"🩺 診所","phone":null,"website":null,"wheelchair":false,"needsAddr":true},{"id":11465332996,"name":"中英診所","lat":23.8575961,"lng":120.5858975,"address":null,"hasBabyChanging":false,"hasAccessible":false,"source":"OpenStreetMap","updatedAt":"2026-06-12T14:35:28.702Z","facilityType":"clinic","facilityLabel":"🩺 診所","phone":null,"website":null,"wheelchair":false,"needsAddr":true},{"id":11465333009,"name":"陳牙醫診所","lat":23.8580042,"lng":120.5863876,"address":null,"hasBabyChanging":false,"hasAccessible":false,"source":"OpenStreetMap","updatedAt":"2026-06-12T14:35:28.702Z","facilityType":"dentist","facilityLabel":"🦷 牙醫","phone":null,"website":null,"wheelchair":false,"needsAddr":true},{"id":11465333018,"name":"正愛獸醫院","lat":23.8576418,"lng":120.5856744,"address":null,"hasBabyChanging":false,"hasAccessible":false,"source":"OpenStreetMap","updatedAt":"2026-06-12T14:35:28.702Z","facilityType":"vet","facilityLabel":"🐾 動物醫院","phone":null,"website":null,"wheelchair":false,"needsAddr":true},{"id":11465592411,"name":"建元診所","lat":23.8594328,"lng":120.5851742,"address":null,"hasBabyChanging":false,"hasAccessible":false,"source":"OpenStreetMap","updatedAt":"2026-06-12T14:35:28.702Z","facilityType":"clinic","facilityLabel":"🩺 診所","phone":null,"website":null,"wheelchair":false,"needsAddr":true},{"id":11465592412,"name":"游栢勳診所","lat":23.8587109,"lng":120.5853737,"address":null,"hasBabyChanging":false,"hasAccessible":false,"source":"OpenStreetMap","updatedAt":"2026-06-12T14:35:28.702Z","facilityType":"clinic","facilityLabel":"🩺 診所","phone":null,"website":null,"wheelchair":false,"needsAddr":true},{"id":11465592428,"name":"順天健康廣場","lat":23.8579846,"lng":120.5855859,"address":null,"hasBabyChanging":false,"hasAccessible":false,"source":"OpenStreetMap","updatedAt":"2026-06-12T14:35:28.702Z","facilityType":"pharmacy","facilityLabel":"💊 藥局","phone":null,"website":null,"wheelchair":false,"needsAddr":true},{"id":11468717037,"name":"敏賢牙醫診所","lat":23.8577006,"lng":120.5854115,"address":null,"hasBabyChanging":false,"hasAccessible":false,"source":"OpenStreetMap","updatedAt":"2026-06-12T14:35:28.702Z","facilityType":"dentist","facilityLabel":"🦷 牙醫","phone":null,"website":null,"wheelchair":false,"needsAddr":true},{"id":11468717046,"name":"黃信義聯合診所","lat":23.856791,"lng":120.5861213,"address":null,"hasBabyChanging":false,"hasAccessible":false,"source":"OpenStreetMap","updatedAt":"2026-06-12T14:35:28.702Z","facilityType":"clinic","facilityLabel":"🩺 診所","phone":null,"website":null,"wheelchair":false,"needsAddr":true},{"id":11510356515,"name":"皇悅牙醫診所","lat":23.8610689,"lng":120.5851186,"address":null,"hasBabyChanging":false,"hasAccessible":false,"source":"OpenStreetMap","updatedAt":"2026-06-12T14:35:28.702Z","facilityType":"dentist","facilityLabel":"🦷 牙醫","phone":null,"website":null,"wheelchair":false,"needsAddr":true},{"id":11510356532,"name":"保春堂中醫診所","lat":23.8615186,"lng":120.5850674,"address":null,"hasBabyChanging":false,"hasAccessible":false,"source":"OpenStreetMap","updatedAt":"2026-06-12T14:35:28.702Z","facilityType":"clinic","facilityLabel":"🩺 診所","phone":null,"website":null,"wheelchair":false,"needsAddr":true},{"id":258637159,"name":"田中鎮衛生所","lat":23.8616773,"lng":120.5805244,"address":null,"hasBabyChanging":false,"hasAccessible":false,"source":"OpenStreetMap","updatedAt":"2026-06-12T14:35:28.702Z","facilityType":"health_center","facilityLabel":"🏥 衛生所","phone":null,"website":null,"wheelchair":false,"needsAddr":true}]}