{
  "city": "花蓮縣",
  "category": "family",
  "updatedAt": "2026-06-12T23:19:55.692Z",
  "items": [
    {
      "id": 3837347910,
      "name": "海祭廣場-步道舖面",
      "facilityType": "tourist_attraction",
      "facilityLabel": "🧭 旅遊景點",
      "lat": 23.9455003,
      "lng": 121.6065985,
      "source": "OpenStreetMap",
      "updatedAt": "2026-06-12T23:19:55.675Z"
    },
    {
      "id": 4918624821,
      "name": "洄瀾灣開心農場",
      "facilityType": "farm",
      "facilityLabel": "🌾 農場",
      "lat": 23.9371297,
      "lng": 121.598527,
      "source": "OpenStreetMap",
      "updatedAt": "2026-06-12T23:19:55.677Z"
    },
    {
      "id": 5071354346,
      "name": "弘法大師石像",
      "facilityType": "tourist_attraction",
      "facilityLabel": "🧭 旅遊景點",
      "lat": 23.9734833,
      "lng": 121.5647904,
      "source": "OpenStreetMap",
      "updatedAt": "2026-06-12T23:19:55.679Z"
    },
    {
      "id": 5071354347,
      "name": "光明真言百萬遍石碑",
      "facilityType": "tourist_attraction",
      "facilityLabel": "🧭 旅遊景點",
      "lat": 23.9734619,
      "lng": 121.5646981,
      "source": "OpenStreetMap",
      "updatedAt": "2026-06-12T23:19:55.681Z"
    },
    {
      "id": 5071354348,
      "name": "百度石",
      "facilityType": "tourist_attraction",
      "facilityLabel": "🧭 旅遊景點",
      "lat": 23.9736118,
      "lng": 121.5649005,
      "source": "OpenStreetMap",
      "updatedAt": "2026-06-12T23:19:55.682Z"
    },
    {
      "id": 6585938786,
      "name": "夢想石",
      "facilityType": "tourist_attraction",
      "facilityLabel": "🧭 旅遊景點",
      "lat": 23.9391412,
      "lng": 121.6035416,
      "source": "OpenStreetMap",
      "updatedAt": "2026-06-12T23:19:55.684Z"
    },
    {
      "id": 6802632796,
      "name": "統茂度假莊園",
      "facilityType": "farm",
      "facilityLabel": "🌾 農場",
      "lat": 23.9624994,
      "lng": 121.5768045,
      "source": "OpenStreetMap",
      "updatedAt": "2026-06-12T23:19:55.686Z"
    },
    {
      "id": 7183711365,
      "name": "貨櫃星巴克",
      "facilityType": "tourist_attraction",
      "facilityLabel": "🧭 旅遊景點",
      "lat": 23.9386418,
      "lng": 121.5948594,
      "source": "OpenStreetMap",
      "updatedAt": "2026-06-12T23:19:55.687Z"
    },
    {
      "id": 7776200189,
      "name": "遊客諮詢中心",
      "facilityType": "visitor_center",
      "facilityLabel": "🛎 旅客中心",
      "lat": 23.952248,
      "lng": 121.5828666,
      "source": "OpenStreetMap",
      "updatedAt": "2026-06-12T23:19:55.688Z"
    },
    {
      "id": 10159432517,
      "name": "靜心莊園",
      "facilityType": "farm",
      "facilityLabel": "🌾 農場",
      "lat": 23.9909462,
      "lng": 121.563641,
      "source": "OpenStreetMap",
      "updatedAt": "2026-06-12T23:19:55.689Z"
    },
    {
      "id": 12045000969,
      "name": "石頭田埂",
      "facilityType": "visitor_center",
      "facilityLabel": "🛎 旅客中心",
      "lat": 23.9301321,
      "lng": 121.5596749,
      "source": "OpenStreetMap",
      "updatedAt": "2026-06-12T23:19:55.690Z"
    },
    {
      "id": 12045195565,
      "name": "花蓮台開風帆下水坡道暨賞鳥平台",
      "facilityType": "tourist_attraction",
      "facilityLabel": "🧭 旅遊景點",
      "lat": 23.9374993,
      "lng": 121.6027706,
      "source": "OpenStreetMap",
      "updatedAt": "2026-06-12T23:19:55.690Z"
    },
    {
      "id": 712215293,
      "name": "普照橋",
      "facilityType": "tourist_attraction",
      "facilityLabel": "🧭 旅遊景點",
      "lat": 23.9629419,
      "lng": 121.6074899,
      "source": "OpenStreetMap",
      "updatedAt": "2026-06-12T23:19:55.691Z"
    },
    {
      "id": 1460291916,
      "name": "砂庭",
      "facilityType": "tourist_attraction",
      "facilityLabel": "🧭 旅遊景點",
      "lat": 23.9738774,
      "lng": 121.5646124,
      "source": "OpenStreetMap",
      "updatedAt": "2026-06-12T23:19:55.692Z"
    }
  ]
}
