{
  "city": "花蓮縣",
  "category": "family",
  "updatedAt": "2026-06-12T23:16:57.101Z",
  "items": [
    {
      "id": 3835143757,
      "name": "移民村警察廳",
      "facilityType": "tourist_attraction",
      "facilityLabel": "🧭 旅遊景點",
      "lat": 23.7524224,
      "lng": 121.4676923,
      "source": "OpenStreetMap",
      "updatedAt": "2026-06-12T23:16:57.087Z",
      "address": "975花蓮縣鳳林鎮復興路71號"
    },
    {
      "id": 3835148764,
      "name": "廖快菸樓",
      "facilityType": "tourist_attraction",
      "facilityLabel": "🧭 旅遊景點",
      "lat": 23.7534215,
      "lng": 121.4682367,
      "source": "OpenStreetMap",
      "updatedAt": "2026-06-12T23:16:57.090Z",
      "address": "975花蓮縣鳳林鎮復興路81號"
    },
    {
      "id": 3835167857,
      "name": "校長夢工廠",
      "facilityType": "tourist_attraction",
      "facilityLabel": "🧭 旅遊景點",
      "lat": 23.7475884,
      "lng": 121.4502338,
      "source": "OpenStreetMap",
      "updatedAt": "2026-06-12T23:16:57.091Z",
      "address": "975花蓮縣鳳林鎮民生街16號"
    },
    {
      "id": 3835179857,
      "name": "鳳凰瀑布風景區",
      "facilityType": "scenic_area",
      "facilityLabel": "🏞 風景區",
      "lat": 23.7567186,
      "lng": 121.4261261,
      "source": "OpenStreetMap",
      "updatedAt": "2026-06-12T23:16:57.093Z",
      "address": "花蓮縣鳳林鎮"
    },
    {
      "id": 4693550509,
      "name": "茄苳神木",
      "facilityType": "tourist_attraction",
      "facilityLabel": "🧭 旅遊景點",
      "lat": 23.7701493,
      "lng": 121.4528805,
      "source": "OpenStreetMap",
      "updatedAt": "2026-06-12T23:16:57.094Z"
    },
    {
      "id": 4693550511,
      "name": "茄苳神木解說牌",
      "facilityType": "visitor_center",
      "facilityLabel": "🛎 旅客中心",
      "lat": 23.770126,
      "lng": 121.4528744,
      "source": "OpenStreetMap",
      "updatedAt": "2026-06-12T23:16:57.096Z"
    },
    {
      "id": 11254623454,
      "name": "兆豐故事館",
      "facilityType": "science",
      "facilityLabel": "🔬 博物館",
      "lat": 23.801352,
      "lng": 121.4645675,
      "source": "OpenStreetMap",
      "updatedAt": "2026-06-12T23:16:57.097Z"
    },
    {
      "id": 11255404620,
      "name": "羊駝、水豚",
      "facilityType": "farm",
      "facilityLabel": "🌾 農場",
      "lat": 23.7996302,
      "lng": 121.4680572,
      "source": "OpenStreetMap",
      "updatedAt": "2026-06-12T23:16:57.098Z"
    },
    {
      "id": 12518461609,
      "name": "林田圳虹吸式圳道",
      "facilityType": "tourist_attraction",
      "facilityLabel": "🧭 旅遊景點",
      "lat": 23.7631135,
      "lng": 121.4665335,
      "source": "OpenStreetMap",
      "updatedAt": "2026-06-12T23:16:57.098Z"
    },
    {
      "id": 12518470695,
      "name": "平林圳過水橋",
      "facilityType": "tourist_attraction",
      "facilityLabel": "🧭 旅遊景點",
      "lat": 23.7930293,
      "lng": 121.449472,
      "source": "OpenStreetMap",
      "updatedAt": "2026-06-12T23:16:57.099Z"
    },
    {
      "id": 675154878,
      "name": "鳳林蜜蜂生態教育館",
      "facilityType": "eco_center",
      "facilityLabel": "🌱 生態館",
      "lat": 23.7792038,
      "lng": 121.4582735,
      "source": "OpenStreetMap",
      "updatedAt": "2026-06-12T23:16:57.100Z"
    },
    {
      "id": 750977326,
      "name": "中山堂",
      "facilityType": "tourist_attraction",
      "facilityLabel": "🧭 旅遊景點",
      "lat": 23.7167064,
      "lng": 121.3980628,
      "source": "OpenStreetMap",
      "updatedAt": "2026-06-12T23:16:57.100Z",
      "address": "花蓮縣鳳林鎮林安路22號"
    },
    {
      "id": 7075261,
      "name": "花東沿海保護區",
      "facilityType": "spot",
      "facilityLabel": "📍 親子景點",
      "lat": 23.3605493,
      "lng": 121.3802612,
      "source": "OpenStreetMap",
      "updatedAt": "2026-06-12T23:16:57.101Z"
    }
  ]
}
