{"city":"南投縣","district":"名間鄉","category":"family","updatedAt":"2026-06-16T15:54:24.202Z","rev":24,"count":19,"items":[{"id":3502454575,"name":"921 斜塔","lat":23.8333626,"lng":120.7101728,"address":null,"hasBabyChanging":false,"hasAccessible":false,"source":"OpenStreetMap","updatedAt":"2026-06-16T15:54:24.202Z","facilityType":"tourist_attraction","facilityLabel":"🧭 旅遊景點","phone":null,"website":null,"wheelchair":false,"paid":null,"needsAddr":true},{"id":4712130563,"name":"松柏嶺遊客中心","lat":23.8339034,"lng":120.6361194,"address":null,"hasBabyChanging":false,"hasAccessible":false,"source":"OpenStreetMap","updatedAt":"2026-06-16T15:54:24.202Z","facilityType":"visitor_center","facilityLabel":"🛎 旅客中心","phone":null,"website":null,"wheelchair":false,"paid":null,"needsAddr":true},{"id":5301820634,"name":"南投豬樂園","lat":23.8544811,"lng":120.6968037,"address":"551南投縣名間鄉彰南路256號","hasBabyChanging":false,"hasAccessible":false,"source":"OpenStreetMap","updatedAt":"2026-06-16T15:54:24.202Z","facilityType":"tourist_attraction","facilityLabel":"🧭 旅遊景點","phone":"+886-49-273 4305#163","website":"https://www.facebook.com/PIG.LULU.Paradise/","wheelchair":false,"paid":null,"needsAddr":false},{"id":5435950724,"name":"茶香步道","lat":23.8408455,"lng":120.6274054,"address":null,"hasBabyChanging":false,"hasAccessible":false,"source":"OpenStreetMap","updatedAt":"2026-06-16T15:54:24.202Z","facilityType":"tourist_attraction","facilityLabel":"🧭 旅遊景點","phone":null,"website":null,"wheelchair":false,"paid":null,"needsAddr":true},{"id":5436382922,"name":"集集綠色隧道西口","lat":23.8352217,"lng":120.7229629,"address":null,"hasBabyChanging":false,"hasAccessible":false,"source":"OpenStreetMap","updatedAt":"2026-06-16T15:54:24.202Z","facilityType":"tourist_attraction","facilityLabel":"🧭 旅遊景點","phone":null,"website":null,"wheelchair":false,"paid":null,"needsAddr":true},{"id":5713197469,"name":"長青牧場","lat":23.8509569,"lng":120.6850498,"address":"551南投縣名間鄉大廈巷1之3號","hasBabyChanging":false,"hasAccessible":false,"source":"OpenStreetMap","updatedAt":"2026-06-16T15:54:24.202Z","facilityType":"farm","facilityLabel":"🌾 農場","phone":"+886 939 727 568","website":"https://www.facebook.com/長青牧場-192506834116686/","wheelchair":false,"paid":null,"needsAddr":false},{"id":7215508883,"name":"坑內休閒農場","lat":23.856483,"lng":120.7280141,"address":null,"hasBabyChanging":false,"hasAccessible":false,"source":"OpenStreetMap","updatedAt":"2026-06-16T15:54:24.202Z","facilityType":"farm","facilityLabel":"🌾 農場","phone":null,"website":null,"wheelchair":false,"paid":null,"needsAddr":true},{"id":526642582,"name":"921斜塔休憩區","lat":23.83311925,"lng":120.71065265,"address":null,"hasBabyChanging":false,"hasAccessible":false,"source":"OpenStreetMap","updatedAt":"2026-06-16T15:54:24.202Z","facilityType":"tourist_attraction","facilityLabel":"🧭 旅遊景點","phone":null,"website":null,"wheelchair":false,"paid":null,"needsAddr":true},{"id":659046197,"name":"受天宮小公園","lat":23.833755,"lng":120.63354545,"address":null,"hasBabyChanging":false,"hasAccessible":false,"source":"OpenStreetMap","updatedAt":"2026-06-16T15:54:24.202Z","facilityType":"park","facilityLabel":"🌳 小型公園","phone":null,"website":null,"wheelchair":false,"paid":null,"needsAddr":true},{"id":659234868,"name":"柏茶亭","lat":23.8419974,"lng":120.6261342,"address":null,"hasBabyChanging":false,"hasAccessible":false,"source":"OpenStreetMap","updatedAt":"2026-06-16T15:54:24.202Z","facilityType":"park","facilityLabel":"🌳 小型公園","phone":null,"website":null,"wheelchair":false,"paid":null,"needsAddr":true},{"id":676211337,"name":"田中森林公園登山步道(北線)","lat":23.8504813,"lng":120.61575975,"address":null,"hasBabyChanging":false,"hasAccessible":false,"source":"OpenStreetMap","updatedAt":"2026-06-16T15:54:24.202Z","facilityType":"park","facilityLabel":"🌳 小型公園","phone":null,"website":null,"wheelchair":false,"paid":null,"needsAddr":true},{"id":703411148,"name":"九二一斜塔紀念公園","lat":23.83266445,"lng":120.71025825,"address":null,"hasBabyChanging":false,"hasAccessible":false,"source":"OpenStreetMap","updatedAt":"2026-06-16T15:54:24.202Z","facilityType":"park","facilityLabel":"🌳 小型公園","phone":null,"website":null,"wheelchair":false,"paid":null,"needsAddr":true},{"id":748909469,"name":"河堤旁","lat":23.83685415,"lng":120.70099859999999,"address":null,"hasBabyChanging":false,"hasAccessible":false,"source":"OpenStreetMap","updatedAt":"2026-06-16T15:54:24.202Z","facilityType":"park","facilityLabel":"🌳 小型公園","phone":null,"website":null,"wheelchair":false,"paid":null,"needsAddr":true},{"id":977352085,"name":"七星陣地公園-瑤光","lat":23.8309686,"lng":120.63839630000001,"address":null,"hasBabyChanging":false,"hasAccessible":false,"source":"OpenStreetMap","updatedAt":"2026-06-16T15:54:24.202Z","facilityType":"park","facilityLabel":"🌳 小型公園","phone":null,"website":null,"wheelchair":false,"paid":null,"needsAddr":true},{"id":1013976628,"name":"名間親子生態園區","lat":23.85583575,"lng":120.6965645,"address":null,"hasBabyChanging":false,"hasAccessible":false,"source":"OpenStreetMap","updatedAt":"2026-06-16T15:54:24.202Z","facilityType":"park","facilityLabel":"🌳 中型公園","phone":null,"website":null,"wheelchair":false,"paid":null,"needsAddr":true},{"id":1196904796,"name":"七星陣地公園 天樞","lat":23.8221543,"lng":120.6415819,"address":null,"hasBabyChanging":false,"hasAccessible":false,"source":"OpenStreetMap","updatedAt":"2026-06-16T15:54:24.202Z","facilityType":"park","facilityLabel":"🌳 小型公園","phone":null,"website":null,"wheelchair":false,"paid":null,"needsAddr":true},{"id":1196904800,"name":"七星陣地公園-玉衡","lat":23.8256156,"lng":120.6398489,"address":null,"hasBabyChanging":false,"hasAccessible":false,"source":"OpenStreetMap","updatedAt":"2026-06-16T15:54:24.202Z","facilityType":"park","facilityLabel":"🌳 小型公園","phone":null,"website":null,"wheelchair":false,"paid":null,"needsAddr":true},{"id":1196904801,"name":"七星陣地公園-24砲台","lat":23.82716725,"lng":120.6408612,"address":null,"hasBabyChanging":false,"hasAccessible":false,"source":"OpenStreetMap","updatedAt":"2026-06-16T15:54:24.202Z","facilityType":"tourist_attraction","facilityLabel":"🧭 旅遊景點","phone":null,"website":null,"wheelchair":false,"paid":null,"needsAddr":true},{"id":1196904803,"name":"七星陣地公園-25砲台","lat":23.829952,"lng":120.6398318,"address":null,"hasBabyChanging":false,"hasAccessible":false,"source":"OpenStreetMap","updatedAt":"2026-06-16T15:54:24.202Z","facilityType":"tourist_attraction","facilityLabel":"🧭 旅遊景點","phone":null,"website":null,"wheelchair":false,"paid":null,"needsAddr":true}]}