{"city":"南投縣","district":"水里鄉","category":"family","updatedAt":"2026-06-16T15:54:24.202Z","rev":24,"count":14,"items":[{"id":2958102903,"name":"車埕木業展示館","lat":23.8328833,"lng":120.8658333,"address":null,"hasBabyChanging":false,"hasAccessible":false,"source":"OpenStreetMap","updatedAt":"2026-06-16T15:54:24.202Z","facilityType":"science","facilityLabel":"🔬 博物館","phone":null,"website":null,"wheelchair":false,"paid":null,"needsAddr":true},{"id":3284048057,"name":"三部十路賞梅區","lat":23.7250025,"lng":120.8752822,"address":null,"hasBabyChanging":false,"hasAccessible":false,"source":"OpenStreetMap","updatedAt":"2026-06-16T15:54:24.202Z","facilityType":"tourist_attraction","facilityLabel":"🧭 旅遊景點","phone":null,"website":null,"wheelchair":false,"paid":null,"needsAddr":true},{"id":3296548494,"name":"三部七路賞梅區","lat":23.729322,"lng":120.8690649,"address":null,"hasBabyChanging":false,"hasAccessible":false,"source":"OpenStreetMap","updatedAt":"2026-06-16T15:54:24.202Z","facilityType":"tourist_attraction","facilityLabel":"🧭 旅遊景點","phone":null,"website":null,"wheelchair":false,"paid":null,"needsAddr":true},{"id":4432472054,"name":"水火同源","lat":23.7837408,"lng":120.8532097,"address":null,"hasBabyChanging":false,"hasAccessible":false,"source":"OpenStreetMap","updatedAt":"2026-06-16T15:54:24.202Z","facilityType":"tourist_attraction","facilityLabel":"🧭 旅遊景點","phone":null,"website":null,"wheelchair":false,"paid":null,"needsAddr":true},{"id":5436443122,"name":"石觀音吊橋","lat":23.8789941,"lng":120.8732446,"address":null,"hasBabyChanging":false,"hasAccessible":false,"source":"OpenStreetMap","updatedAt":"2026-06-16T15:54:24.202Z","facilityType":"tourist_attraction","facilityLabel":"🧭 旅遊景點","phone":null,"website":null,"wheelchair":false,"paid":null,"needsAddr":true},{"id":6345026446,"name":"新高登山口紀念碑複製","lat":23.8132624,"lng":120.8503379,"address":null,"hasBabyChanging":false,"hasAccessible":false,"source":"OpenStreetMap","updatedAt":"2026-06-16T15:54:24.202Z","facilityType":"tourist_attraction","facilityLabel":"🧭 旅遊景點","phone":null,"website":null,"wheelchair":false,"paid":null,"needsAddr":true},{"id":6480012714,"name":"天時瀑布","lat":23.8191038,"lng":120.9259356,"address":null,"hasBabyChanging":false,"hasAccessible":false,"source":"OpenStreetMap","updatedAt":"2026-06-16T15:54:24.202Z","facilityType":"tourist_attraction","facilityLabel":"🧭 旅遊景點","phone":null,"website":null,"wheelchair":false,"paid":null,"needsAddr":true},{"id":8234360807,"name":"玉管處水里遊客中心","lat":23.8125491,"lng":120.8500599,"address":null,"hasBabyChanging":false,"hasAccessible":false,"source":"OpenStreetMap","updatedAt":"2026-06-16T15:54:24.202Z","facilityType":"visitor_center","facilityLabel":"🛎 旅客中心","phone":null,"website":null,"wheelchair":false,"paid":null,"needsAddr":true},{"id":292257318,"name":"車埕遊客中心","lat":23.831714599999998,"lng":120.86604374999999,"address":"553南投縣水里鄉民權巷127號","hasBabyChanging":false,"hasAccessible":false,"source":"OpenStreetMap","updatedAt":"2026-06-16T15:54:24.202Z","facilityType":"visitor_center","facilityLabel":"🛎 旅客中心","phone":null,"website":null,"wheelchair":false,"paid":null,"needsAddr":false},{"id":292494553,"name":"水里親水公園","lat":23.81017315,"lng":120.84875015,"address":null,"hasBabyChanging":false,"hasAccessible":false,"source":"OpenStreetMap","updatedAt":"2026-06-16T15:54:24.202Z","facilityType":"water","facilityLabel":"💧 戲水親水","phone":null,"website":null,"wheelchair":false,"paid":null,"needsAddr":true},{"id":606935467,"name":"車埕遊客中心","lat":23.8335779,"lng":120.86683215,"address":"南投縣水里鄉車埕村民權巷111號","hasBabyChanging":false,"hasAccessible":false,"source":"OpenStreetMap","updatedAt":"2026-06-16T15:54:24.202Z","facilityType":"visitor_center","facilityLabel":"🛎 旅客中心","phone":"+886 49 277 4981","website":"https://www.sunmoonlake.gov.tw/checheng/","wheelchair":false,"paid":null,"needsAddr":false},{"id":758835806,"name":"南光休閒活動廣場","lat":23.8090479,"lng":120.85328365000001,"address":null,"hasBabyChanging":false,"hasAccessible":false,"source":"OpenStreetMap","updatedAt":"2026-06-16T15:54:24.202Z","facilityType":"park","facilityLabel":"🌳 小型公園","phone":null,"website":null,"wheelchair":false,"paid":null,"needsAddr":true},{"id":1087956508,"name":"美麗水里生態園區","lat":23.820735499999998,"lng":120.8577084,"address":"南投縣水里鄉農富路93號","hasBabyChanging":false,"hasAccessible":false,"source":"OpenStreetMap","updatedAt":"2026-06-16T15:54:24.202Z","facilityType":"park","facilityLabel":"🌳 小型公園","phone":null,"website":null,"wheelchair":false,"paid":null,"needsAddr":false},{"id":1212088395,"name":"水里蛇窯陶藝文化園區","lat":23.80079675,"lng":120.86470349999999,"address":"553南投縣水里鄉水信路一段512巷21號","hasBabyChanging":false,"hasAccessible":false,"source":"OpenStreetMap","updatedAt":"2026-06-16T15:54:24.202Z","facilityType":"diy","facilityLabel":"🧶 DIY手作","phone":"+886 49 2770967","website":"https://www.snakekiln.com.tw/","wheelchair":false,"paid":null,"needsAddr":false}]}