[
  {
    "tdx_id": "C1_376420000A_000013",
    "name": "朝陽漁港",
    "class1": "文化類",
    "class2": "",
    "suggested_facilityType": "tourist_attraction",
    "lat": 24.46006965637207,
    "lng": 121.82105255126953,
    "address": "宜蘭縣270蘇澳鎮朝陽路1號附近(朝陽社區內)",
    "status": "candidate"
  },
  {
    "tdx_id": "C1_376530000A_000115",
    "name": "花瓶岩",
    "class1": "自然風景類",
    "class2": "遊憩類",
    "suggested_facilityType": "spot",
    "lat": 22.35533332824707,
    "lng": 120.3809814453125,
    "address": "屏東縣929琉球鄉環島公路",
    "status": "candidate"
  },
  {
    "tdx_id": "C1_376530000A_000133",
    "name": "白沙觀光港",
    "class1": "自然風景類",
    "class2": "遊憩類",
    "suggested_facilityType": "spot",
    "lat": 22.3524169921875,
    "lng": 120.38426971435547,
    "address": "屏東縣929琉球鄉環島公路",
    "status": "candidate"
  },
  {
    "tdx_id": "C1_376540000A_000365",
    "name": "石朗潛水區",
    "class1": "",
    "class2": "遊憩類",
    "suggested_facilityType": "tourist_attraction",
    "lat": 22.65576934814453,
    "lng": 121.47454071044922,
    "address": "臺東縣951綠島鄉環島公路17公里處路旁",
    "status": "candidate"
  },
  {
    "tdx_id": "C1_376540000A_000366",
    "name": "帆船鼻",
    "class1": "自然風景類",
    "class2": "",
    "suggested_facilityType": "spot",
    "lat": 22.635379791259766,
    "lng": 121.50694274902344,
    "address": "臺東縣951綠島鄉東南角",
    "status": "candidate"
  },
  {
    "tdx_id": "C1_376540000A_000367",
    "name": "綠島南寮漁港",
    "class1": "",
    "class2": "遊憩類",
    "suggested_facilityType": "tourist_attraction",
    "lat": 22.657909393310547,
    "lng": 121.4744873046875,
    "address": "臺東縣951綠島鄉南寮村西側",
    "status": "candidate"
  },
  {
    "tdx_id": "C1_376540000A_000377",
    "name": "綠島燈塔",
    "class1": "",
    "class2": "遊憩類",
    "suggested_facilityType": "tourist_attraction",
    "lat": 22.676620483398438,
    "lng": 121.46611785888672,
    "address": "臺東縣951綠島鄉環島公路1公里處",
    "status": "candidate"
  },
  {
    "tdx_id": "C1_376540000A_000378",
    "name": "綠島樓門岩",
    "class1": "自然風景類",
    "class2": "",
    "suggested_facilityType": "spot",
    "lat": 22.681049346923828,
    "lng": 121.5135269165039,
    "address": "臺東縣951綠島鄉綠島東北角海岸外約300公尺處",
    "status": "candidate"
  },
  {
    "tdx_id": "C1_376540000A_000388",
    "name": "玉女岩(火把岩)",
    "class1": "自然風景類",
    "class2": "",
    "suggested_facilityType": "spot",
    "lat": 22.080659866333008,
    "lng": 121.51750183105469,
    "address": "臺東縣952蘭嶼鄉北方海岸靠珊瑚礁岸的岩石",
    "status": "candidate"
  },
  {
    "tdx_id": "C1_376540000A_000392",
    "name": "軍艦岩",
    "class1": "自然風景類",
    "class2": "遊憩類",
    "suggested_facilityType": "spot",
    "lat": 22.07901954650879,
    "lng": 121.5796127319336,
    "address": "臺東縣952蘭嶼鄉東北方外海",
    "status": "candidate"
  },
  {
    "tdx_id": "C1_376540000A_000400",
    "name": "雙獅岩",
    "class1": "自然風景類",
    "class2": "",
    "suggested_facilityType": "spot",
    "lat": 22.085140228271484,
    "lng": 121.5672836303711,
    "address": "臺東縣952蘭嶼鄉東清到朗島之間的海濱",
    "status": "candidate"
  },
  {
    "tdx_id": "C1_376540000A_000489",
    "name": "中寮漁港",
    "class1": "",
    "class2": "",
    "suggested_facilityType": "tourist_attraction",
    "lat": 22.6756591796875,
    "lng": 121.47258758544922,
    "address": "臺東縣951綠島鄉中寮村鄰近柴口保育區",
    "status": "candidate"
  },
  {
    "tdx_id": "C1_376540000A_001293",
    "name": "哈巴狗岩",
    "class1": "自然風景類",
    "class2": "",
    "suggested_facilityType": "spot",
    "lat": 22.654369354248047,
    "lng": 121.5096206665039,
    "address": "臺東縣951綠島鄉環島公路約8公里處",
    "status": "candidate"
  },
  {
    "tdx_id": "C1_376540000A_001294",
    "name": "烏油窟",
    "class1": "",
    "class2": "自然風景類",
    "suggested_facilityType": "tourist_attraction",
    "lat": 22.67704963684082,
    "lng": 121.4666976928711,
    "address": "臺東縣951綠島鄉燈塔1號",
    "status": "candidate"
  },
  {
    "tdx_id": "C1_376540000A_001315",
    "name": "綠島豆丁海馬海底郵筒(綠島海底世界)",
    "class1": "",
    "class2": "",
    "suggested_facilityType": "tourist_attraction",
    "lat": 22.655189514160156,
    "lng": 121.47315979003906,
    "address": "臺東縣951綠島鄉石朗浮潛區(綠島石朗步道入水點約315度，直線距離約60公尺，水深11米處)",
    "status": "candidate"
  },
  {
    "tdx_id": "C1_376540000A_001373",
    "name": "舊蘭嶼燈塔",
    "class1": "",
    "class2": "自然風景類",
    "suggested_facilityType": "tourist_attraction",
    "lat": 22.05624008178711,
    "lng": 121.50836944580078,
    "address": "臺東縣952蘭嶼鄉開元港旁",
    "status": "candidate"
  },
  {
    "tdx_id": "C1_376560000A_000010",
    "name": "講美海中崗哨",
    "class1": "其他",
    "class2": "",
    "suggested_facilityType": "tourist_attraction",
    "lat": 23.636510848999023,
    "lng": 119.60749053955078,
    "address": "澎湖縣白沙鄉坪山嶼一旁",
    "status": "candidate"
  },
  {
    "tdx_id": "C1_376560000A_000020",
    "name": "奎壁山環山草徑",
    "class1": "自然風景類",
    "class2": "",
    "suggested_facilityType": "spot",
    "lat": 23.600290298461914,
    "lng": 119.66095733642578,
    "address": "澎湖縣湖西鄉北寮村奎壁山",
    "status": "candidate"
  },
  {
    "tdx_id": "C1_376560000A_000022",
    "name": "城前沙灘",
    "class1": "自然風景類",
    "class2": "",
    "suggested_facilityType": "spot",
    "lat": 23.624210357666016,
    "lng": 119.59520721435547,
    "address": "澎湖縣白沙鄉城前村",
    "status": "candidate"
  },
  {
    "tdx_id": "C1_376560000A_000023",
    "name": "燭台四景",
    "class1": "遊憩類",
    "class2": "",
    "suggested_facilityType": "tourist_attraction",
    "lat": 23.59115982055664,
    "lng": 119.49939727783203,
    "address": "澎湖縣西嶼鄉赤馬村西岸",
    "status": "candidate"
  },
  {
    "tdx_id": "C1_376560000A_000024",
    "name": "小池角雙曲橋",
    "class1": "遊憩類",
    "class2": "",
    "suggested_facilityType": "tourist_attraction",
    "lat": 23.598690032958984,
    "lng": 119.50215148925781,
    "address": "澎湖縣西嶼鄉池西村",
    "status": "candidate"
  },
  {
    "tdx_id": "C1_376560000A_000036",
    "name": "鐵砧嶼",
    "class1": "自然風景類",
    "class2": "",
    "suggested_facilityType": "spot",
    "lat": 23.710479736328125,
    "lng": 119.56468200683594,
    "address": "澎湖縣白沙鄉鐵砧嶼",
    "status": "candidate"
  },
  {
    "tdx_id": "C1_376560000A_000042",
    "name": "頭巾嶼",
    "class1": "自然風景類",
    "class2": "",
    "suggested_facilityType": "spot",
    "lat": 23.290029525756836,
    "lng": 119.4841537475586,
    "address": "澎湖縣望安鄉頭巾嶼",
    "status": "candidate"
  },
  {
    "tdx_id": "C1_376560000A_000108",
    "name": "風櫃東港、西港、北港",
    "class1": "遊憩類",
    "class2": "",
    "suggested_facilityType": "tourist_attraction",
    "lat": 23.546180725097656,
    "lng": 119.5438003540039,
    "address": "澎湖縣馬公市風櫃里",
    "status": "candidate"
  },
  {
    "tdx_id": "C1_376560000A_000127",
    "name": "七美雙心石滬",
    "class1": "自然風景類",
    "class2": "",
    "suggested_facilityType": "spot",
    "lat": 23.22052001953125,
    "lng": 119.4469223022461,
    "address": "澎湖縣七美鄉東湖村頂隙北面海崖下",
    "status": "candidate"
  },
  {
    "tdx_id": "C1_376560000A_000128",
    "name": "花嶼、花嶼燈塔",
    "class1": "其他",
    "class2": "",
    "suggested_facilityType": "tourist_attraction",
    "lat": 23.403629302978516,
    "lng": 119.3137435913086,
    "address": "澎湖縣望安鄉花嶼的山頂上",
    "status": "candidate"
  },
  {
    "tdx_id": "C1_376560000A_000135",
    "name": "赤崁親水公園",
    "class1": "其他",
    "class2": "",
    "suggested_facilityType": "tourist_attraction",
    "lat": 23.66996955871582,
    "lng": 119.6016616821289,
    "address": "澎湖縣白沙鄉赤崁村",
    "status": "candidate"
  },
  {
    "tdx_id": "C1_376560000A_000138",
    "name": "大獅龍埕風景區",
    "class1": "自然風景類",
    "class2": "",
    "suggested_facilityType": "spot",
    "lat": 23.201030731201172,
    "lng": 119.43559265136719,
    "address": "澎湖縣七美鄉中和村",
    "status": "candidate"
  },
  {
    "tdx_id": "C1_376560000A_000139",
    "name": "貓嶼",
    "class1": "生態類",
    "class2": "",
    "suggested_facilityType": "eco_center",
    "lat": 23.324159622192383,
    "lng": 119.31568145751953,
    "address": "澎湖縣望安鄉西南方約16公里的海域",
    "status": "candidate"
  },
  {
    "tdx_id": "C1_376560000A_000142",
    "name": "鳥嶼",
    "class1": "自然風景類",
    "class2": "",
    "suggested_facilityType": "spot",
    "lat": 23.663089752197266,
    "lng": 119.64610290527344,
    "address": "澎湖縣白沙鄉鳥嶼村",
    "status": "candidate"
  },
  {
    "tdx_id": "C1_376560000A_000143",
    "name": "望安鄉",
    "class1": "其他",
    "class2": "",
    "suggested_facilityType": "tourist_attraction",
    "lat": 23.383350372314453,
    "lng": 119.49124145507812,
    "address": "澎湖縣望安鄉望安鄉",
    "status": "candidate"
  },
  {
    "tdx_id": "C1_376560000A_000147",
    "name": "員貝嶼",
    "class1": "自然風景類",
    "class2": "",
    "suggested_facilityType": "spot",
    "lat": 23.64837074279785,
    "lng": 119.61637115478516,
    "address": "澎湖縣白沙鄉員貝村",
    "status": "candidate"
  },
  {
    "tdx_id": "C1_376560000A_000149",
    "name": "虎井嶼",
    "class1": "自然風景類",
    "class2": "",
    "suggested_facilityType": "spot",
    "lat": 23.490570068359375,
    "lng": 119.5190200805664,
    "address": "澎湖縣馬公市虎井嶼",
    "status": "candidate"
  },
  {
    "tdx_id": "C1_376560000A_000151",
    "name": "東嶼坪",
    "class1": "自然風景類",
    "class2": "",
    "suggested_facilityType": "spot",
    "lat": 23.153669357299805,
    "lng": 119.30593872070312,
    "address": "澎湖縣望安鄉東嶼坪",
    "status": "candidate"
  },
  {
    "tdx_id": "C1_376560000A_000154",
    "name": "東吉嶼",
    "class1": "自然風景類",
    "class2": "",
    "suggested_facilityType": "spot",
    "lat": 23.255809783935547,
    "lng": 119.3923110961914,
    "address": "澎湖縣望安鄉東吉嶼",
    "status": "candidate"
  },
  {
    "tdx_id": "C1_376560000A_000155",
    "name": "姑婆嶼",
    "class1": "自然風景類",
    "class2": "",
    "suggested_facilityType": "spot",
    "lat": 23.715059280395508,
    "lng": 119.5205307006836,
    "address": "澎湖縣白沙鄉姑婆嶼",
    "status": "candidate"
  },
  {
    "tdx_id": "C1_376560000A_000159",
    "name": "西嶼坪",
    "class1": "自然風景類",
    "class2": "",
    "suggested_facilityType": "spot",
    "lat": 23.259750366210938,
    "lng": 119.49915313720703,
    "address": "澎湖縣望安鄉西嶼坪嶼",
    "status": "candidate"
  },
  {
    "tdx_id": "C1_376560000A_000161",
    "name": "西吉嶼",
    "class1": "自然風景類",
    "class2": "",
    "suggested_facilityType": "spot",
    "lat": 23.2491397857666,
    "lng": 119.33537292480469,
    "address": "澎湖縣望安鄉西吉村",
    "status": "candidate"
  },
  {
    "tdx_id": "C1_376560000A_000197",
    "name": "馬公金龜頭礮臺文化園區",
    "class1": "文化類",
    "class2": "遊憩類",
    "suggested_facilityType": "tourist_attraction",
    "lat": 23.56281089782715,
    "lng": 119.55574798583984,
    "address": "澎湖縣馬公市莒光村10-2號",
    "status": "candidate"
  },
  {
    "tdx_id": "C1_376560000A_000203",
    "name": "小台灣",
    "class1": "自然風景類",
    "class2": "",
    "suggested_facilityType": "spot",
    "lat": 23.208580017089844,
    "lng": 119.44357299804688,
    "address": "澎湖縣七美鄉東湖村",
    "status": "candidate"
  },
  {
    "tdx_id": "C1_376560000A_000205",
    "name": "澎湖縣水產種苗繁殖場",
    "class1": "其他",
    "class2": "",
    "suggested_facilityType": "tourist_attraction",
    "lat": 23.52606964111328,
    "lng": 119.56468963623047,
    "address": "澎湖縣馬公市嵵裡里66~6號",
    "status": "candidate"
  },
  {
    "tdx_id": "C1_376560000A_000232",
    "name": "望夫石",
    "class1": "自然風景類",
    "class2": "",
    "suggested_facilityType": "spot",
    "lat": 23.187040328979492,
    "lng": 119.42894744873047,
    "address": "澎湖縣七美鄉南港村七美燈塔下方海岸",
    "status": "candidate"
  },
  {
    "tdx_id": "C1_376560000A_000266",
    "name": "西嶼池西虎目滬",
    "class1": "自然風景類",
    "class2": "",
    "suggested_facilityType": "spot",
    "lat": 23.59933090209961,
    "lng": 119.49883270263672,
    "address": "澎湖縣西嶼鄉西嶼池",
    "status": "candidate"
  },
  {
    "tdx_id": "C1_382000000A_110674",
    "name": "磺港漁港",
    "class1": "其他",
    "class2": "",
    "suggested_facilityType": "tourist_attraction",
    "lat": 25.230419158935547,
    "lng": 121.64774322509766,
    "address": "新北市208金山區磺溪下游出海口",
    "status": "candidate"
  },
  {
    "tdx_id": "C1_A15010100H_000068",
    "name": "紫坪",
    "class1": "",
    "class2": "",
    "suggested_facilityType": "tourist_attraction",
    "lat": 22.633939743041992,
    "lng": 121.49990844726562,
    "address": "臺東縣951綠島鄉溫泉路256號",
    "status": "candidate"
  },
  {
    "tdx_id": "C1_A15010100H_000073",
    "name": "帆船鼻大草原",
    "class1": "",
    "class2": "",
    "suggested_facilityType": "tourist_attraction",
    "lat": 22.63365936279297,
    "lng": 121.50689697265625,
    "address": "臺東縣951綠島鄉溫泉路167號",
    "status": "candidate"
  },
  {
    "tdx_id": "C1_A15010100H_000098",
    "name": "哈巴狗與睡美人岩",
    "class1": "",
    "class2": "",
    "suggested_facilityType": "tourist_attraction",
    "lat": 22.655019760131836,
    "lng": 121.509521484375,
    "address": "臺東縣951綠島鄉哈巴狗岩",
    "status": "candidate"
  },
  {
    "tdx_id": "C1_A15010100H_000167",
    "name": "柴口浮潛區",
    "class1": "",
    "class2": "",
    "suggested_facilityType": "tourist_attraction",
    "lat": 22.677919387817383,
    "lng": 121.48278045654297,
    "address": "臺東縣951綠島鄉柴口61號",
    "status": "candidate"
  },
  {
    "tdx_id": "C1_A15010200H_000013",
    "name": "安宅里˙嶼仔尖塔",
    "class1": "文化類",
    "class2": "",
    "suggested_facilityType": "tourist_attraction",
    "lat": 23.576499938964844,
    "lng": 119.59700012207031,
    "address": "澎湖縣馬公市安宅漁港西南側，中營前方之潮間帶上",
    "status": "candidate"
  },
  {
    "tdx_id": "C1_A15010200H_000051",
    "name": "小門菜宅",
    "class1": "生態類",
    "class2": "",
    "suggested_facilityType": "eco_center",
    "lat": 23.64858055114746,
    "lng": 119.51960754394531,
    "address": "澎湖縣西嶼鄉小門嶼",
    "status": "candidate"
  },
  {
    "tdx_id": "C1_A15010200H_000076",
    "name": "澎澎灘",
    "class1": "自然風景類",
    "class2": "",
    "suggested_facilityType": "spot",
    "lat": 23.659040451049805,
    "lng": 119.63970184326172,
    "address": "澎湖縣白沙鄉澎澎灘",
    "status": "candidate"
  },
  {
    "tdx_id": "C1_A15010200H_000093",
    "name": "菜園休閒漁業區",
    "class1": "文化類",
    "class2": "",
    "suggested_facilityType": "tourist_attraction",
    "lat": 23.55010986328125,
    "lng": 119.59529876708984,
    "address": "澎湖縣馬公市菜園里",
    "status": "candidate"
  },
  {
    "tdx_id": "C1_A15010200H_000130",
    "name": "雙心石滬",
    "class1": "自然風景類",
    "class2": "",
    "suggested_facilityType": "spot",
    "lat": 23.2202205657959,
    "lng": 119.44696807861328,
    "address": "澎湖縣七美鄉雙心石滬",
    "status": "candidate"
  },
  {
    "tdx_id": "C1_A15010400H_000432",
    "name": "美人洞",
    "class1": "自然風景類",
    "class2": "遊憩類",
    "suggested_facilityType": "spot",
    "lat": 22.353790283203125,
    "lng": 120.37317657470703,
    "address": "屏東縣琉球鄉環島公路",
    "status": "candidate"
  },
  {
    "tdx_id": "C1_A15010400H_000461",
    "name": "花瓶岩",
    "class1": "自然風景類",
    "class2": "遊憩類",
    "suggested_facilityType": "spot",
    "lat": 22.35565948486328,
    "lng": 120.3807601928711,
    "address": "屏東縣琉球鄉花瓶岩",
    "status": "candidate"
  },
  {
    "tdx_id": "C1_A15010400H_000498",
    "name": "琉行之道",
    "class1": "自然風景類",
    "class2": "",
    "suggested_facilityType": "spot",
    "lat": 22.34416961669922,
    "lng": 120.36219024658203,
    "address": "屏東縣琉球鄉琉行之道",
    "status": "candidate"
  },
  {
    "tdx_id": "C1_A15010500H_020180",
    "name": "莒光遊客中心",
    "class1": "生態類",
    "class2": "國家風景區類",
    "suggested_facilityType": "eco_center",
    "lat": 25.961830139160156,
    "lng": 119.98533630371094,
    "address": "連江縣莒光鄉福正村1號",
    "status": "candidate"
  },
  {
    "tdx_id": "C1_A15010500H_020182",
    "name": "福正聚落",
    "class1": "生態類",
    "class2": "國家風景區類",
    "suggested_facilityType": "eco_center",
    "lat": 25.96324920654297,
    "lng": 119.9867935180664,
    "address": "連江縣莒光鄉福正聚落",
    "status": "candidate"
  },
  {
    "tdx_id": "C1_A15010500H_020184",
    "name": "東莒島燈塔(東犬燈塔)",
    "class1": "生態類",
    "class2": "國家風景區類",
    "suggested_facilityType": "eco_center",
    "lat": 25.964040756225586,
    "lng": 119.9905776977539,
    "address": "連江縣莒光鄉福正村56號之1",
    "status": "candidate"
  },
  {
    "tdx_id": "C1_A15010500H_020185",
    "name": "神祕小海灣",
    "class1": "生態類",
    "class2": "國家風景區類",
    "suggested_facilityType": "eco_center",
    "lat": 25.956680297851562,
    "lng": 119.98236846923828,
    "address": "連江縣莒光鄉神秘小海灣",
    "status": "candidate"
  },
  {
    "tdx_id": "C1_A15010500H_020186",
    "name": "大浦聚落",
    "class1": "生態類",
    "class2": "國家風景區類",
    "suggested_facilityType": "eco_center",
    "lat": 25.951820373535156,
    "lng": 119.97691345214844,
    "address": "連江縣莒光鄉大浦聚落",
    "status": "candidate"
  },
  {
    "tdx_id": "C1_A15010500H_020189",
    "name": "大埔石刻",
    "class1": "生態類",
    "class2": "國家風景區類",
    "suggested_facilityType": "eco_center",
    "lat": 25.946449279785156,
    "lng": 119.9671401977539,
    "address": "連江縣莒光鄉大埔石刻",
    "status": "candidate"
  },
  {
    "tdx_id": "C1_A15010500H_020190",
    "name": "林坳嶼",
    "class1": "生態類",
    "class2": "國家風景區類",
    "suggested_facilityType": "eco_center",
    "lat": 25.942569732666016,
    "lng": 119.96761322021484,
    "address": "連江縣莒光鄉林坳嶼",
    "status": "candidate"
  },
  {
    "tdx_id": "C1_A15010500H_020191",
    "name": "西牛嶼",
    "class1": "生態類",
    "class2": "國家風景區類",
    "suggested_facilityType": "eco_center",
    "lat": 25.969200134277344,
    "lng": 119.97898864746094,
    "address": "連江縣莒光鄉西牛嶼",
    "status": "candidate"
  },
  {
    "tdx_id": "C1_A15010500H_020192",
    "name": "中流嶼",
    "class1": "生態類",
    "class2": "國家風景區類",
    "suggested_facilityType": "eco_center",
    "lat": 25.970029830932617,
    "lng": 119.97982788085938,
    "address": "連江縣莒光鄉中流嶼",
    "status": "candidate"
  },
  {
    "tdx_id": "C1_A15010500H_020193",
    "name": "青帆港",
    "class1": "生態類",
    "class2": "國家風景區類",
    "suggested_facilityType": "eco_center",
    "lat": 25.96632957458496,
    "lng": 119.93536376953125,
    "address": "連江縣莒光鄉青帆港",
    "status": "candidate"
  },
  {
    "tdx_id": "C1_A15010500H_020194",
    "name": "菜浦澳",
    "class1": "生態類",
    "class2": "國家風景區類",
    "suggested_facilityType": "eco_center",
    "lat": 25.978500366210938,
    "lng": 119.94783782958984,
    "address": "連江縣莒光鄉菜浦澳",
    "status": "candidate"
  },
  {
    "tdx_id": "C1_A15010500H_020196",
    "name": "蛇山",
    "class1": "生態類",
    "class2": "國家風景區類",
    "suggested_facilityType": "eco_center",
    "lat": 25.97303009033203,
    "lng": 119.92597198486328,
    "address": "連江縣莒光鄉蛇島",
    "status": "candidate"
  },
  {
    "tdx_id": "C1_A15010500H_020202",
    "name": "塘后道沙灘",
    "class1": "生態類",
    "class2": "國家風景區類",
    "suggested_facilityType": "eco_center",
    "lat": 26.222829818725586,
    "lng": 120.00476837158203,
    "address": "連江縣北竿鄉塘後道沙灘",
    "status": "candidate"
  },
  {
    "tdx_id": "C1_A15010500H_020225",
    "name": "鐵堡..",
    "class1": "生態類",
    "class2": "國家風景區類",
    "suggested_facilityType": "eco_center",
    "lat": 26.142030715942383,
    "lng": 119.92086791992188,
    "address": "連江縣南竿鄉鐵堡",
    "status": "candidate"
  },
  {
    "tdx_id": "C1_A15010500H_020231",
    "name": "印地安人頭岩",
    "class1": "生態類",
    "class2": "國家風景區類",
    "suggested_facilityType": "eco_center",
    "lat": 26.140459060668945,
    "lng": 119.9300537109375,
    "address": "連江縣南竿鄉印地安人頭岩",
    "status": "candidate"
  },
  {
    "tdx_id": "C1_A15011000H_000031",
    "name": "燭臺雙嶼",
    "class1": "遊憩類",
    "class2": "國家風景區類",
    "suggested_facilityType": "tourist_attraction",
    "lat": 25.23291015625,
    "lng": 121.65450286865234,
    "address": "新北市金山區獅頭山公園",
    "status": "candidate"
  },
  {
    "tdx_id": "C1_A15011000H_000153",
    "name": "外木山湖海灣",
    "class1": "國家風景區類",
    "class2": "",
    "suggested_facilityType": "scenic_area",
    "lat": 25.172460556030273,
    "lng": 121.70890808105469,
    "address": "基隆市中山區湖海路一、二段(協和街)",
    "status": "candidate"
  },
  {
    "tdx_id": "C1_A15011100H_000309",
    "name": "外傘頂洲沙灘",
    "class1": "",
    "class2": "",
    "suggested_facilityType": "tourist_attraction",
    "lat": 23.470260620117188,
    "lng": 120.05805206298828,
    "address": "雲林縣653口湖鄉外海的外傘頂洲沙灘",
    "status": "candidate"
  },
  {
    "tdx_id": "C1_376470000A_000227",
    "name": "坑內坑森林步道",
    "class1": "自然風景類",
    "class2": "",
    "suggested_facilityType": "spot",
    "lat": 23.832550048828125,
    "lng": 120.62982177734375,
    "address": "彰化縣二水鄉坑內坑",
    "status": "candidate"
  },
  {
    "tdx_id": "C1_376470000A_000460",
    "name": "石頭公三坑步道",
    "class1": "自然風景類",
    "class2": "",
    "suggested_facilityType": "spot",
    "lat": 23.912185668945312,
    "lng": 120.6370620727539,
    "address": "彰化縣社頭鄉石頭公三坑",
    "status": "candidate"
  },
  {
    "tdx_id": "C1_376470000A_000518",
    "name": "百果山自行車道",
    "class1": "體育健身類",
    "class2": "",
    "suggested_facilityType": "tourist_attraction",
    "lat": 23.946611404418945,
    "lng": 120.63551330566406,
    "address": "湖水路與八卦路口(139縣道)",
    "status": "candidate"
  },
  {
    "tdx_id": "C1_376480000A_000004",
    "name": "雲龍瀑布",
    "class1": "自然風景類",
    "class2": "體育健身類",
    "suggested_facilityType": "spot",
    "lat": 23.555570602416992,
    "lng": 120.95381164550781,
    "address": "南投縣信義鄉八通關古道東埔登山口",
    "status": "candidate"
  },
  {
    "tdx_id": "C1_376480000A_000012",
    "name": "前山第一城石碣",
    "class1": "觀光工廠類",
    "class2": "",
    "suggested_facilityType": "factory",
    "lat": 23.762210845947266,
    "lng": 120.67115020751953,
    "address": "南投縣竹山鎮前山路一段278號 (前300公尺)",
    "status": "candidate"
  },
  {
    "tdx_id": "C1_376480000A_000016",
    "name": "藏傘閣文化休閒園區",
    "class1": "觀光工廠類",
    "class2": "",
    "suggested_facilityType": "factory",
    "lat": 23.951120376586914,
    "lng": 120.673828125,
    "address": "南投縣竹山鎮工業區延平路10號",
    "status": "candidate"
  },
  {
    "tdx_id": "C1_376480000A_000019",
    "name": "橋聳雲天(國道六號國姓交流道)",
    "class1": "觀光工廠類",
    "class2": "",
    "suggested_facilityType": "factory",
    "lat": 24.005229949951172,
    "lng": 120.81527709960938,
    "address": "橋聳雲天",
    "status": "candidate"
  },
  {
    "tdx_id": "C1_376480000A_000020",
    "name": "楓香巨木群公園",
    "class1": "生態類",
    "class2": "自然風景類",
    "suggested_facilityType": "eco_center",
    "lat": 23.976770401000977,
    "lng": 120.99156951904297,
    "address": "南投縣埔里鎮蜈蚣里的蜈蚣社區內",
    "status": "candidate"
  },
  {
    "tdx_id": "C1_376480000A_000023",
    "name": "奕青酒莊",
    "class1": "休閒農業類",
    "class2": "遊憩類",
    "suggested_facilityType": "farm",
    "lat": 23.73369026184082,
    "lng": 120.85295867919922,
    "address": "南投縣水里鄉上安村安村巷101之9 號",
    "status": "candidate"
  },
  {
    "tdx_id": "C1_376480000A_000026",
    "name": "碧湖（萬大水庫）",
    "class1": "自然風景類",
    "class2": "",
    "suggested_facilityType": "spot",
    "lat": 24.037059783935547,
    "lng": 121.14212036132812,
    "address": "南投縣仁愛鄉親愛村萬大水庫",
    "status": "candidate"
  },
  {
    "tdx_id": "C1_376480000A_000027",
    "name": "鳶峰",
    "class1": "文化類",
    "class2": "",
    "suggested_facilityType": "tourist_attraction",
    "lat": 24.120119094848633,
    "lng": 121.23584747314453,
    "address": "南投縣仁愛鄉台14甲線24.3公里處",
    "status": "candidate"
  },
  {
    "tdx_id": "C1_376480000A_000033",
    "name": "錦吉昆蟲館",
    "class1": "文化類",
    "class2": "",
    "suggested_facilityType": "tourist_attraction",
    "lat": 23.99827003479004,
    "lng": 121.0420913696289,
    "address": "埔里鎮中山路一段21號",
    "status": "candidate"
  },
  {
    "tdx_id": "C1_376480000A_000037",
    "name": "國姓北港溪溫泉",
    "class1": "溫泉類",
    "class2": "",
    "suggested_facilityType": "tourist_attraction",
    "lat": 24.06402015686035,
    "lng": 120.93338012695312,
    "address": "南投縣國姓鄉北港村北原路",
    "status": "candidate"
  },
  {
    "tdx_id": "C1_376480000A_000039",
    "name": "永興水火同源",
    "class1": "文化類",
    "class2": "",
    "suggested_facilityType": "tourist_attraction",
    "lat": 23.784799575805664,
    "lng": 120.86158752441406,
    "address": "水里鄉永興村投58號鄉道3.5K處的路旁竹林下",
    "status": "candidate"
  },
  {
    "tdx_id": "C1_376480000A_000041",
    "name": "埔里溫泉",
    "class1": "溫泉類",
    "class2": "",
    "suggested_facilityType": "tourist_attraction",
    "lat": 23.979509353637695,
    "lng": 120.992431640625,
    "address": "南投縣埔里鎮鯉魚路37-1號及中山路一段151號",
    "status": "candidate"
  },
  {
    "tdx_id": "C1_376480000A_000067",
    "name": "日月潭涵碧步道",
    "class1": "體育健身類",
    "class2": "",
    "suggested_facilityType": "tourist_attraction",
    "lat": 23.862680435180664,
    "lng": 120.90912628173828,
    "address": "南投縣魚池鄉日月潭畔",
    "status": "candidate"
  },
  {
    "tdx_id": "C1_376480000A_000068",
    "name": "日月潭水社親水步道",
    "class1": "體育健身類",
    "class2": "",
    "suggested_facilityType": "tourist_attraction",
    "lat": 23.864429473876953,
    "lng": 120.91194152832031,
    "address": "南投縣魚池鄉名勝街",
    "status": "candidate"
  },
  {
    "tdx_id": "C1_376480000A_000069",
    "name": "日月潭水蛙頭步道",
    "class1": "體育健身類",
    "class2": "",
    "suggested_facilityType": "tourist_attraction",
    "lat": 23.858579635620117,
    "lng": 120.9359130859375,
    "address": "南投縣埔里鎮南投縣魚池鄉日月村水蛙頭步道",
    "status": "candidate"
  },
  {
    "tdx_id": "C1_376480000A_000070",
    "name": "烏松崙觀光梅園",
    "class1": "自然風景類",
    "class2": "遊憩類",
    "suggested_facilityType": "spot",
    "lat": 23.677860260009766,
    "lng": 120.84745788574219,
    "address": "南投縣信義鄉自強村烏松崙",
    "status": "candidate"
  },
  {
    "tdx_id": "C1_376480000A_000073",
    "name": "日月潭後尖山步道",
    "class1": "體育健身類",
    "class2": "",
    "suggested_facilityType": "tourist_attraction",
    "lat": 23.832040786743164,
    "lng": 120.89695739746094,
    "address": "南投縣魚池鄉頭社佛堂旁",
    "status": "candidate"
  },
  {
    "tdx_id": "C1_376480000A_000074",
    "name": "日月潭青龍山步道",
    "class1": "體育健身類",
    "class2": "",
    "suggested_facilityType": "tourist_attraction",
    "lat": 23.84769058227539,
    "lng": 120.91606140136719,
    "address": "555南投縣魚池鄉玄光寺碼頭",
    "status": "candidate"
  },
  {
    "tdx_id": "C1_376480000A_000076",
    "name": "廣霖菇菇的家養生館",
    "class1": "休閒農業類",
    "class2": "",
    "suggested_facilityType": "farm",
    "lat": 23.949939727783203,
    "lng": 120.86865997314453,
    "address": "南投縣國姓鄉南港村南港路146號",
    "status": "candidate"
  },
  {
    "tdx_id": "C1_376480000A_000078",
    "name": "水雲橋",
    "class1": "觀光工廠類",
    "class2": "",
    "suggested_facilityType": "factory",
    "lat": 23.812910079956055,
    "lng": 120.84970092773438,
    "address": "南投縣水里鄉中山路一段515號(玉山國家公園管理處旁)",
    "status": "candidate"
  },
  {
    "tdx_id": "C1_376480000A_000079",
    "name": "南投野溪溫泉-精英溫泉",
    "class1": "文化類",
    "class2": "",
    "suggested_facilityType": "tourist_attraction",
    "lat": 24.026039123535156,
    "lng": 121.16603088378906,
    "address": "南投縣仁愛鄉在台14線95.2公里處",
    "status": "candidate"
  },
  {
    "tdx_id": "C1_376480000A_000080",
    "name": "永興大樟樹",
    "class1": "自然風景類",
    "class2": "廟宇類",
    "suggested_facilityType": "spot",
    "lat": 23.78396987915039,
    "lng": 120.86196899414062,
    "address": "永興村永興活動中心旁，鄰投58號鄉道",
    "status": "candidate"
  },
  {
    "tdx_id": "C1_376480000A_000081",
    "name": "龍鳳瀑布",
    "class1": "自然風景類",
    "class2": "",
    "suggested_facilityType": "spot",
    "lat": 23.94232940673828,
    "lng": 120.81047058105469,
    "address": "南投縣中寮鄉瀧林巷28號",
    "status": "candidate"
  },
  {
    "tdx_id": "C1_376480000A_000083",
    "name": "日月潭大竹湖步道",
    "class1": "體育健身類",
    "class2": "",
    "suggested_facilityType": "tourist_attraction",
    "lat": 23.86372947692871,
    "lng": 120.94074249267578,
    "address": "南投縣魚池鄉大竹湖步道",
    "status": "candidate"
  },
  {
    "tdx_id": "C1_376480000A_000086",
    "name": "名間新街冷泉濕地",
    "class1": "自然風景類",
    "class2": "",
    "suggested_facilityType": "spot",
    "lat": 23.88298988342285,
    "lng": 120.69468688964844,
    "address": "南投縣名間鄉新街村",
    "status": "candidate"
  },
  {
    "tdx_id": "C1_376480000A_000087",
    "name": "和菓森林",
    "class1": "休閒農業類",
    "class2": "",
    "suggested_facilityType": "farm",
    "lat": 23.923009872436523,
    "lng": 120.93582916259766,
    "address": "南投縣魚池鄉新城村香茶巷5號",
    "status": "candidate"
  },
  {
    "tdx_id": "C1_376480000A_000089",
    "name": "日月潭土亭仔步道",
    "class1": "體育健身類",
    "class2": "",
    "suggested_facilityType": "tourist_attraction",
    "lat": 23.851369857788086,
    "lng": 120.92247009277344,
    "address": "南投縣魚池鄉日月村土亭仔步道",
    "status": "candidate"
  },
  {
    "tdx_id": "C1_376480000A_000090",
    "name": "日月潭─月潭自行車道",
    "class1": "體育健身類",
    "class2": "自然風景類",
    "suggested_facilityType": "tourist_attraction",
    "lat": 23.840429306030273,
    "lng": 120.90679168701172,
    "address": "555南投縣魚池鄉月潭自行車道",
    "status": "candidate"
  },
  {
    "tdx_id": "C1_376480000A_000091",
    "name": "日月潭伊達邵親水步道",
    "class1": "體育健身類",
    "class2": "",
    "suggested_facilityType": "tourist_attraction",
    "lat": 23.849519729614258,
    "lng": 120.9328384399414,
    "address": "南投縣魚池鄉水秀街57號",
    "status": "candidate"
  },
  {
    "tdx_id": "C1_376480000A_000093",
    "name": "父不知子斷崖",
    "class1": "自然風景類",
    "class2": "",
    "suggested_facilityType": "spot",
    "lat": 23.555870056152344,
    "lng": 120.93769073486328,
    "address": "南投縣信義鄉父不知子斷崖",
    "status": "candidate"
  },
  {
    "tdx_id": "C1_376480000A_000094",
    "name": "臺灣菸酒(股)公司南投觀光酒廠",
    "class1": "觀光工廠類",
    "class2": "遊憩類",
    "suggested_facilityType": "factory",
    "lat": 23.920089721679688,
    "lng": 120.70504760742188,
    "address": "南投市軍功里東山路82號",
    "status": "candidate"
  },
  {
    "tdx_id": "C1_376480000A_000095",
    "name": "曲冰遺址",
    "class1": "古蹟類",
    "class2": "自然風景類",
    "suggested_facilityType": "tourist_attraction",
    "lat": 23.963350296020508,
    "lng": 121.07894897460938,
    "address": "南投縣仁愛村曲冰部落",
    "status": "candidate"
  },
  {
    "tdx_id": "C1_376480000A_000096",
    "name": "八通關古道",
    "class1": "自然風景類",
    "class2": "文化類",
    "suggested_facilityType": "spot",
    "lat": 23.556119918823242,
    "lng": 120.92823028564453,
    "address": "南投縣信義鄉八通關古道",
    "status": "candidate"
  },
  {
    "tdx_id": "C1_376480000A_000097",
    "name": "水里鵲橋",
    "class1": "遊憩類",
    "class2": "",
    "suggested_facilityType": "tourist_attraction",
    "lat": 23.740140914916992,
    "lng": 120.85922241210938,
    "address": "南投縣水里鄉上安村水里鵲橋",
    "status": "candidate"
  },
  {
    "tdx_id": "C1_376480000A_000111",
    "name": "遊山茶訪",
    "class1": "遊憩類",
    "class2": "",
    "suggested_facilityType": "tourist_attraction",
    "lat": 23.768909454345703,
    "lng": 120.7025375366211,
    "address": "南投縣竹山鎮延平路19號",
    "status": "candidate"
  },
  {
    "tdx_id": "C1_376480000A_000129",
    "name": "軟鞍八卦茶園-大鞍竹海風景區",
    "class1": "自然風景類",
    "class2": "",
    "suggested_facilityType": "spot",
    "lat": 23.675029754638672,
    "lng": 120.7519302368164,
    "address": "台灣南投縣竹山鎮五寮巷11-1號",
    "status": "candidate"
  },
  {
    "tdx_id": "C1_376480000A_000133",
    "name": "人止關",
    "class1": "自然風景類",
    "class2": "",
    "suggested_facilityType": "spot",
    "lat": 23.996450424194336,
    "lng": 121.0698471069336,
    "address": "台灣南投縣仁愛鄉台14甲線(大觀橋與仁愛橋折彎區)",
    "status": "candidate"
  },
  {
    "tdx_id": "C1_376480000A_000134",
    "name": "LaLu島(拉魯)",
    "class1": "自然風景類",
    "class2": "",
    "suggested_facilityType": "spot",
    "lat": 23.856800079345703,
    "lng": 120.91123962402344,
    "address": "南投縣魚池鄉拉魯島",
    "status": "candidate"
  },
  {
    "tdx_id": "C1_376480000A_000136",
    "name": "肖楠巨林群",
    "class1": "自然風景類",
    "class2": "",
    "suggested_facilityType": "spot",
    "lat": 23.94053077697754,
    "lng": 120.81365203857422,
    "address": "南投縣中寮鄉清水村龍林巷65號（左右）",
    "status": "candidate"
  },
  {
    "tdx_id": "C1_376480000A_000143",
    "name": "雙十吊橋",
    "class1": "自然風景類",
    "class2": "",
    "suggested_facilityType": "spot",
    "lat": 23.98579978942871,
    "lng": 120.7796630859375,
    "address": "中潭公路旁草屯鎮雙冬段雙冬橋旁",
    "status": "candidate"
  },
  {
    "tdx_id": "C1_376480000A_000145",
    "name": "北港溪石橋",
    "class1": "古蹟類",
    "class2": "",
    "suggested_facilityType": "tourist_attraction",
    "lat": 24.058509826660156,
    "lng": 120.90647888183594,
    "address": "南投縣國姓鄉國姓路糯米橋",
    "status": "candidate"
  },
  {
    "tdx_id": "C1_376480000A_000152",
    "name": "林家養鹿場",
    "class1": "文化類",
    "class2": "",
    "suggested_facilityType": "tourist_attraction",
    "lat": 23.946020126342773,
    "lng": 120.86575317382812,
    "address": "南投縣國姓鄉南港村",
    "status": "candidate"
  },
  {
    "tdx_id": "C1_376480000A_000154",
    "name": "台灣國姓咖啡館(國姓驛站)",
    "class1": "遊憩類",
    "class2": "小吃/特產類",
    "suggested_facilityType": "tourist_attraction",
    "lat": 24.012170791625977,
    "lng": 120.81935119628906,
    "address": "南投縣國姓鄉中正路一段127號",
    "status": "candidate"
  },
  {
    "tdx_id": "C1_376480000A_000161",
    "name": "廣興紙寮",
    "class1": "遊憩類",
    "class2": "",
    "suggested_facilityType": "tourist_attraction",
    "lat": 23.975719451904297,
    "lng": 120.93827056884766,
    "address": "南投縣埔里鎮鐵山里鐵山路310號",
    "status": "candidate"
  },
  {
    "tdx_id": "C1_376480000A_000164",
    "name": "大崙山銀杏茶園",
    "class1": "自然風景類",
    "class2": "",
    "suggested_facilityType": "spot",
    "lat": 23.679309844970703,
    "lng": 120.76351165771484,
    "address": "南投縣鹿谷鄉羊彎巷",
    "status": "candidate"
  },
  {
    "tdx_id": "C1_376480000A_000171",
    "name": "風櫃斗梅園",
    "class1": "自然風景類",
    "class2": "",
    "suggested_facilityType": "spot",
    "lat": 23.672319412231445,
    "lng": 120.85930633544922,
    "address": "南投縣信義鄉牛稠坑陽和巷風櫃斗梅園",
    "status": "candidate"
  },
  {
    "tdx_id": "C1_376480000A_000173",
    "name": "上安觀光果園",
    "class1": "休閒農業類",
    "class2": "",
    "suggested_facilityType": "farm",
    "lat": 23.723419189453125,
    "lng": 120.85301971435547,
    "address": "南投縣水里鄉安村巷38之2號",
    "status": "candidate"
  },
  {
    "tdx_id": "C1_376480000A_000174",
    "name": "蟬說雅築",
    "class1": "遊憩類",
    "class2": "",
    "suggested_facilityType": "tourist_attraction",
    "lat": 23.570280075073242,
    "lng": 120.91758728027344,
    "address": "南投縣信義鄉東埔村30號",
    "status": "candidate"
  },
  {
    "tdx_id": "C1_376480000A_000177",
    "name": "竹山社寮敬聖亭",
    "class1": "古蹟類",
    "class2": "",
    "suggested_facilityType": "tourist_attraction",
    "lat": 23.814550399780273,
    "lng": 120.72252655029297,
    "address": "南投縣竹山鎮集山路一段1738號",
    "status": "candidate"
  },
  {
    "tdx_id": "C1_376480000A_000179",
    "name": "軍功綠美橋",
    "class1": "自然風景類",
    "class2": "",
    "suggested_facilityType": "spot",
    "lat": 23.915189743041992,
    "lng": 120.69407653808594,
    "address": "南投市中興新村進入南投市必經橋樑軍功橋之右側",
    "status": "candidate"
  },
  {
    "tdx_id": "C1_376480000A_000180",
    "name": "蝴蝶小鎮休閒園區",
    "class1": "生態類",
    "class2": "",
    "suggested_facilityType": "eco_center",
    "lat": 23.96544075012207,
    "lng": 120.9457015991211,
    "address": "南投縣埔里鎮南村里南村路6-2號（愛蘭橋附近）",
    "status": "candidate"
  },
  {
    "tdx_id": "C1_376480000A_000185",
    "name": "水社大山步道",
    "class1": "體育健身類",
    "class2": "",
    "suggested_facilityType": "tourist_attraction",
    "lat": 23.85110092163086,
    "lng": 120.9468765258789,
    "address": "南投縣魚池鄉水社大山步道",
    "status": "candidate"
  },
  {
    "tdx_id": "C1_376480000A_000186",
    "name": "登瀛書院",
    "class1": "古蹟類",
    "class2": "",
    "suggested_facilityType": "tourist_attraction",
    "lat": 23.98904037475586,
    "lng": 120.66748046875,
    "address": "草屯鎮新庄里史館路文昌巷30號",
    "status": "candidate"
  },
  {
    "tdx_id": "C1_376480000A_000187",
    "name": "福龜草莓園",
    "class1": "休閒農業類",
    "class2": "",
    "suggested_facilityType": "farm",
    "lat": 24.012439727783203,
    "lng": 120.81939697265625,
    "address": "南投縣國姓鄉中正路一段",
    "status": "candidate"
  },
  {
    "tdx_id": "C1_376480000A_000188",
    "name": "台灣省政資料館",
    "class1": "文化類",
    "class2": "",
    "suggested_facilityType": "tourist_attraction",
    "lat": 23.956100463867188,
    "lng": 120.68621063232422,
    "address": "南投市中興新村中正路2號",
    "status": "candidate"
  },
  {
    "tdx_id": "C1_376480000A_000189",
    "name": "竹藝博物館",
    "class1": "藝術類",
    "class2": "",
    "suggested_facilityType": "tourist_attraction",
    "lat": 23.90842056274414,
    "lng": 120.68209075927734,
    "address": "南投市建國路135號",
    "status": "candidate"
  },
  {
    "tdx_id": "C1_376480000A_000192",
    "name": "芙蓉谷瀑布",
    "class1": "自然風景類",
    "class2": "遊憩類",
    "suggested_facilityType": "spot",
    "lat": 24.091459274291992,
    "lng": 120.9371337890625,
    "address": "南投縣國姓鄉北港村北圳巷",
    "status": "candidate"
  },
  {
    "tdx_id": "C1_376480000A_000196",
    "name": "仙峰日月洞",
    "class1": "自然風景類",
    "class2": "",
    "suggested_facilityType": "spot",
    "lat": 23.883169174194336,
    "lng": 120.73297119140625,
    "address": "南投縣中寮鄉仙峰嶺日月洞，就在縣139道50.5公里撻仔灣福長橋處(往日月洞約2公里)，右轉駛入往日月洞的產業道路上",
    "status": "candidate"
  },
  {
    "tdx_id": "C1_376480000A_000197",
    "name": "桂花森林",
    "class1": "遊憩類",
    "class2": "",
    "suggested_facilityType": "tourist_attraction",
    "lat": 23.830890655517578,
    "lng": 120.64768981933594,
    "address": "南投縣名間鄉埔中村名松路一段503巷13號",
    "status": "candidate"
  },
  {
    "tdx_id": "C1_376480000A_000198",
    "name": "藍田書院",
    "class1": "古蹟類",
    "class2": "",
    "suggested_facilityType": "tourist_attraction",
    "lat": 23.90723991394043,
    "lng": 120.68435668945312,
    "address": "南投市崇文里文昌街140號",
    "status": "candidate"
  },
  {
    "tdx_id": "C1_376480000A_000199",
    "name": "韭菜溪湖(偃塞湖)",
    "class1": "文化類",
    "class2": "",
    "suggested_facilityType": "tourist_attraction",
    "lat": 23.918190002441406,
    "lng": 120.9640884399414,
    "address": "台灣南投縣國姓鄉南港村進入",
    "status": "candidate"
  },
  {
    "tdx_id": "C1_376480000A_000201",
    "name": "茶葉改良場-魚池分場",
    "class1": "休閒農業類",
    "class2": "",
    "suggested_facilityType": "farm",
    "lat": 23.869489669799805,
    "lng": 120.90866088867188,
    "address": "南投縣魚池鄉水社村中山路270巷13號",
    "status": "candidate"
  },
  {
    "tdx_id": "C1_376480000A_000203",
    "name": "八通關社寮古道",
    "class1": "體育健身類",
    "class2": "",
    "suggested_facilityType": "tourist_attraction",
    "lat": 23.80586051940918,
    "lng": 120.7244873046875,
    "address": "南投縣竹山鎮山重里頂埔巷",
    "status": "candidate"
  },
  {
    "tdx_id": "C1_376480000A_000206",
    "name": "日月潭伊達邵",
    "class1": "遊憩類",
    "class2": "",
    "suggested_facilityType": "tourist_attraction",
    "lat": 23.848709106445312,
    "lng": 120.93016052246094,
    "address": "南投縣魚池鄉伊達邵街39號",
    "status": "candidate"
  },
  {
    "tdx_id": "C1_376480000A_000208",
    "name": "龍興吊橋",
    "class1": "遊憩類",
    "class2": "",
    "suggested_facilityType": "tourist_attraction",
    "lat": 23.9035701751709,
    "lng": 120.80548858642578,
    "address": "南投縣中寮鄉龍興吊橋",
    "status": "candidate"
  },
  {
    "tdx_id": "C1_376480000A_000210",
    "name": "豐丘葡萄觀光果園",
    "class1": "休閒農業類",
    "class2": "",
    "suggested_facilityType": "farm",
    "lat": 23.66636085510254,
    "lng": 120.87371063232422,
    "address": "南投縣信義鄉豐丘村敦福路136號",
    "status": "candidate"
  },
  {
    "tdx_id": "C1_376480000A_000211",
    "name": "青竹竹文化園區",
    "class1": "遊憩類",
    "class2": "",
    "suggested_facilityType": "tourist_attraction",
    "lat": 23.811050415039062,
    "lng": 120.74864196777344,
    "address": "南投縣竹山鎮富州巷31號",
    "status": "candidate"
  },
  {
    "tdx_id": "C1_376480000A_000213",
    "name": "日月潭年梯步道",
    "class1": "體育健身類",
    "class2": "",
    "suggested_facilityType": "tourist_attraction",
    "lat": 23.86944007873535,
    "lng": 120.92694854736328,
    "address": "南投縣魚池鄉日月村文武廟年梯步道",
    "status": "candidate"
  },
  {
    "tdx_id": "C1_376480000A_000224",
    "name": "信義鄉農會梅子夢工廠",
    "class1": "休閒農業類",
    "class2": "小吃/特產類",
    "suggested_facilityType": "farm",
    "lat": 23.68869972229004,
    "lng": 120.86177062988281,
    "address": "南投縣信義鄉明德村新開巷11號",
    "status": "candidate"
  },
  {
    "tdx_id": "C1_376480000A_000229",
    "name": "鹿谷鄉農會茶業文化館",
    "class1": "文化類",
    "class2": "",
    "suggested_facilityType": "tourist_attraction",
    "lat": 23.741910934448242,
    "lng": 120.75669860839844,
    "address": "南投縣鹿谷鄉中正路一段231號",
    "status": "candidate"
  },
  {
    "tdx_id": "C1_376480000A_000230",
    "name": "臺灣菸酒股份有限公司-埔里酒廠展售中心",
    "class1": "休閒農業類",
    "class2": "",
    "suggested_facilityType": "farm",
    "lat": 23.967979431152344,
    "lng": 120.96013641357422,
    "address": "南投縣埔里鎮中山路三段219號",
    "status": "candidate"
  },
  {
    "tdx_id": "C1_376480000A_000243",
    "name": "黃麗淑-工藝之家",
    "class1": "藝術類",
    "class2": "",
    "suggested_facilityType": "tourist_attraction",
    "lat": 23.977760314941406,
    "lng": 120.72054290771484,
    "address": "南投縣草屯鎮南埔里南坪路555巷25弄36號",
    "status": "candidate"
  },
  {
    "tdx_id": "C1_376480000A_000245",
    "name": "造紙龍手創館",
    "class1": "遊憩類",
    "class2": "",
    "suggested_facilityType": "tourist_attraction",
    "lat": 23.9481201171875,
    "lng": 120.95809173583984,
    "address": "南投縣埔里鎮隆生路118-2號",
    "status": "candidate"
  },
  {
    "tdx_id": "C1_376480000A_000247",
    "name": "鹿谷鄉遊客中心",
    "class1": "國家風景區類",
    "class2": "",
    "suggested_facilityType": "scenic_area",
    "lat": 23.743009567260742,
    "lng": 120.75601196289062,
    "address": "鹿谷鄉中正路一段128號",
    "status": "candidate"
  },
  {
    "tdx_id": "C1_376480000A_000250",
    "name": "璞園藝術坊",
    "class1": "藝術類",
    "class2": "",
    "suggested_facilityType": "tourist_attraction",
    "lat": 23.765840530395508,
    "lng": 120.71006774902344,
    "address": "南投縣竹山鎮延平新村1-20號",
    "status": "candidate"
  },
  {
    "tdx_id": "C1_376480000A_000253",
    "name": "清境農場",
    "class1": "自然風景類",
    "class2": "體育健身類",
    "suggested_facilityType": "spot",
    "lat": 24.055400848388672,
    "lng": 121.16262817382812,
    "address": "南投縣仁愛鄉大同村仁和路170號",
    "status": "candidate"
  },
  {
    "tdx_id": "C1_376480000A_000254",
    "name": "奧萬大國家森林遊樂區",
    "class1": "國家風景區類",
    "class2": "自然風景類",
    "suggested_facilityType": "scenic_area",
    "lat": 23.95532989501953,
    "lng": 121.17005157470703,
    "address": "南投縣仁愛鄉親愛村大安路153號",
    "status": "candidate"
  },
  {
    "tdx_id": "C1_376480000A_000257",
    "name": "台光香草園",
    "class1": "休閒農業類",
    "class2": "",
    "suggested_facilityType": "farm",
    "lat": 23.97800064086914,
    "lng": 120.99442291259766,
    "address": "南投縣埔里鎮中山路一段241-2號",
    "status": "candidate"
  },
  {
    "tdx_id": "C1_376480000A_000266",
    "name": "麒麟潭",
    "class1": "自然風景類",
    "class2": "",
    "suggested_facilityType": "spot",
    "lat": 23.751209259033203,
    "lng": 120.77349853515625,
    "address": "南投縣鹿谷鄉永隆村堀邊巷",
    "status": "candidate"
  },
  {
    "tdx_id": "C1_376480000A_000274",
    "name": "明新書院",
    "class1": "古蹟類",
    "class2": "",
    "suggested_facilityType": "tourist_attraction",
    "lat": 23.82707977294922,
    "lng": 120.79988861083984,
    "address": "集集鎮永昌里東昌巷4號",
    "status": "candidate"
  },
  {
    "tdx_id": "C1_376480000A_000275",
    "name": "曾明男-工藝之家",
    "class1": "藝術類",
    "class2": "",
    "suggested_facilityType": "tourist_attraction",
    "lat": 23.97998046875,
    "lng": 120.70494079589844,
    "address": "南投縣草屯鎮中正路437-47號",
    "status": "candidate"
  },
  {
    "tdx_id": "C1_376480000A_000280",
    "name": "和雅谷",
    "class1": "遊憩類",
    "class2": "",
    "suggested_facilityType": "tourist_attraction",
    "lat": 23.71232032775879,
    "lng": 120.7794189453125,
    "address": "鹿谷鄉內湖村興產路57-2號",
    "status": "candidate"
  },
  {
    "tdx_id": "C1_376480000A_000281",
    "name": "集集攔河堰",
    "class1": "自然風景類",
    "class2": "",
    "suggested_facilityType": "spot",
    "lat": 23.823270797729492,
    "lng": 120.76669311523438,
    "address": "集集鎮林尾里攔河路2號",
    "status": "candidate"
  },
  {
    "tdx_id": "C1_376480000A_000283",
    "name": "集集火車站",
    "class1": "遊憩類",
    "class2": "",
    "suggested_facilityType": "tourist_attraction",
    "lat": 23.826929092407227,
    "lng": 120.78485107421875,
    "address": "南投縣集集鎮民生路75號",
    "status": "candidate"
  },
  {
    "tdx_id": "C1_376480000A_000286",
    "name": "白滄沂",
    "class1": "藝術類",
    "class2": "",
    "suggested_facilityType": "tourist_attraction",
    "lat": 23.991130828857422,
    "lng": 120.76943969726562,
    "address": "南投縣草屯鎮平林里健行路9號",
    "status": "candidate"
  },
  {
    "tdx_id": "C1_376480000A_000287",
    "name": "國史館臺灣文獻館",
    "class1": "遊憩類",
    "class2": "",
    "suggested_facilityType": "tourist_attraction",
    "lat": 23.937570571899414,
    "lng": 120.70075225830078,
    "address": "南投市中興新村光明里一路252號",
    "status": "candidate"
  },
  {
    "tdx_id": "C1_376480000A_000288",
    "name": "仙洞坪棋盤石",
    "class1": "自然風景類",
    "class2": "",
    "suggested_facilityType": "spot",
    "lat": 23.9018497467041,
    "lng": 120.79930877685547,
    "address": "南投縣中寮鄉和興村仙洞坪棋盤石",
    "status": "candidate"
  },
  {
    "tdx_id": "C1_376480000A_000291",
    "name": "桃米生態村",
    "class1": "生態類",
    "class2": "",
    "suggested_facilityType": "eco_center",
    "lat": 23.943090438842773,
    "lng": 120.92926025390625,
    "address": "南投縣埔里鎮桃米里桃米巷37號",
    "status": "candidate"
  },
  {
    "tdx_id": "C1_376480000A_000295",
    "name": "龍南天然漆博物館-徐玉明",
    "class1": "藝術類",
    "class2": "",
    "suggested_facilityType": "tourist_attraction",
    "lat": 23.96834945678711,
    "lng": 120.9658432006836,
    "address": "南投縣埔里鎮北平街211-1號",
    "status": "candidate"
  },
  {
    "tdx_id": "C1_376480000A_000296",
    "name": "張舒嵎 -荷花田陶工房",
    "class1": "藝術類",
    "class2": "遊憩類",
    "suggested_facilityType": "tourist_attraction",
    "lat": 23.75143051147461,
    "lng": 120.67176055908203,
    "address": "南投縣竹山鎮中崎里沉潭巷14-8號",
    "status": "candidate"
  },
  {
    "tdx_id": "C1_376480000A_000300",
    "name": "內湖森林小學",
    "class1": "遊憩類",
    "class2": "",
    "suggested_facilityType": "tourist_attraction",
    "lat": 23.713010787963867,
    "lng": 120.78022766113281,
    "address": "南投縣鹿谷鄉內湖村興產路51號",
    "status": "candidate"
  },
  {
    "tdx_id": "C1_376480000A_000301",
    "name": "溪頭自然教育園區",
    "class1": "生態類",
    "class2": "自然風景類",
    "suggested_facilityType": "eco_center",
    "lat": 23.675949096679688,
    "lng": 120.79676055908203,
    "address": "南投縣鹿谷鄉森林巷9號",
    "status": "candidate"
  },
  {
    "tdx_id": "C1_376480000A_000302",
    "name": "惠蓀林場",
    "class1": "自然風景類",
    "class2": "遊憩類",
    "suggested_facilityType": "spot",
    "lat": 24.0760498046875,
    "lng": 120.99868774414062,
    "address": "南投縣仁愛鄉新生村山林巷1號",
    "status": "candidate"
  },
  {
    "tdx_id": "C1_376480000A_000304",
    "name": "日月潭",
    "class1": "國家風景區類",
    "class2": "遊憩類",
    "suggested_facilityType": "scenic_area",
    "lat": 23.86652946472168,
    "lng": 120.91107940673828,
    "address": "南投縣魚池鄉中山路599號",
    "status": "candidate"
  },
  {
    "tdx_id": "C1_376480000A_000305",
    "name": "長源圳生態步道-林爽文古戰場",
    "class1": "生態類",
    "class2": "體育健身類",
    "suggested_facilityType": "eco_center",
    "lat": 23.718189239501953,
    "lng": 120.771240234375,
    "address": "南投縣鹿谷鄉投一五一線延溪公路",
    "status": "candidate"
  },
  {
    "tdx_id": "C1_376480000A_000309",
    "name": "梅峰–台大山地農場",
    "class1": "自然風景類",
    "class2": "遊憩類",
    "suggested_facilityType": "spot",
    "lat": 24.089550018310547,
    "lng": 121.17426300048828,
    "address": "南投縣仁愛鄉仁和路215號",
    "status": "candidate"
  },
  {
    "tdx_id": "C1_376480000A_000313",
    "name": "泰雅渡假村",
    "class1": "溫泉類",
    "class2": "遊憩類",
    "suggested_facilityType": "tourist_attraction",
    "lat": 24.06277084350586,
    "lng": 120.93338012695312,
    "address": "南投縣國姓鄉北港村北原路56-2號",
    "status": "candidate"
  },
  {
    "tdx_id": "C1_376480000A_000314",
    "name": "鳳凰自然教育園區(台大茶園)",
    "class1": "生態類",
    "class2": "遊憩類",
    "suggested_facilityType": "eco_center",
    "lat": 23.72854995727539,
    "lng": 120.78781127929688,
    "address": "南投縣鹿谷鄉鳳凰村仁義路一號",
    "status": "candidate"
  },
  {
    "tdx_id": "C1_376480000A_000316",
    "name": "台大下坪自然教育園區",
    "class1": "生態類",
    "class2": "自然風景類",
    "suggested_facilityType": "eco_center",
    "lat": 23.773740768432617,
    "lng": 120.67272186279297,
    "address": "南投縣竹山鎮枋坪巷21之8號",
    "status": "candidate"
  },
  {
    "tdx_id": "C1_376480000A_000317",
    "name": "劉文煌-工藝之家",
    "class1": "藝術類",
    "class2": "文化類",
    "suggested_facilityType": "tourist_attraction",
    "lat": 23.75950050354004,
    "lng": 120.70443725585938,
    "address": "南投縣竹山鎮延祥里延祥路362巷7號",
    "status": "candidate"
  },
  {
    "tdx_id": "C1_376480000A_000320",
    "name": "草坪頭玉山茶園",
    "class1": "休閒農業類",
    "class2": "遊憩類",
    "suggested_facilityType": "farm",
    "lat": 23.559619903564453,
    "lng": 120.87499237060547,
    "address": "南投縣信義鄉同富村太平巷113-1號",
    "status": "candidate"
  },
  {
    "tdx_id": "C1_376480000A_000322",
    "name": "東埔溫泉",
    "class1": "溫泉類",
    "class2": "遊憩類",
    "suggested_facilityType": "tourist_attraction",
    "lat": 23.561939239501953,
    "lng": 120.92668151855469,
    "address": "南投縣信義鄉東埔村",
    "status": "candidate"
  },
  {
    "tdx_id": "C1_376480000A_000325",
    "name": "葉基祥-工藝之家",
    "class1": "文化類",
    "class2": "藝術類",
    "suggested_facilityType": "tourist_attraction",
    "lat": 23.774940490722656,
    "lng": 120.71054077148438,
    "address": "南投縣竹山鎮保甲路10號",
    "status": "candidate"
  },
  {
    "tdx_id": "C1_376480000A_000326",
    "name": "黃塗山-工藝之家",
    "class1": "文化類",
    "class2": "藝術類",
    "suggested_facilityType": "tourist_attraction",
    "lat": 23.753009796142578,
    "lng": 120.68302154541016,
    "address": "南投縣竹山鎮頂林路199之9號",
    "status": "candidate"
  },
  {
    "tdx_id": "C1_376480000A_000327",
    "name": "林清河-工藝之家(添興窯)",
    "class1": "藝術類",
    "class2": "文化類",
    "suggested_facilityType": "tourist_attraction",
    "lat": 23.832950592041016,
    "lng": 120.75553131103516,
    "address": "南投縣集集鎮田寮里楓林巷10號",
    "status": "candidate"
  },
  {
    "tdx_id": "C1_376480000A_000329",
    "name": "八通關古道-萬年亨衢碣",
    "class1": "古蹟類",
    "class2": "",
    "suggested_facilityType": "tourist_attraction",
    "lat": 23.75455093383789,
    "lng": 120.74815368652344,
    "address": "鹿谷鄉鳳凰山麓大石上",
    "status": "candidate"
  },
  {
    "tdx_id": "C1_376480000A_000330",
    "name": "德興瀑布",
    "class1": "自然風景類",
    "class2": "生態類",
    "suggested_facilityType": "spot",
    "lat": 23.69516944885254,
    "lng": 120.7559585571289,
    "address": "南投縣鹿谷鄉竹林村德興瀑布",
    "status": "candidate"
  },
  {
    "tdx_id": "C1_376480000A_000331",
    "name": "白木全－心陶園",
    "class1": "文化類",
    "class2": "藝術類",
    "suggested_facilityType": "tourist_attraction",
    "lat": 23.974519729614258,
    "lng": 120.67022705078125,
    "address": "南投縣草屯鎮碧山路727巷364弄63號",
    "status": "candidate"
  },
  {
    "tdx_id": "C1_376480000A_000338",
    "name": "橫路古道-半天橋",
    "class1": "休閒農業類",
    "class2": "",
    "suggested_facilityType": "farm",
    "lat": 23.716129302978516,
    "lng": 120.7445068359375,
    "address": "南投縣鹿谷鄉中湖巷",
    "status": "candidate"
  },
  {
    "tdx_id": "C1_376480000A_000341",
    "name": "七星陣地公園(碉堡)",
    "class1": "遊憩類",
    "class2": "體育健身類",
    "suggested_facilityType": "tourist_attraction",
    "lat": 23.828500747680664,
    "lng": 120.6392593383789,
    "address": "南投縣名間鄉投139八卦路上",
    "status": "candidate"
  },
  {
    "tdx_id": "C1_376480000A_000342",
    "name": "九份二山地震紀念園區",
    "class1": "自然風景類",
    "class2": "",
    "suggested_facilityType": "spot",
    "lat": 23.95060920715332,
    "lng": 120.84397888183594,
    "address": "南投縣國姓鄉南港村長石巷",
    "status": "candidate"
  },
  {
    "tdx_id": "C1_376480000A_000396",
    "name": "雞朝文創故事館",
    "class1": "文化類",
    "class2": "",
    "suggested_facilityType": "tourist_attraction",
    "lat": 23.973379135131836,
    "lng": 120.96993255615234,
    "address": "南投縣埔里鎮信義路322號",
    "status": "candidate"
  },
  {
    "tdx_id": "C1_376480000A_000401",
    "name": "椰子防空壕",
    "class1": "古蹟類",
    "class2": "",
    "suggested_facilityType": "tourist_attraction",
    "lat": 23.757549285888672,
    "lng": 120.6820297241211,
    "address": "南投縣竹山鎮大禮路（竹山郵局後方）",
    "status": "candidate"
  },
  {
    "tdx_id": "C1_376480000A_000402",
    "name": "打鐵巷",
    "class1": "文化類",
    "class2": "",
    "suggested_facilityType": "tourist_attraction",
    "lat": 23.756399154663086,
    "lng": 120.68446350097656,
    "address": "南投縣竹山鎮下橫街45號",
    "status": "candidate"
  },
  {
    "tdx_id": "C1_376480000A_000405",
    "name": "「借問站」全家便利商店-名間金交流店",
    "class1": "觀光工廠類",
    "class2": "",
    "suggested_facilityType": "factory",
    "lat": 23.84716033935547,
    "lng": 120.69732666015625,
    "address": "南投縣名間鄉彰南路243號",
    "status": "candidate"
  },
  {
    "tdx_id": "C1_376480000A_000406",
    "name": "中寮鄉龍鳳瀑布空中步道",
    "class1": "自然風景類",
    "class2": "",
    "suggested_facilityType": "spot",
    "lat": 23.941789627075195,
    "lng": 120.81661224365234,
    "address": "541南投縣中寮鄉瀧林巷28號",
    "status": "candidate"
  },
  {
    "tdx_id": "C1_376480000A_000425",
    "name": "米田貢觀光烘焙園區 / 埔里花卉有限公司",
    "class1": "遊憩類",
    "class2": "",
    "suggested_facilityType": "tourist_attraction",
    "lat": 23.985759735107422,
    "lng": 120.95954895019531,
    "address": "545南投縣埔里鎮中正路1004號",
    "status": "candidate"
  },
  {
    "tdx_id": "C1_376480000A_000426",
    "name": "南投自然史教育館",
    "class1": "文化類",
    "class2": "",
    "suggested_facilityType": "tourist_attraction",
    "lat": 24.0209903717041,
    "lng": 121.13417053222656,
    "address": "南投縣仁愛鄉大同村山農巷27號(仁愛高農旁)",
    "status": "candidate"
  },
  {
    "tdx_id": "C1_376480000A_000440",
    "name": "香里活力豬品牌文化館",
    "class1": "觀光工廠類",
    "class2": "",
    "suggested_facilityType": "factory",
    "lat": 23.924360275268555,
    "lng": 120.67507934570312,
    "address": "南投市南崗工業區仁和路3號",
    "status": "candidate"
  },
  {
    "tdx_id": "C1_376480000A_000442",
    "name": "光遠燈籠",
    "class1": "文化類",
    "class2": "",
    "suggested_facilityType": "tourist_attraction",
    "lat": 23.767580032348633,
    "lng": 120.70246887207031,
    "address": "南投縣竹山鎮延平二路11號",
    "status": "candidate"
  },
  {
    "tdx_id": "C1_376480000A_000443",
    "name": "果寶歡酵觀光工廠 GuoBAO",
    "class1": "文化類",
    "class2": "",
    "suggested_facilityType": "tourist_attraction",
    "lat": 23.94171905517578,
    "lng": 120.95407104492188,
    "address": "南投縣埔里鎮珠格里下湳巷15號",
    "status": "candidate"
  },
  {
    "tdx_id": "C1_376480000A_000445",
    "name": "南投國際沙雕藝術文化園區",
    "class1": "文化類",
    "class2": "",
    "suggested_facilityType": "tourist_attraction",
    "lat": 23.92643928527832,
    "lng": 120.68134307861328,
    "address": "南投市華陽路1012號旁",
    "status": "candidate"
  },
  {
    "tdx_id": "C1_376480000A_000451",
    "name": "合歡山國家森林遊樂區",
    "class1": "文化類",
    "class2": "",
    "suggested_facilityType": "tourist_attraction",
    "lat": 24.133520126342773,
    "lng": 121.27159881591797,
    "address": "南投縣仁愛鄉仁和路合歡山主峰登山口",
    "status": "candidate"
  },
  {
    "tdx_id": "C1_376490000A_000395",
    "name": "雲嶺之丘",
    "class1": "自然風景類",
    "class2": "遊憩類",
    "suggested_facilityType": "spot",
    "lat": 23.628129959106445,
    "lng": 120.71150207519531,
    "address": "古坑鄉草嶺村",
    "status": "candidate"
  },
  {
    "tdx_id": "C1_376560000A_000267",
    "name": "test",
    "class1": "文化類",
    "class2": "",
    "suggested_facilityType": "tourist_attraction",
    "lat": 23.847719192504883,
    "lng": 120.90081024169922,
    "address": "基隆市仁愛區111",
    "status": "candidate"
  },
  {
    "tdx_id": "C1_A15010600H_000004",
    "name": "農業部茶及飲料作物改良場中部分場",
    "class1": "",
    "class2": "",
    "suggested_facilityType": "tourist_attraction",
    "lat": 23.87618064880371,
    "lng": 120.91356658935547,
    "address": "南投縣555魚池鄉中山路270巷13號",
    "status": "candidate"
  },
  {
    "tdx_id": "C1_A15010600H_000006",
    "name": "雙龍瀑布七彩吊橋",
    "class1": "自然風景類",
    "class2": "",
    "suggested_facilityType": "spot",
    "lat": 23.780670166015625,
    "lng": 120.94982147216797,
    "address": "南投縣556信義鄉光復巷",
    "status": "candidate"
  },
  {
    "tdx_id": "C1_A15010600H_000012",
    "name": "頭社盆地",
    "class1": "",
    "class2": "",
    "suggested_facilityType": "tourist_attraction",
    "lat": 23.830930709838867,
    "lng": 120.89820098876953,
    "address": "南投縣555魚池鄉頭社盆地",
    "status": "candidate"
  },
  {
    "tdx_id": "C1_A15010600H_000013",
    "name": "頭社自行車道",
    "class1": "",
    "class2": "自然風景類",
    "suggested_facilityType": "tourist_attraction",
    "lat": 23.83370018005371,
    "lng": 120.8966064453125,
    "address": "南投縣555魚池鄉頭社自行車步道",
    "status": "candidate"
  },
  {
    "tdx_id": "C1_A15010600H_000016",
    "name": "親手窯",
    "class1": "",
    "class2": "",
    "suggested_facilityType": "tourist_attraction",
    "lat": 23.891559600830078,
    "lng": 120.92330169677734,
    "address": "南投縣555魚池鄉中明村文正巷1-22號",
    "status": "candidate"
  },
  {
    "tdx_id": "C1_A15010600H_000020",
    "name": "慈恩塔步道",
    "class1": "自然風景類",
    "class2": "",
    "suggested_facilityType": "spot",
    "lat": 23.843650817871094,
    "lng": 120.91959381103516,
    "address": "南投縣555魚池鄉慈恩塔步道",
    "status": "candidate"
  },
  {
    "tdx_id": "C1_A15010600H_000031",
    "name": "涵碧步道",
    "class1": "自然風景類",
    "class2": "",
    "suggested_facilityType": "spot",
    "lat": 23.863609313964844,
    "lng": 120.91062927246094,
    "address": "南投縣555魚池鄉涵碧步道",
    "status": "candidate"
  },
  {
    "tdx_id": "C1_A15010600H_000032",
    "name": "添興窯陶藝文化園區",
    "class1": "",
    "class2": "",
    "suggested_facilityType": "tourist_attraction",
    "lat": 23.832469940185547,
    "lng": 120.7560806274414,
    "address": "南投縣552集集鎮楓林巷10號",
    "status": "candidate"
  },
  {
    "tdx_id": "C1_A15010600H_000034",
    "name": "啟示玄機院",
    "class1": "",
    "class2": "",
    "suggested_facilityType": "tourist_attraction",
    "lat": 23.89211082458496,
    "lng": 120.92060852050781,
    "address": "南投縣555魚池鄉中明村文正巷5-10號",
    "status": "candidate"
  },
  {
    "tdx_id": "C1_A15010600H_000035",
    "name": "草湳溼地",
    "class1": "",
    "class2": "自然風景類",
    "suggested_facilityType": "tourist_attraction",
    "lat": 23.948640823364258,
    "lng": 120.91510009765625,
    "address": "南投縣545埔里鎮桃米巷種瓜路",
    "status": "candidate"
  },
  {
    "tdx_id": "C1_A15010600H_000068",
    "name": "青龍山步道",
    "class1": "自然風景類",
    "class2": "",
    "suggested_facilityType": "spot",
    "lat": 23.847320556640625,
    "lng": 120.91654205322266,
    "address": "南投縣555魚池鄉青龍山步道",
    "status": "candidate"
  },
  {
    "tdx_id": "C1_A15010600H_000071",
    "name": "泥炭土活盆地",
    "class1": "",
    "class2": "",
    "suggested_facilityType": "tourist_attraction",
    "lat": 23.82731056213379,
    "lng": 120.8961181640625,
    "address": "南投縣555魚池鄉武登村協力巷23-1號",
    "status": "candidate"
  },
  {
    "tdx_id": "C1_A15010600H_000073",
    "name": "松柏崙步道",
    "class1": "自然風景類",
    "class2": "",
    "suggested_facilityType": "spot",
    "lat": 23.86893081665039,
    "lng": 120.92910766601562,
    "address": "南投縣555魚池鄉松柏崙步道",
    "status": "candidate"
  },
  {
    "tdx_id": "C1_A15010600H_000074",
    "name": "明潭電廠",
    "class1": "",
    "class2": "自然風景類",
    "suggested_facilityType": "tourist_attraction",
    "lat": 23.836320877075195,
    "lng": 120.86746978759766,
    "address": "南投縣553水里鄉民權巷",
    "status": "candidate"
  },
  {
    "tdx_id": "C1_A15010600H_000075",
    "name": "明潭水庫",
    "class1": "遊憩類",
    "class2": "",
    "suggested_facilityType": "tourist_attraction",
    "lat": 23.837799072265625,
    "lng": 120.86505126953125,
    "address": "南投縣553水里鄉明潭水庫",
    "status": "candidate"
  },
  {
    "tdx_id": "C1_A15010600H_000079",
    "name": "車埕木業展示館",
    "class1": "",
    "class2": "遊憩類",
    "suggested_facilityType": "tourist_attraction",
    "lat": 23.83378028869629,
    "lng": 120.86588287353516,
    "address": "南投縣553水里鄉車埕村民權巷110-2號",
    "status": "candidate"
  },
  {
    "tdx_id": "C1_A15010600H_000082",
    "name": "賴爺爺蜜蜂小森林",
    "class1": "",
    "class2": "遊憩類",
    "suggested_facilityType": "tourist_attraction",
    "lat": 23.956029891967773,
    "lng": 120.9793701171875,
    "address": "南投縣545埔里鎮枇杷路52-1號",
    "status": "candidate"
  },
  {
    "tdx_id": "C1_A15010600H_000083",
    "name": "竹炭一村",
    "class1": "",
    "class2": "",
    "suggested_facilityType": "tourist_attraction",
    "lat": 23.9218807220459,
    "lng": 120.91937255859375,
    "address": "南投縣555魚池鄉大雁村大雁巷33-6號",
    "status": "candidate"
  },
  {
    "tdx_id": "C1_A15010600H_000084",
    "name": "年梯步道",
    "class1": "自然風景類",
    "class2": "",
    "suggested_facilityType": "spot",
    "lat": 23.86944007873535,
    "lng": 120.92694854736328,
    "address": "南投縣555魚池鄉日月村",
    "status": "candidate"
  },
  {
    "tdx_id": "C1_A15010600H_000085",
    "name": "好茭情/吟詩綠曲茭白筍休閒體驗園區",
    "class1": "",
    "class2": "遊憩類",
    "suggested_facilityType": "tourist_attraction",
    "lat": 24.010639190673828,
    "lng": 120.93221282958984,
    "address": "南投縣545埔里鎮一新二巷11號",
    "status": "candidate"
  },
  {
    "tdx_id": "C1_A15010600H_000093",
    "name": "伊達邵遊客中心",
    "class1": "",
    "class2": "遊憩類",
    "suggested_facilityType": "tourist_attraction",
    "lat": 23.849010467529297,
    "lng": 120.929443359375,
    "address": "南投縣555魚池鄉日月村文化街127號2樓",
    "status": "candidate"
  },
  {
    "tdx_id": "C1_A15010600H_000095",
    "name": "向山眺望平台",
    "class1": "自然風景類",
    "class2": "",
    "suggested_facilityType": "spot",
    "lat": 23.854949951171875,
    "lng": 120.90545654296875,
    "address": "南投縣555魚池鄉中山路599號",
    "status": "candidate"
  },
  {
    "tdx_id": "C1_A15010600H_000098",
    "name": "生物多樣性研究所保育教育館",
    "class1": "",
    "class2": "",
    "suggested_facilityType": "tourist_attraction",
    "lat": 23.828359603881836,
    "lng": 120.80122375488281,
    "address": "南投縣552集集鎮民生東路1號",
    "status": "candidate"
  },
  {
    "tdx_id": "C1_A15010600H_000099",
    "name": "楓樺台一渡假村",
    "class1": "",
    "class2": "遊憩類",
    "suggested_facilityType": "tourist_attraction",
    "lat": 23.978069305419922,
    "lng": 121.00634002685547,
    "address": "南投縣545埔里鎮中山路一段176號",
    "status": "candidate"
  },
  {
    "tdx_id": "C1_A15010600H_000102",
    "name": "水社自行車道",
    "class1": "自然風景類",
    "class2": "",
    "suggested_facilityType": "spot",
    "lat": 23.868549346923828,
    "lng": 120.91647338867188,
    "address": "南投縣555魚池鄉水社親水步道",
    "status": "candidate"
  },
  {
    "tdx_id": "C1_A15010600H_000104",
    "name": "水社大山登山步道",
    "class1": "自然風景類",
    "class2": "",
    "suggested_facilityType": "spot",
    "lat": 23.851110458374023,
    "lng": 120.94689178466797,
    "address": "南投縣555魚池鄉水社大山步道",
    "status": "candidate"
  },
  {
    "tdx_id": "C1_A15010600H_000107",
    "name": "日月潭自行車道-月潭段",
    "class1": "",
    "class2": "自然風景類",
    "suggested_facilityType": "tourist_attraction",
    "lat": 23.84062957763672,
    "lng": 120.9073715209961,
    "address": "南投縣555魚池鄉月潭自行車道",
    "status": "candidate"
  },
  {
    "tdx_id": "C1_A15010600H_000108",
    "name": "日月潭纜車站",
    "class1": "遊憩類",
    "class2": "",
    "suggested_facilityType": "tourist_attraction",
    "lat": 23.852079391479492,
    "lng": 120.93486022949219,
    "address": "南投縣555魚池鄉日月村中正路102號",
    "status": "candidate"
  },
  {
    "tdx_id": "C1_A15010600H_000115",
    "name": "大雁村澀水社區",
    "class1": "",
    "class2": "自然風景類",
    "suggested_facilityType": "tourist_attraction",
    "lat": 23.92091941833496,
    "lng": 120.92070770263672,
    "address": "南投縣555魚池鄉大雁村",
    "status": "candidate"
  },
  {
    "tdx_id": "C1_A15010600H_000117",
    "name": "土亭仔步道",
    "class1": "自然風景類",
    "class2": "",
    "suggested_facilityType": "spot",
    "lat": 23.851369857788086,
    "lng": 120.92247772216797,
    "address": "南投縣555魚池鄉日月村",
    "status": "candidate"
  },
  {
    "tdx_id": "C1_A15010600H_000123",
    "name": "竹石園生態渡假會館",
    "class1": "",
    "class2": "自然風景類",
    "suggested_facilityType": "tourist_attraction",
    "lat": 23.87298011779785,
    "lng": 120.91870880126953,
    "address": "南投縣555魚池鄉中山路8號",
    "status": "candidate"
  },
  {
    "tdx_id": "C1_A15010600H_000151",
    "name": "景石",
    "class1": "自然風景類",
    "class2": "",
    "suggested_facilityType": "spot",
    "lat": 23.852840423583984,
    "lng": 120.90229797363281,
    "address": "南投縣南投縣水社村中山路599號",
    "status": "candidate"
  },
  {
    "tdx_id": "C1_A15010600H_000152",
    "name": "大福神",
    "class1": "自然風景類",
    "class2": "",
    "suggested_facilityType": "spot",
    "lat": 23.864639282226562,
    "lng": 120.9106674194336,
    "address": "南投縣南投縣中興路與名勝街口",
    "status": "candidate"
  },
  {
    "tdx_id": "C1_A15010600H_000154",
    "name": "水社商圈",
    "class1": "小吃/特產類",
    "class2": "",
    "suggested_facilityType": "tourist_attraction",
    "lat": 23.86496925354004,
    "lng": 120.91153717041016,
    "address": "南投縣南投縣名勝街",
    "status": "candidate"
  },
  {
    "tdx_id": "C1_A15010600H_000156",
    "name": "波尼亞灣(原特色遊學中心)",
    "class1": "生態類",
    "class2": "藝術類",
    "suggested_facilityType": "eco_center",
    "lat": 23.81743049621582,
    "lng": 120.885498046875,
    "address": "南投縣南投縣南投縣魚池鄉武登村銃櫃巷18號",
    "status": "candidate"
  },
  {
    "tdx_id": "C1_A15010700H_000080",
    "name": "猴探井天空之橋",
    "class1": "遊憩類",
    "class2": "",
    "suggested_facilityType": "tourist_attraction",
    "lat": 23.908449172973633,
    "lng": 120.63159942626953,
    "address": "南投縣540南投市猴探井街300號",
    "status": "candidate"
  },
  {
    "tdx_id": "C1_A15010700H_000099",
    "name": "品茶養生園區",
    "class1": "遊憩類",
    "class2": "",
    "suggested_facilityType": "tourist_attraction",
    "lat": 23.846920013427734,
    "lng": 120.62761688232422,
    "address": "南投縣551名間鄉",
    "status": "candidate"
  },
  {
    "tdx_id": "C1_A15010700H_000104",
    "name": "橫山賞鷹平台",
    "class1": "生態類",
    "class2": "",
    "suggested_facilityType": "eco_center",
    "lat": 23.89611053466797,
    "lng": 120.63314056396484,
    "address": "南投縣540南投市永興里",
    "status": "candidate"
  },
  {
    "tdx_id": "C1_A15010700H_000109",
    "name": "荔枝王",
    "class1": "其他",
    "class2": "",
    "suggested_facilityType": "tourist_attraction",
    "lat": 23.9172306060791,
    "lng": 120.63928985595703,
    "address": "南投縣540南投市八卦路686巷63弄59號",
    "status": "candidate"
  },
  {
    "tdx_id": "C1_376600000A_000003",
    "name": "十二門古砲",
    "class1": "文化類",
    "class2": "古蹟類",
    "suggested_facilityType": "tourist_attraction",
    "lat": 23.48332977294922,
    "lng": 120.4652328491211,
    "address": "嘉義市東區嘉義公園內",
    "status": "candidate"
  },
  {
    "tdx_id": "C1_376600000A_000004",
    "name": "陳澄波畫架",
    "class1": "文化類",
    "class2": "",
    "suggested_facilityType": "tourist_attraction",
    "lat": 23.484060287475586,
    "lng": 120.46356201171875,
    "address": "嘉義市東區中山路199號",
    "status": "candidate"
  },
  {
    "tdx_id": "C1_376600000A_000005",
    "name": "牆之道",
    "class1": "文化類",
    "class2": "藝術類",
    "suggested_facilityType": "tourist_attraction",
    "lat": 23.4805908203125,
    "lng": 120.46720886230469,
    "address": "嘉義市東區嘉義公園內",
    "status": "candidate"
  },
  {
    "tdx_id": "C1_376600000A_000010",
    "name": "九華山地藏庵",
    "class1": "文化類",
    "class2": "古蹟類",
    "suggested_facilityType": "tourist_attraction",
    "lat": 23.48320960998535,
    "lng": 120.45661926269531,
    "address": "嘉義市東區民權路255號",
    "status": "candidate"
  },
  {
    "tdx_id": "C1_376600000A_000013",
    "name": "祥太文化館",
    "class1": "文化類",
    "class2": "藝術類",
    "suggested_facilityType": "tourist_attraction",
    "lat": 23.476619720458984,
    "lng": 120.47698974609375,
    "address": "嘉義市東區大雅路二段285巷30號",
    "status": "candidate"
  },
  {
    "tdx_id": "C1_376600000A_000015",
    "name": "紅毛井",
    "class1": "文化類",
    "class2": "",
    "suggested_facilityType": "tourist_attraction",
    "lat": 23.47787094116211,
    "lng": 120.4544677734375,
    "address": "嘉義市東區蘭井街83號",
    "status": "candidate"
  },
  {
    "tdx_id": "C1_376600000A_000016",
    "name": "八獎溪義渡",
    "class1": "文化類",
    "class2": "",
    "suggested_facilityType": "tourist_attraction",
    "lat": 23.462690353393555,
    "lng": 120.47001647949219,
    "address": "嘉義市東區彌陀路1號前",
    "status": "candidate"
  },
  {
    "tdx_id": "C1_376600000A_000017",
    "name": "月桃故事館",
    "class1": "其他",
    "class2": "",
    "suggested_facilityType": "tourist_attraction",
    "lat": 23.512550354003906,
    "lng": 120.44847106933594,
    "address": "嘉義市東區保忠一街359號",
    "status": "candidate"
  },
  {
    "tdx_id": "C1_376600000A_000018",
    "name": "檜意森活村",
    "class1": "文化類",
    "class2": "藝術類",
    "suggested_facilityType": "tourist_attraction",
    "lat": 23.48625946044922,
    "lng": 120.4539566040039,
    "address": "嘉義市東區林森東路1號",
    "status": "candidate"
  },
  {
    "tdx_id": "C1_376600000A_000019",
    "name": "動力室木雕作品展示館 (整修中)",
    "class1": "藝術類",
    "class2": "",
    "suggested_facilityType": "tourist_attraction",
    "lat": 23.48563003540039,
    "lng": 120.45263671875,
    "address": "嘉義市東區林森西路4號",
    "status": "candidate"
  },
  {
    "tdx_id": "C1_376600000A_000020",
    "name": "阿里山森林鐵路車庫園區",
    "class1": "其他",
    "class2": "",
    "suggested_facilityType": "tourist_attraction",
    "lat": 23.4862003326416,
    "lng": 120.4524917602539,
    "address": "嘉義市東區林森西路2號",
    "status": "candidate"
  },
  {
    "tdx_id": "C1_376600000A_000022",
    "name": "北門驛",
    "class1": "文化類",
    "class2": "藝術類",
    "suggested_facilityType": "tourist_attraction",
    "lat": 23.487300872802734,
    "lng": 120.45462799072266,
    "address": "嘉義市東區共和路428號",
    "status": "candidate"
  },
  {
    "tdx_id": "C1_376600000A_000023",
    "name": "交趾陶館（閉館整修中）",
    "class1": "藝術類",
    "class2": "",
    "suggested_facilityType": "tourist_attraction",
    "lat": 23.491270065307617,
    "lng": 120.45310974121094,
    "address": "嘉義市東區忠孝路275號",
    "status": "candidate"
  },
  {
    "tdx_id": "C1_376600000A_000025",
    "name": "獄政博物館",
    "class1": "文化類",
    "class2": "藝術類",
    "suggested_facilityType": "tourist_attraction",
    "lat": 23.486230850219727,
    "lng": 120.45845794677734,
    "address": "嘉義市東區維新路140號",
    "status": "candidate"
  },
  {
    "tdx_id": "C1_376600000A_000026",
    "name": "蘭潭月影潭心",
    "class1": "生態類",
    "class2": "自然風景類",
    "suggested_facilityType": "eco_center",
    "lat": 23.465839385986328,
    "lng": 120.48084259033203,
    "address": "嘉義市東區鹿寮里紅毛埤187號之4",
    "status": "candidate"
  },
  {
    "tdx_id": "C1_376600000A_000027",
    "name": "射日塔",
    "class1": "文化類",
    "class2": "藝術類",
    "suggested_facilityType": "tourist_attraction",
    "lat": 23.48134994506836,
    "lng": 120.46904754638672,
    "address": "嘉義市東區公園街46號【嘉義公園內】",
    "status": "candidate"
  },
  {
    "tdx_id": "C1_376600000A_000029",
    "name": "行嘉吊橋",
    "class1": "其他",
    "class2": "",
    "suggested_facilityType": "tourist_attraction",
    "lat": 23.45709991455078,
    "lng": 120.45439910888672,
    "address": "嘉義市東區吳鳳南路547巷附近",
    "status": "candidate"
  },
  {
    "tdx_id": "C1_376600000A_000031",
    "name": "圓林仔社區",
    "class1": "文化類",
    "class2": "生態類",
    "suggested_facilityType": "tourist_attraction",
    "lat": 23.502689361572266,
    "lng": 120.4765625,
    "address": "嘉義市東區東義路566巷",
    "status": "candidate"
  },
  {
    "tdx_id": "C1_376600000A_000032",
    "name": "軍輝橋",
    "class1": "文化類",
    "class2": "",
    "suggested_facilityType": "tourist_attraction",
    "lat": 23.45833969116211,
    "lng": 120.4581527709961,
    "address": "嘉義市東區嘉義市省道台18線，跨越八掌溪",
    "status": "candidate"
  },
  {
    "tdx_id": "C1_376600000A_000033",
    "name": "劉厝里百年老樹",
    "class1": "自然風景類",
    "class2": "",
    "suggested_facilityType": "spot",
    "lat": 23.46710968017578,
    "lng": 120.41558074951172,
    "address": "嘉義市西區劉厝里一號公園",
    "status": "candidate"
  },
  {
    "tdx_id": "C1_376600000A_000034",
    "name": "蘭潭",
    "class1": "生態類",
    "class2": "自然風景類",
    "suggested_facilityType": "eco_center",
    "lat": 23.46843910217285,
    "lng": 120.47705841064453,
    "address": "嘉義市東區鹿寮里紅毛埤187號之4",
    "status": "candidate"
  },
  {
    "tdx_id": "C1_376600000A_000038",
    "name": "文化中心旁杉池",
    "class1": "文化類",
    "class2": "生態類",
    "suggested_facilityType": "tourist_attraction",
    "lat": 23.488059997558594,
    "lng": 120.45269775390625,
    "address": "嘉義市東區忠孝路275號",
    "status": "candidate"
  },
  {
    "tdx_id": "C1_376600000A_000039",
    "name": "埤子頭植物園",
    "class1": "生態類",
    "class2": "",
    "suggested_facilityType": "eco_center",
    "lat": 23.49094009399414,
    "lng": 120.44866943359375,
    "address": "嘉義市東區博愛路一段144-4號",
    "status": "candidate"
  },
  {
    "tdx_id": "C1_376600000A_000041",
    "name": "中央噴水池",
    "class1": "其他",
    "class2": "",
    "suggested_facilityType": "tourist_attraction",
    "lat": 23.47991943359375,
    "lng": 120.44963073730469,
    "address": "嘉義市西區中山路中段的圓環",
    "status": "candidate"
  },
  {
    "tdx_id": "C1_376600000A_000043",
    "name": "嘉義火車站",
    "class1": "文化類",
    "class2": "",
    "suggested_facilityType": "tourist_attraction",
    "lat": 23.4791202545166,
    "lng": 120.4411392211914,
    "address": "嘉義市西區中山路528號",
    "status": "candidate"
  },
  {
    "tdx_id": "C1_376600000A_000044",
    "name": "嘉義文化創意產業園區",
    "class1": "文化類",
    "class2": "藝術類",
    "suggested_facilityType": "tourist_attraction",
    "lat": 23.476839065551758,
    "lng": 120.44003295898438,
    "address": "嘉義市東區中山路616號",
    "status": "candidate"
  },
  {
    "tdx_id": "C1_376600000A_000046",
    "name": "嘉油鐵馬道",
    "class1": "遊憩類",
    "class2": "體育健身類",
    "suggested_facilityType": "tourist_attraction",
    "lat": 23.462020874023438,
    "lng": 120.44718170166016,
    "address": "嘉義市西區世賢路四段中油廠區旁設為起點，北回歸線站天文廣場為終點",
    "status": "candidate"
  },
  {
    "tdx_id": "C1_376600000A_000047",
    "name": "世賢路自行車道",
    "class1": "遊憩類",
    "class2": "體育健身類",
    "suggested_facilityType": "tourist_attraction",
    "lat": 23.494619369506836,
    "lng": 120.43824005126953,
    "address": "嘉義市西區世賢路(自保安四路至新民路)",
    "status": "candidate"
  },
  {
    "tdx_id": "C1_376600000A_000048",
    "name": "蕭萬長文物館",
    "class1": "文化類",
    "class2": "",
    "suggested_facilityType": "tourist_attraction",
    "lat": 23.46820068359375,
    "lng": 120.48372650146484,
    "address": "嘉義市東區鹿寮里學府路300號(嘉義大學蘭潭校區)",
    "status": "candidate"
  },
  {
    "tdx_id": "C1_376600000A_000049",
    "name": "嘉義市身心障礙綜合園區─再耕園",
    "class1": "遊憩類",
    "class2": "",
    "suggested_facilityType": "tourist_attraction",
    "lat": 23.472219467163086,
    "lng": 120.42807006835938,
    "address": "嘉義市西區玉康路160號",
    "status": "candidate"
  },
  {
    "tdx_id": "C1_376600000A_000050",
    "name": "再耕園─蜻蛉玉工坊",
    "class1": "遊憩類",
    "class2": "其他",
    "suggested_facilityType": "tourist_attraction",
    "lat": 23.472219467163086,
    "lng": 120.42807006835938,
    "address": "嘉義市西區玉康路160號2樓",
    "status": "candidate"
  },
  {
    "tdx_id": "C1_376600000A_000051",
    "name": "虎‧棒‧水泉",
    "class1": "遊憩類",
    "class2": "體育健身類",
    "suggested_facilityType": "tourist_attraction",
    "lat": 23.481660842895508,
    "lng": 120.46566772460938,
    "address": "嘉義市東區山仔頂249-1號",
    "status": "candidate"
  },
  {
    "tdx_id": "C1_376600000A_000052",
    "name": "農業試驗分所",
    "class1": "休閒農業類",
    "class2": "",
    "suggested_facilityType": "farm",
    "lat": 23.48423957824707,
    "lng": 120.4678726196289,
    "address": "嘉義市東區民權路2號",
    "status": "candidate"
  },
  {
    "tdx_id": "C1_376600000A_000053",
    "name": "北回歸線標誌",
    "class1": "文化類",
    "class2": "",
    "suggested_facilityType": "tourist_attraction",
    "lat": 23.466150283813477,
    "lng": 120.42559814453125,
    "address": "嘉義市西區博愛路與世賢路",
    "status": "candidate"
  },
  {
    "tdx_id": "C1_376600000A_000056",
    "name": "嘉義之心願景館",
    "class1": "其他",
    "class2": "",
    "suggested_facilityType": "tourist_attraction",
    "lat": 23.47933006286621,
    "lng": 120.44178771972656,
    "address": "嘉義市西區中山路524號",
    "status": "candidate"
  },
  {
    "tdx_id": "C1_376600000A_000057",
    "name": "KANO園區",
    "class1": "遊憩類",
    "class2": "體育健身類",
    "suggested_facilityType": "tourist_attraction",
    "lat": 23.481719970703125,
    "lng": 120.46495819091797,
    "address": "嘉義市東區山仔頂249-1號",
    "status": "candidate"
  },
  {
    "tdx_id": "C1_376600000A_000058",
    "name": "沉睡森林主題公園",
    "class1": "都會公園類",
    "class2": "",
    "suggested_facilityType": "park",
    "lat": 23.48716926574707,
    "lng": 120.45465087890625,
    "address": "嘉義市東區共和路428 號",
    "status": "candidate"
  },
  {
    "tdx_id": "C1_376600000A_000060",
    "name": "頂庄社區",
    "class1": "生態類",
    "class2": "",
    "suggested_facilityType": "eco_center",
    "lat": 23.49864959716797,
    "lng": 120.45805358886719,
    "address": "嘉義市東區頂庄里義教街538號",
    "status": "candidate"
  },
  {
    "tdx_id": "C1_376600000A_000061",
    "name": "矯正塾1921",
    "class1": "文化類",
    "class2": "",
    "suggested_facilityType": "tourist_attraction",
    "lat": 23.48543930053711,
    "lng": 120.4595718383789,
    "address": "嘉義市東區維新路134巷19號",
    "status": "candidate"
  },
  {
    "tdx_id": "C1_376600000A_000062",
    "name": "彌陀映月橋",
    "class1": "其他",
    "class2": "",
    "suggested_facilityType": "tourist_attraction",
    "lat": 23.461559295654297,
    "lng": 120.46843719482422,
    "address": "嘉義市東區嘉義縣市交接處",
    "status": "candidate"
  },
  {
    "tdx_id": "C1_376600000A_000063",
    "name": "臺灣花磚博物館",
    "class1": "藝術類",
    "class2": "",
    "suggested_facilityType": "tourist_attraction",
    "lat": 23.48331069946289,
    "lng": 120.44606018066406,
    "address": "嘉義市西區林森西路282號",
    "status": "candidate"
  },
  {
    "tdx_id": "C1_376600000A_000064",
    "name": "滑草場與星光溜滑梯",
    "class1": "遊憩類",
    "class2": "",
    "suggested_facilityType": "tourist_attraction",
    "lat": 23.482229232788086,
    "lng": 120.46497344970703,
    "address": "嘉義市東區山仔頂249-1號",
    "status": "candidate"
  },
  {
    "tdx_id": "C1_376600000A_000065",
    "name": "愛木村休閒觀光工廠",
    "class1": "觀光工廠類",
    "class2": "",
    "suggested_facilityType": "factory",
    "lat": 23.50225067138672,
    "lng": 120.43916320800781,
    "address": "嘉義市東區文化路909-3號",
    "status": "candidate"
  },
  {
    "tdx_id": "C1_376600000A_000066",
    "name": "嘉義市史蹟資料館",
    "class1": "文化類",
    "class2": "古蹟類",
    "suggested_facilityType": "tourist_attraction",
    "lat": 23.481090545654297,
    "lng": 120.46749114990234,
    "address": "嘉義市東區公園街42號",
    "status": "candidate"
  },
  {
    "tdx_id": "C1_376600000A_000067",
    "name": "蘭潭音樂噴泉",
    "class1": "都會公園類",
    "class2": "",
    "suggested_facilityType": "park",
    "lat": 23.465850830078125,
    "lng": 120.4800796508789,
    "address": "嘉義市東區小雅路",
    "status": "candidate"
  },
  {
    "tdx_id": "C1_376600000A_000068",
    "name": "森林之歌",
    "class1": "藝術類",
    "class2": "",
    "suggested_facilityType": "tourist_attraction",
    "lat": 23.486650466918945,
    "lng": 120.44824981689453,
    "address": "嘉義市東區文化路",
    "status": "candidate"
  },
  {
    "tdx_id": "C1_376600000A_000069",
    "name": "蘭潭後山步道",
    "class1": "生態類",
    "class2": "自然風景類",
    "suggested_facilityType": "eco_center",
    "lat": 23.47930908203125,
    "lng": 120.48969268798828,
    "address": "嘉義市東區位於嘉義市東郊山仔頂附近，距市區3公里",
    "status": "candidate"
  },
  {
    "tdx_id": "C1_376600000A_000071",
    "name": "嘉義市環市自行車道",
    "class1": "遊憩類",
    "class2": "體育健身類",
    "suggested_facilityType": "tourist_attraction",
    "lat": 23.494619369506836,
    "lng": 120.4422836303711,
    "address": "嘉義市東區世賢路",
    "status": "candidate"
  },
  {
    "tdx_id": "C1_376600000A_000073",
    "name": "大溪厝水環境教育園區",
    "class1": "生態類",
    "class2": "遊憩類",
    "suggested_facilityType": "eco_center",
    "lat": 23.48019027709961,
    "lng": 120.40119171142578,
    "address": "嘉義市西區大溪路593號旁",
    "status": "candidate"
  },
  {
    "tdx_id": "C1_376600000A_000074",
    "name": "實驗木場",
    "class1": "文化類",
    "class2": "藝術類",
    "suggested_facilityType": "tourist_attraction",
    "lat": 23.48505973815918,
    "lng": 120.45893859863281,
    "address": "嘉義市東區維新路134巷24號",
    "status": "candidate"
  },
  {
    "tdx_id": "C1_376600000A_000075",
    "name": "嘉義製材所",
    "class1": "林場類",
    "class2": "",
    "suggested_facilityType": "scenic_area",
    "lat": 23.486440658569336,
    "lng": 120.45105743408203,
    "address": "嘉義市東區林森西路4號",
    "status": "candidate"
  },
  {
    "tdx_id": "C1_376600000A_000076",
    "name": "KANO遊客中心",
    "class1": "遊憩類",
    "class2": "",
    "suggested_facilityType": "tourist_attraction",
    "lat": 23.482269287109375,
    "lng": 120.46415710449219,
    "address": "嘉義市東區山子頂269號",
    "status": "candidate"
  },
  {
    "tdx_id": "C1_A25000000E_100011",
    "name": "洪雅書房",
    "class1": "藝術類",
    "class2": "",
    "suggested_facilityType": "tourist_attraction",
    "lat": 23.483545303344727,
    "lng": 120.45098114013672,
    "address": "嘉義市  嘉義市長榮街116號（近忠孝路、嘉基護理之家後方第二間）",
    "status": "candidate"
  },
  {
    "tdx_id": "C1_376490000A_000239",
    "name": "北港觀光大橋",
    "class1": "其他",
    "class2": "",
    "suggested_facilityType": "tourist_attraction",
    "lat": 23.562049865722656,
    "lng": 120.30359649658203,
    "address": "雲林縣北港鎮中山南路底",
    "status": "candidate"
  },
  {
    "tdx_id": "C1_376500000A_000001",
    "name": "臺灣菸酒公司嘉義觀光酒廠",
    "class1": "觀光工廠類",
    "class2": "其他",
    "suggested_facilityType": "factory",
    "lat": 23.520700454711914,
    "lng": 120.44606018066406,
    "address": "嘉義縣民雄鄉福樂村中山路4號",
    "status": "candidate"
  },
  {
    "tdx_id": "C1_376500000A_000008",
    "name": "布袋遊艇港",
    "class1": "遊憩類",
    "class2": "其他",
    "suggested_facilityType": "tourist_attraction",
    "lat": 23.384679794311523,
    "lng": 120.15277862548828,
    "address": "嘉義縣布袋鎮順安路168號",
    "status": "candidate"
  },
  {
    "tdx_id": "C1_376500000A_000009",
    "name": "布袋鹽場",
    "class1": "遊憩類",
    "class2": "其他",
    "suggested_facilityType": "tourist_attraction",
    "lat": 23.3811092376709,
    "lng": 120.16940307617188,
    "address": "嘉義縣布袋鎮新厝里新厝仔13號",
    "status": "candidate"
  },
  {
    "tdx_id": "C1_376500000A_000010",
    "name": "布袋觀光漁市",
    "class1": "",
    "class2": "其他",
    "suggested_facilityType": "tourist_attraction",
    "lat": 23.37972068786621,
    "lng": 120.15560150146484,
    "address": "嘉義縣布袋鎮中山路3號",
    "status": "candidate"
  },
  {
    "tdx_id": "C1_376500000A_000014",
    "name": "縣定古蹟義竹翁清江宅",
    "class1": "",
    "class2": "其他",
    "suggested_facilityType": "tourist_attraction",
    "lat": 23.334230422973633,
    "lng": 120.24346923828125,
    "address": "嘉義縣義竹鄉六桂村二六一號",
    "status": "candidate"
  },
  {
    "tdx_id": "C1_376500000A_000015",
    "name": "三代木",
    "class1": "自然風景類",
    "class2": "其他",
    "suggested_facilityType": "spot",
    "lat": 23.508899688720703,
    "lng": 120.8021011352539,
    "address": "阿里山森林遊樂區內，阿里山鄉中山村56號。",
    "status": "candidate"
  },
  {
    "tdx_id": "C1_376500000A_000016",
    "name": "阿里山神木",
    "class1": "",
    "class2": "觀光工廠類",
    "suggested_facilityType": "tourist_attraction",
    "lat": 23.51910972595215,
    "lng": 120.80690002441406,
    "address": "臺灣嘉義縣阿里山遊樂區",
    "status": "candidate"
  },
  {
    "tdx_id": "C1_376500000A_000018",
    "name": "沼平公園",
    "class1": "",
    "class2": "遊憩類",
    "suggested_facilityType": "tourist_attraction",
    "lat": 23.450029373168945,
    "lng": 120.86139678955078,
    "address": "阿里山森林遊樂區內",
    "status": "candidate"
  },
  {
    "tdx_id": "C1_376500000A_000019",
    "name": "中央廣播電台民雄分台日式宿舍區",
    "class1": "",
    "class2": "其他",
    "suggested_facilityType": "tourist_attraction",
    "lat": 23.56097984313965,
    "lng": 120.42951965332031,
    "address": "嘉義縣民雄鄉民權路52、54、56、58、60、62、66、68、70、72等10戶6棟日式宿舍。",
    "status": "candidate"
  },
  {
    "tdx_id": "C1_376500000A_000020",
    "name": "縣定古蹟東石郡役所",
    "class1": "",
    "class2": "其他",
    "suggested_facilityType": "tourist_attraction",
    "lat": 23.465190887451172,
    "lng": 120.24639892578125,
    "address": "朴子警察分局，嘉義縣朴子市光復路33號",
    "status": "candidate"
  },
  {
    "tdx_id": "C1_376500000A_000023",
    "name": "蒜頭糖廠五分車站",
    "class1": "",
    "class2": "其他",
    "suggested_facilityType": "tourist_attraction",
    "lat": 23.478750228881836,
    "lng": 120.29898071289062,
    "address": "嘉義縣六腳鄉工廠村1號",
    "status": "candidate"
  },
  {
    "tdx_id": "C1_376500000A_000024",
    "name": "生力農場",
    "class1": "",
    "class2": "其他",
    "suggested_facilityType": "tourist_attraction",
    "lat": 23.431669235229492,
    "lng": 120.66441345214844,
    "address": "嘉義縣番路鄉公田村隙頂9-2號",
    "status": "candidate"
  },
  {
    "tdx_id": "C1_376500000A_000025",
    "name": "達邦遊客中心與鄒族自然文化中心",
    "class1": "",
    "class2": "其他",
    "suggested_facilityType": "tourist_attraction",
    "lat": 23.4539794921875,
    "lng": 120.74884033203125,
    "address": "嘉義縣阿里山鄉達邦村1鄰6號",
    "status": "candidate"
  },
  {
    "tdx_id": "C1_376500000A_000026",
    "name": "老楊方城市(老楊方塊酥)",
    "class1": "觀光工廠類",
    "class2": "",
    "suggested_facilityType": "factory",
    "lat": 23.58333969116211,
    "lng": 120.51026916503906,
    "address": "嘉義縣大林鎮大埔美園區五路3號",
    "status": "candidate"
  },
  {
    "tdx_id": "C1_376500000A_000027",
    "name": "梅問屋梅子元氣館",
    "class1": "觀光工廠類",
    "class2": "其他",
    "suggested_facilityType": "factory",
    "lat": 23.586759567260742,
    "lng": 120.55085754394531,
    "address": "嘉義縣梅山鄉中山路527號",
    "status": "candidate"
  },
  {
    "tdx_id": "C1_376500000A_000028",
    "name": "旺萊山鳳梨文化園區",
    "class1": "",
    "class2": "其他",
    "suggested_facilityType": "tourist_attraction",
    "lat": 23.553180694580078,
    "lng": 120.48002624511719,
    "address": "嘉義縣民雄鄉三興村陳厝寮1-3號",
    "status": "candidate"
  },
  {
    "tdx_id": "C1_376500000A_000029",
    "name": "余順豐花生觀光工廠",
    "class1": "觀光工廠類",
    "class2": "",
    "suggested_facilityType": "factory",
    "lat": 23.466123580932617,
    "lng": 120.22260284423828,
    "address": "嘉義縣東石鄉蔦松村湖底路20-28號",
    "status": "candidate"
  },
  {
    "tdx_id": "C1_376500000A_000030",
    "name": "達娜伊谷生態園區",
    "class1": "",
    "class2": "自然風景類",
    "suggested_facilityType": "tourist_attraction",
    "lat": 23.383010864257812,
    "lng": 120.67749786376953,
    "address": "阿里山鄉山美村3鄰51號",
    "status": "candidate"
  },
  {
    "tdx_id": "C1_376500000A_000032",
    "name": "鰲鼓濕地",
    "class1": "",
    "class2": "自然風景類",
    "suggested_facilityType": "tourist_attraction",
    "lat": 23.507659912109375,
    "lng": 120.14766693115234,
    "address": "嘉義縣東石鄉六腳大排及北港溪出海口之間",
    "status": "candidate"
  },
  {
    "tdx_id": "C1_376500000A_000033",
    "name": "東石漁人碼頭",
    "class1": "",
    "class2": "遊憩類",
    "suggested_facilityType": "tourist_attraction",
    "lat": 23.45128059387207,
    "lng": 120.13488006591797,
    "address": "臺灣嘉義縣東石鄉166縣道",
    "status": "candidate"
  },
  {
    "tdx_id": "C1_376500000A_000034",
    "name": "瑞太古道",
    "class1": "體育健身類",
    "class2": "其他",
    "suggested_facilityType": "tourist_attraction",
    "lat": 23.539749145507812,
    "lng": 120.69300079345703,
    "address": "603臺灣嘉義縣梅山鄉162甲縣道",
    "status": "candidate"
  },
  {
    "tdx_id": "C1_376500000A_000037",
    "name": "樹木銀行",
    "class1": "",
    "class2": "自然風景類",
    "suggested_facilityType": "tourist_attraction",
    "lat": 23.453210830688477,
    "lng": 120.55899810791016,
    "address": "臺灣嘉義縣番路鄉阿里山公路",
    "status": "candidate"
  },
  {
    "tdx_id": "C1_376500000A_000038",
    "name": "嘉義童年渡假村",
    "class1": "遊憩類",
    "class2": "",
    "suggested_facilityType": "tourist_attraction",
    "lat": 23.472949981689453,
    "lng": 120.53598022460938,
    "address": "番路鄉下坑村下坑51號(159甲線與台三線路口)",
    "status": "candidate"
  },
  {
    "tdx_id": "C1_376500000A_000041",
    "name": "隙頂休閒步道區",
    "class1": "自然風景類",
    "class2": "",
    "suggested_facilityType": "spot",
    "lat": 23.463329315185547,
    "lng": 120.5969009399414,
    "address": "位於阿里山半山腰，阿里山公路39~41公里",
    "status": "candidate"
  },
  {
    "tdx_id": "C1_376500000A_000043",
    "name": "東洋棕梠湖高爾夫球場",
    "class1": "遊憩類",
    "class2": "體育健身類",
    "suggested_facilityType": "tourist_attraction",
    "lat": 23.464130401611328,
    "lng": 120.53616333007812,
    "address": "番路鄉新福村第三農場24號",
    "status": "candidate"
  },
  {
    "tdx_id": "C1_376500000A_000044",
    "name": "仁義潭水庫",
    "class1": "自然風景類",
    "class2": "遊憩類",
    "suggested_facilityType": "spot",
    "lat": 23.46068000793457,
    "lng": 120.51210021972656,
    "address": "嘉義縣番路鄉新福村大庄28號之1",
    "status": "candidate"
  },
  {
    "tdx_id": "C1_376500000A_000045",
    "name": "仙井瀑布",
    "class1": "自然風景類",
    "class2": "",
    "suggested_facilityType": "spot",
    "lat": 23.434829711914062,
    "lng": 120.6406478881836,
    "address": "嘉義縣番路鄉公田村阿里山公路",
    "status": "candidate"
  },
  {
    "tdx_id": "C1_376500000A_000046",
    "name": "大湖尖山步道區",
    "class1": "自然風景類",
    "class2": "",
    "suggested_facilityType": "spot",
    "lat": 23.48895263671875,
    "lng": 120.6333999633789,
    "address": "嘉義縣番路鄉觸口村觸口3-16號(阿里山國家風景區管理處)",
    "status": "candidate"
  },
  {
    "tdx_id": "C1_376500000A_000047",
    "name": "半天岩",
    "class1": "",
    "class2": "",
    "suggested_facilityType": "tourist_attraction",
    "lat": 23.462249755859375,
    "lng": 120.59314727783203,
    "address": "嘉義縣番路鄉民和村岩仔6號",
    "status": "candidate"
  },
  {
    "tdx_id": "C1_376500000A_000048",
    "name": "大埔老街",
    "class1": "",
    "class2": "",
    "suggested_facilityType": "tourist_attraction",
    "lat": 23.29475975036621,
    "lng": 120.59359741210938,
    "address": "大埔鄉",
    "status": "candidate"
  },
  {
    "tdx_id": "C1_376500000A_000049",
    "name": "草蘭溪攔沙壩大瀑布",
    "class1": "",
    "class2": "自然風景類",
    "suggested_facilityType": "tourist_attraction",
    "lat": 23.296279907226562,
    "lng": 120.64800262451172,
    "address": "嘉義縣中埔鄉義仁村十字路2-5號(大阿里山旅遊資訊服務站)",
    "status": "candidate"
  },
  {
    "tdx_id": "C1_376500000A_000052",
    "name": "白馬亭",
    "class1": "遊憩類",
    "class2": "觀光工廠類",
    "suggested_facilityType": "tourist_attraction",
    "lat": 23.291860580444336,
    "lng": 120.60211181640625,
    "address": "嘉義縣大埔鄉大埔村54號(嘉義縣大埔鄉公所)",
    "status": "candidate"
  },
  {
    "tdx_id": "C1_376500000A_000053",
    "name": "曾文水庫",
    "class1": "遊憩類",
    "class2": "體育健身類",
    "suggested_facilityType": "tourist_attraction",
    "lat": 23.24810028076172,
    "lng": 120.53633880615234,
    "address": "嘉義大埔鄉大埔村178號",
    "status": "candidate"
  },
  {
    "tdx_id": "C1_376500000A_000055",
    "name": "石硦林場",
    "class1": "自然風景類",
    "class2": "",
    "suggested_facilityType": "spot",
    "lat": 23.407100677490234,
    "lng": 120.57071685791016,
    "address": "嘉義縣中埔鄉桶頭山",
    "status": "candidate"
  },
  {
    "tdx_id": "C1_376500000A_000056",
    "name": "獨角仙農場",
    "class1": "",
    "class2": "",
    "suggested_facilityType": "tourist_attraction",
    "lat": 23.41490936279297,
    "lng": 120.5493392944336,
    "address": "嘉義縣中埔鄉石弄村15鄰45號",
    "status": "candidate"
  },
  {
    "tdx_id": "C1_376500000A_000057",
    "name": "豐山生態園區",
    "class1": "",
    "class2": "",
    "suggested_facilityType": "tourist_attraction",
    "lat": 23.390140533447266,
    "lng": 120.50779724121094,
    "address": "嘉義縣中埔鄉深坑村埔頂18號",
    "status": "candidate"
  },
  {
    "tdx_id": "C1_376500000A_000059",
    "name": "大林糖廠",
    "class1": "",
    "class2": "",
    "suggested_facilityType": "tourist_attraction",
    "lat": 23.611270904541016,
    "lng": 120.4573974609375,
    "address": "嘉義縣大林鎮大糖里399號",
    "status": "candidate"
  },
  {
    "tdx_id": "C1_376500000A_000064",
    "name": "松山土窯羊肉",
    "class1": "",
    "class2": "觀光工廠類",
    "suggested_facilityType": "tourist_attraction",
    "lat": 23.538869857788086,
    "lng": 120.48300170898438,
    "address": "嘉義縣民雄鄉松山村松仔腳48-27號",
    "status": "candidate"
  },
  {
    "tdx_id": "C1_376500000A_000067",
    "name": "蕭武龍交趾陶",
    "class1": "",
    "class2": "",
    "suggested_facilityType": "tourist_attraction",
    "lat": 23.540000915527344,
    "lng": 120.41999816894531,
    "address": "嘉義縣民雄鄉文隆村鴨母坔76之52號",
    "status": "candidate"
  },
  {
    "tdx_id": "C1_376500000A_000069",
    "name": "大崙社區",
    "class1": "觀光工廠類",
    "class2": "",
    "suggested_facilityType": "factory",
    "lat": 23.445720672607422,
    "lng": 120.36080169677734,
    "address": "嘉義縣水上鄉大崙村",
    "status": "candidate"
  },
  {
    "tdx_id": "C1_376500000A_000070",
    "name": "北回歸線天文廣場",
    "class1": "",
    "class2": "遊憩類",
    "suggested_facilityType": "tourist_attraction",
    "lat": 23.45355987548828,
    "lng": 120.41629791259766,
    "address": "嘉義縣水上鄉下寮村鴿溪寮21-25號",
    "status": "candidate"
  },
  {
    "tdx_id": "C1_376500000A_000071",
    "name": "頂塗溝蝴蝶村",
    "class1": "",
    "class2": "觀光工廠類",
    "suggested_facilityType": "tourist_attraction",
    "lat": 23.45867919921875,
    "lng": 120.37039947509766,
    "address": "嘉義縣水上鄉頂塗溝13號",
    "status": "candidate"
  },
  {
    "tdx_id": "C1_376500000A_000072",
    "name": "南靖糖廠休閒廣場",
    "class1": "",
    "class2": "",
    "suggested_facilityType": "tourist_attraction",
    "lat": 23.415260314941406,
    "lng": 120.38289642333984,
    "address": "嘉義縣水上鄉靖和村1號",
    "status": "candidate"
  },
  {
    "tdx_id": "C1_376500000A_000073",
    "name": "南靖火車站",
    "class1": "",
    "class2": "觀光工廠類",
    "suggested_facilityType": "tourist_attraction",
    "lat": 23.41352081298828,
    "lng": 120.38643646240234,
    "address": "嘉義縣水上鄉三鎮村26號",
    "status": "candidate"
  },
  {
    "tdx_id": "C1_376500000A_000074",
    "name": "開元殿",
    "class1": "",
    "class2": "",
    "suggested_facilityType": "tourist_attraction",
    "lat": 23.603620529174805,
    "lng": 120.37470245361328,
    "address": "嘉義縣溪口鄉柴林村1－2號",
    "status": "candidate"
  },
  {
    "tdx_id": "C1_376500000A_000075",
    "name": "溪口鄉文化生活館",
    "class1": "",
    "class2": "其他",
    "suggested_facilityType": "tourist_attraction",
    "lat": 23.603120803833008,
    "lng": 120.39324188232422,
    "address": "嘉義縣溪口鄉溪北村中山路55號",
    "status": "candidate"
  },
  {
    "tdx_id": "C1_376500000A_000078",
    "name": "板陶窯交趾剪黏工藝園區",
    "class1": "",
    "class2": "",
    "suggested_facilityType": "tourist_attraction",
    "lat": 23.565610885620117,
    "lng": 120.3206787109375,
    "address": "新港鄉板頭村42-3號",
    "status": "candidate"
  },
  {
    "tdx_id": "C1_376500000A_000079",
    "name": "頂菜園鄉土館",
    "class1": "",
    "class2": "觀光工廠類",
    "suggested_facilityType": "tourist_attraction",
    "lat": 23.562959671020508,
    "lng": 120.32379913330078,
    "address": "嘉義縣新港鄉和共村頂菜園12號",
    "status": "candidate"
  },
  {
    "tdx_id": "C1_376500000A_000080",
    "name": "登雲書院遺址",
    "class1": "",
    "class2": "其他",
    "suggested_facilityType": "tourist_attraction",
    "lat": 23.553619384765625,
    "lng": 120.35040283203125,
    "address": "新港鄉古民街12號 (文昌國小)",
    "status": "candidate"
  },
  {
    "tdx_id": "C1_376500000A_000087",
    "name": "縣治特區",
    "class1": "觀光工廠類",
    "class2": "其他",
    "suggested_facilityType": "factory",
    "lat": 23.45911979675293,
    "lng": 120.29322814941406,
    "address": "嘉義縣太保市祥和一路東段一號",
    "status": "candidate"
  },
  {
    "tdx_id": "C1_376500000A_000088",
    "name": "陶藝之村墘窯休閒陶坊",
    "class1": "",
    "class2": "其他",
    "suggested_facilityType": "tourist_attraction",
    "lat": 23.506380081176758,
    "lng": 120.27542877197266,
    "address": "嘉義縣六腳鄉潭墘村75-12號",
    "status": "candidate"
  },
  {
    "tdx_id": "C1_376500000A_000089",
    "name": "蔗埕文化園區(蒜頭糖廠)",
    "class1": "",
    "class2": "",
    "suggested_facilityType": "tourist_attraction",
    "lat": 23.478580474853516,
    "lng": 120.29891967773438,
    "address": "嘉義縣六腳鄉工廠村一號 （縣政府對面往北2公里）",
    "status": "candidate"
  },
  {
    "tdx_id": "C1_376500000A_000090",
    "name": "朴子溪自行車道",
    "class1": "體育健身類",
    "class2": "遊憩類",
    "suggested_facilityType": "tourist_attraction",
    "lat": 23.479469299316406,
    "lng": 120.29969787597656,
    "address": "東起蒜頭糖廠蔗埕文化園區，西至東石漁人碼頭",
    "status": "candidate"
  },
  {
    "tdx_id": "C1_376500000A_000092",
    "name": "德興里老厝",
    "class1": "",
    "class2": "其他",
    "suggested_facilityType": "tourist_attraction",
    "lat": 23.473180770874023,
    "lng": 120.262939453125,
    "address": "嘉義縣朴子市新吉庒95-1號",
    "status": "candidate"
  },
  {
    "tdx_id": "C1_376500000A_000093",
    "name": "牛挑灣埤生態公園",
    "class1": "",
    "class2": "遊憩類",
    "suggested_facilityType": "tourist_attraction",
    "lat": 23.408790588378906,
    "lng": 120.25566864013672,
    "address": "嘉義縣朴子市牛挑灣16鄰梅華里153號旁",
    "status": "candidate"
  },
  {
    "tdx_id": "C1_376500000A_000094",
    "name": "刺繡文化館",
    "class1": "",
    "class2": "",
    "suggested_facilityType": "tourist_attraction",
    "lat": 23.468320846557617,
    "lng": 120.24835205078125,
    "address": "嘉義縣朴子市文明路10號",
    "status": "candidate"
  },
  {
    "tdx_id": "C1_376500000A_000095",
    "name": "新港文化館．25號倉庫",
    "class1": "",
    "class2": "",
    "suggested_facilityType": "tourist_attraction",
    "lat": 23.55558967590332,
    "lng": 120.34397888183594,
    "address": "嘉義縣新港鄉登雲路111巷2號",
    "status": "candidate"
  },
  {
    "tdx_id": "C1_376500000A_000096",
    "name": "新港文教基金會閱讀館",
    "class1": "",
    "class2": "其他",
    "suggested_facilityType": "tourist_attraction",
    "lat": 23.559730529785156,
    "lng": 120.34351348876953,
    "address": "嘉義縣新港鄉新中路305號",
    "status": "candidate"
  },
  {
    "tdx_id": "C1_376500000A_000097",
    "name": "中埔嘉檳文化館",
    "class1": "",
    "class2": "",
    "suggested_facilityType": "tourist_attraction",
    "lat": 23.42490005493164,
    "lng": 120.52198028564453,
    "address": "嘉義縣中埔鄉中埔村128號之2(鄰近鄉公所)",
    "status": "candidate"
  },
  {
    "tdx_id": "C1_376500000A_000098",
    "name": "梅山汗路藝文生態館",
    "class1": "",
    "class2": "",
    "suggested_facilityType": "tourist_attraction",
    "lat": 23.58584976196289,
    "lng": 120.56065368652344,
    "address": "嘉義縣梅山鄉梅北村健康街91號",
    "status": "candidate"
  },
  {
    "tdx_id": "C1_A15010800H_000023",
    "name": "天長地久橋",
    "class1": "",
    "class2": "",
    "suggested_facilityType": "tourist_attraction",
    "lat": 23.438819885253906,
    "lng": 120.60594177246094,
    "address": "嘉義縣602番路鄉阿里山公路173-2號",
    "status": "candidate"
  },
  {
    "tdx_id": "C1_A15010800H_000025",
    "name": "牛埔仔愛情大草原",
    "class1": "",
    "class2": "自然風景類",
    "suggested_facilityType": "tourist_attraction",
    "lat": 23.44363021850586,
    "lng": 120.59087371826172,
    "address": "嘉義縣602番路鄉觸口村車埕7鄰15號",
    "status": "candidate"
  },
  {
    "tdx_id": "C1_A15010800H_000081",
    "name": "象山",
    "class1": "",
    "class2": "遊憩類",
    "suggested_facilityType": "tourist_attraction",
    "lat": 23.43151092529297,
    "lng": 120.66407775878906,
    "address": "嘉義縣602番路鄉阿里山公路25號",
    "status": "candidate"
  },
  {
    "tdx_id": "C1_A15010800H_000082",
    "name": "二延平步道",
    "class1": "",
    "class2": "遊憩類",
    "suggested_facilityType": "tourist_attraction",
    "lat": 23.41748046875,
    "lng": 120.65078735351562,
    "address": "嘉義縣602番路鄉阿里山公路27號",
    "status": "candidate"
  },