{
  "city": "新竹縣",
  "category": "family",
  "updatedAt": "2026-06-16T12:55:03.699519Z",
  "items": [
    {
      "id": "tdx:C1_376440000A_000060",
      "name": "少帥張學良故居",
      "facilityType": "factory",
      "facilityLabel": "🏭 觀光工廠",
      "lat": 24.591499,
      "lng": 121.148003,
      "source": "tdx",
      "sourceId": "C1_376440000A_000060",
      "sourceCategory": "觀光工廠類",
      "reviewed": true,
      "updatedAt": "2026-06-16T08:46:47.655475Z",
      "address": "新竹縣五峰鄉256-6號"
    },
    {
      "id": "tdx:C1_376440000A_000061",
      "name": "三毛居所",
      "facilityType": "factory",
      "facilityLabel": "🏭 觀光工廠",
      "lat": 24.575199,
      "lng": 121.101997,
      "source": "tdx",
      "sourceId": "C1_376440000A_000061",
      "sourceCategory": "觀光工廠類",
      "reviewed": true,
      "updatedAt": "2026-06-16T08:46:47.655475Z",
      "address": "新竹縣五峰鄉桃山村清泉262號"
    },
    {
      "id": "tdx:C1_376440000A_000167",
      "name": "竹林養生村合作社",
      "facilityType": "farm",
      "facilityLabel": "🌾 農場",
      "lat": 24.619301,
      "lng": 121.097,
      "source": "tdx",
      "sourceId": "C1_376440000A_000167",
      "sourceCategory": "休閒農業類",
      "reviewed": true,
      "updatedAt": "2026-06-16T08:46:47.655475Z",
      "address": "新竹縣五峰鄉後湖村10鄰196號"
    },
    {
      "id": "tdx:C1_376440000A_000168",
      "name": "山上人家農場",
      "facilityType": "farm",
      "facilityLabel": "🌾 農場",
      "lat": 24.6047,
      "lng": 121.088997,
      "source": "tdx",
      "sourceId": "C1_376440000A_000168",
      "sourceCategory": "休閒農業類",
      "reviewed": true,
      "updatedAt": "2026-06-16T08:46:47.655475Z",
      "address": "新竹縣五峰鄉大隘村23鄰468-5號"
    },
    {
      "id": "tdx:C1_376440000A_000170",
      "name": "五峰涼山露營區",
      "facilityType": "farm",
      "facilityLabel": "🌾 農場",
      "lat": 24.6938,
      "lng": 121.111,
      "source": "tdx",
      "sourceId": "C1_376440000A_000170",
      "sourceCategory": "休閒農業類",
      "reviewed": true,
      "updatedAt": "2026-06-16T08:46:47.655475Z",
      "address": "新竹縣五峰鄉421號"
    },
    {
      "id": "tdx:C1_376440000A_000171",
      "name": "天岳農場",
      "facilityType": "farm",
      "facilityLabel": "🌾 農場",
      "lat": 24.619301,
      "lng": 121.097,
      "source": "tdx",
      "sourceId": "C1_376440000A_000171",
      "sourceCategory": "休閒農業類",
      "reviewed": true,
      "updatedAt": "2026-06-16T08:46:47.655475Z",
      "address": "新竹縣五峰鄉大隘村23鄰464號"
    },
    {
      "id": "tdx:C1_376440000A_000172",
      "name": "青葉甜柿園",
      "facilityType": "farm",
      "facilityLabel": "🌾 農場",
      "lat": 24.6292,
      "lng": 121.119003,
      "source": "tdx",
      "sourceId": "C1_376440000A_000172",
      "sourceCategory": "休閒農業類",
      "reviewed": true,
      "updatedAt": "2026-06-16T08:46:47.655475Z",
      "address": "新竹縣五峰鄉和平部落5 鄰 166 之 4 號"
    },
    {
      "id": "coa:230",
      "name": "雪霸休閒農場",
      "facilityType": "farm",
      "facilityLabel": "🌾 農場",
      "lat": 24.512253,
      "lng": 121.116405,
      "source": "coa",
      "sourceId": "230",
      "sourceCategory": "許可登記休閒農場",
      "reviewed": true,
      "updatedAt": "2026-06-16T12:53:15.116318Z",
      "address": "新竹縣五峰鄉桃山村民石380號",
      "phone": "03-585-6192"
    },
    {
      "id": "coa:310",
      "name": "比來特區生態休閒農場",
      "facilityType": "farm",
      "facilityLabel": "🌾 農場",
      "lat": 24.646389,
      "lng": 121.139722,
      "source": "coa",
      "sourceId": "310",
      "sourceCategory": "許可登記休閒農場",
      "reviewed": true,
      "updatedAt": "2026-06-16T12:53:15.116318Z",
      "address": "新竹縣五峰鄉花園村比來69-18號",
      "phone": "03-5964617"
    }
  ]
}