{
  "city": "新竹縣",
  "category": "family",
  "updatedAt": "2026-06-12T20:39:02.412Z",
  "items": [
    {
      "id": 1974838396,
      "name": "觀景點",
      "facilityType": "tourist_attraction",
      "facilityLabel": "🧭 旅遊景點",
      "lat": 24.6151963,
      "lng": 121.0814843,
      "source": "OpenStreetMap",
      "updatedAt": "2026-06-12T20:39:02.377Z"
    },
    {
      "id": 1979410228,
      "name": "展望點",
      "facilityType": "tourist_attraction",
      "facilityLabel": "🧭 旅遊景點",
      "lat": 24.552977,
      "lng": 121.067967,
      "source": "OpenStreetMap",
      "updatedAt": "2026-06-12T20:39:02.380Z"
    },
    {
      "id": 2573266759,
      "name": "鵝公髻山第一登山口",
      "facilityType": "visitor_center",
      "facilityLabel": "🛎 旅客中心",
      "lat": 24.6249366,
      "lng": 121.090114,
      "source": "OpenStreetMap",
      "updatedAt": "2026-06-12T20:39:02.381Z"
    },
    {
      "id": 3297970806,
      "name": "豆腐彎",
      "facilityType": "tourist_attraction",
      "facilityLabel": "🧭 旅遊景點",
      "lat": 24.5621496,
      "lng": 121.1659542,
      "source": "OpenStreetMap",
      "updatedAt": "2026-06-12T20:39:02.383Z"
    },
    {
      "id": 3608363267,
      "name": "八仙瀑布",
      "facilityType": "tourist_attraction",
      "facilityLabel": "🧭 旅遊景點",
      "lat": 24.5344488,
      "lng": 121.0953538,
      "source": "OpenStreetMap",
      "updatedAt": "2026-06-12T20:39:02.385Z"
    },
    {
      "id": 3716212763,
      "name": "散文作家三毛故居",
      "facilityType": "culture",
      "facilityLabel": "🎨 藝文場館",
      "lat": 24.574,
      "lng": 121.1056675,
      "source": "OpenStreetMap",
      "updatedAt": "2026-06-12T20:39:02.386Z"
    },
    {
      "id": 6707912885,
      "name": "谷燕瀑布",
      "facilityType": "tourist_attraction",
      "facilityLabel": "🧭 旅遊景點",
      "lat": 24.6249153,
      "lng": 121.1228212,
      "source": "OpenStreetMap",
      "updatedAt": "2026-06-12T20:39:02.388Z"
    },
    {
      "id": 7836849478,
      "name": "林業及自然保育署",
      "facilityType": "visitor_center",
      "facilityLabel": "🛎 旅客中心",
      "lat": 24.6363043,
      "lng": 121.0909961,
      "source": "OpenStreetMap",
      "updatedAt": "2026-06-12T20:39:02.389Z"
    },
    {
      "id": 7836849482,
      "name": "林業及自然保育署",
      "facilityType": "visitor_center",
      "facilityLabel": "🛎 旅客中心",
      "lat": 24.5050946,
      "lng": 121.0939998,
      "source": "OpenStreetMap",
      "updatedAt": "2026-06-12T20:39:02.389Z"
    },
    {
      "id": 7836849483,
      "name": "林業及自然保育署",
      "facilityType": "visitor_center",
      "facilityLabel": "🛎 旅客中心",
      "lat": 24.5043992,
      "lng": 121.0942954,
      "source": "OpenStreetMap",
      "updatedAt": "2026-06-12T20:39:02.390Z"
    },
    {
      "id": 7836849485,
      "name": "林業及自然保育署",
      "facilityType": "visitor_center",
      "facilityLabel": "🛎 旅客中心",
      "lat": 24.505592,
      "lng": 121.0926977,
      "source": "OpenStreetMap",
      "updatedAt": "2026-06-12T20:39:02.390Z"
    },
    {
      "id": 7983226561,
      "name": "林業及自然保育署",
      "facilityType": "visitor_center",
      "facilityLabel": "🛎 旅客中心",
      "lat": 24.5080018,
      "lng": 121.1160821,
      "source": "OpenStreetMap",
      "updatedAt": "2026-06-12T20:39:02.391Z"
    },
    {
      "id": 9124129159,
      "name": "愛心瀑布",
      "facilityType": "tourist_attraction",
      "facilityLabel": "🧭 旅遊景點",
      "lat": 24.6088147,
      "lng": 121.0881957,
      "source": "OpenStreetMap",
      "updatedAt": "2026-06-12T20:39:02.392Z"
    },
    {
      "id": 9165014868,
      "name": "樂山林道景觀平台",
      "facilityType": "tourist_attraction",
      "facilityLabel": "🧭 旅遊景點",
      "lat": 24.4999311,
      "lng": 121.0877136,
      "source": "OpenStreetMap",
      "updatedAt": "2026-06-12T20:39:02.392Z"
    },
    {
      "id": 9165014890,
      "name": "樂山林道景觀平台",
      "facilityType": "tourist_attraction",
      "facilityLabel": "🧭 旅遊景點",
      "lat": 24.4995566,
      "lng": 121.0876769,
      "source": "OpenStreetMap",
      "updatedAt": "2026-06-12T20:39:02.393Z"
    },
    {
      "id": 9222747744,
      "name": "血藤",
      "facilityType": "tourist_attraction",
      "facilityLabel": "🧭 旅遊景點",
      "lat": 24.6112176,
      "lng": 121.0834355,
      "source": "OpenStreetMap",
      "updatedAt": "2026-06-12T20:39:02.393Z"
    },
    {
      "id": 9336346477,
      "name": "樂山林道景觀平台",
      "facilityType": "tourist_attraction",
      "facilityLabel": "🧭 旅遊景點",
      "lat": 24.4997227,
      "lng": 121.0879479,
      "source": "OpenStreetMap",
      "updatedAt": "2026-06-12T20:39:02.394Z"
    },
    {
      "id": 9348058085,
      "name": "遊客禁止進入軍事營地告示牌",
      "facilityType": "visitor_center",
      "facilityLabel": "🛎 旅客中心",
      "lat": 24.5022157,
      "lng": 121.0870666,
      "source": "OpenStreetMap",
      "updatedAt": "2026-06-12T20:39:02.394Z"
    },
    {
      "id": 9349817995,
      "name": "新竹舞蜜露營區 B區",
      "facilityType": "spot",
      "facilityLabel": "📍 親子景點",
      "lat": 24.622932,
      "lng": 121.1454159,
      "source": "OpenStreetMap",
      "updatedAt": "2026-06-12T20:39:02.395Z"
    },
    {
      "id": 9438483597,
      "name": "林業及自然保育署",
      "facilityType": "visitor_center",
      "facilityLabel": "🛎 旅客中心",
      "lat": 24.5042936,
      "lng": 121.0932997,
      "source": "OpenStreetMap",
      "updatedAt": "2026-06-12T20:39:02.396Z"
    },
    {
      "id": 10229201139,
      "name": "3.5k",
      "facilityType": "visitor_center",
      "facilityLabel": "🛎 旅客中心",
      "lat": 24.566072,
      "lng": 121.1943645,
      "source": "OpenStreetMap",
      "updatedAt": "2026-06-12T20:39:02.396Z"
    },
    {
      "id": 10229243640,
      "name": "石鹿步道口",
      "facilityType": "visitor_center",
      "facilityLabel": "🛎 旅客中心",
      "lat": 24.561281,
      "lng": 121.1693063,
      "source": "OpenStreetMap",
      "updatedAt": "2026-06-12T20:39:02.397Z"
    },
    {
      "id": 10229250865,
      "name": "3.0k",
      "facilityType": "visitor_center",
      "facilityLabel": "🛎 旅客中心",
      "lat": 24.5652973,
      "lng": 121.1917341,
      "source": "OpenStreetMap",
      "updatedAt": "2026-06-12T20:39:02.397Z"
    },
    {
      "id": 10229254455,
      "name": "歷史 五峰的霞喀羅部落群 族人的生活",
      "facilityType": "visitor_center",
      "facilityLabel": "🛎 旅客中心",
      "lat": 24.5613062,
      "lng": 121.1693124,
      "source": "OpenStreetMap",
      "updatedAt": "2026-06-12T20:39:02.398Z"
    },
    {
      "id": 10229263088,
      "name": "1.2k",
      "facilityType": "visitor_center",
      "facilityLabel": "🛎 旅客中心",
      "lat": 24.5614163,
      "lng": 121.1783464,
      "source": "OpenStreetMap",
      "updatedAt": "2026-06-12T20:39:02.398Z"
    },
    {
      "id": 10229289150,
      "name": "0.5k",
      "facilityType": "visitor_center",
      "facilityLabel": "🛎 旅客中心",
      "lat": 24.5611149,
      "lng": 121.1727358,
      "source": "OpenStreetMap",
      "updatedAt": "2026-06-12T20:39:02.398Z"
    },
    {
      "id": 10229291067,
      "name": "2.0k",
      "facilityType": "visitor_center",
      "facilityLabel": "🛎 旅客中心",
      "lat": 24.5648501,
      "lng": 121.1840938,
      "source": "OpenStreetMap",
      "updatedAt": "2026-06-12T20:39:02.399Z"
    },
    {
      "id": 10229294035,
      "name": "0k",
      "facilityType": "visitor_center",
      "facilityLabel": "🛎 旅客中心",
      "lat": 24.5618624,
      "lng": 121.1703031,
      "source": "OpenStreetMap",
      "updatedAt": "2026-06-12T20:39:02.399Z"
    },
    {
      "id": 10229299400,
      "name": "1.0k",
      "facilityType": "visitor_center",
      "facilityLabel": "🛎 旅客中心",
      "lat": 24.5616068,
      "lng": 121.1772872,
      "source": "OpenStreetMap",
      "updatedAt": "2026-06-12T20:39:02.400Z"
    },
    {
      "id": 10229302929,
      "name": "1.5k",
      "facilityType": "visitor_center",
      "facilityLabel": "🛎 旅客中心",
      "lat": 24.5617927,
      "lng": 121.181354,
      "source": "OpenStreetMap",
      "updatedAt": "2026-06-12T20:39:02.400Z"
    },
    {
      "id": 10229319723,
      "name": "4.0k",
      "facilityType": "visitor_center",
      "facilityLabel": "🛎 旅客中心",
      "lat": 24.5680401,
      "lng": 121.1962242,
      "source": "OpenStreetMap",
      "updatedAt": "2026-06-12T20:39:02.401Z"
    },
    {
      "id": 10229320578,
      "name": "4.5k",
      "facilityType": "visitor_center",
      "facilityLabel": "🛎 旅客中心",
      "lat": 24.5706056,
      "lng": 121.1945028,
      "source": "OpenStreetMap",
      "updatedAt": "2026-06-12T20:39:02.401Z"
    },
    {
      "id": 10229320579,
      "name": "4.0k",
      "facilityType": "visitor_center",
      "facilityLabel": "🛎 旅客中心",
      "lat": 24.5708719,
      "lng": 121.1946007,
      "source": "OpenStreetMap",
      "updatedAt": "2026-06-12T20:39:02.402Z"
    },
    {
      "id": 10743014919,
      "name": "靜心瀑布",
      "facilityType": "tourist_attraction",
      "facilityLabel": "🧭 旅遊景點",
      "lat": 24.6092776,
      "lng": 121.0892433,
      "source": "OpenStreetMap",
      "updatedAt": "2026-06-12T20:39:02.402Z"
    },
    {
      "id": 10743014930,
      "name": "谷燕瀑布",
      "facilityType": "tourist_attraction",
      "facilityLabel": "🧭 旅遊景點",
      "lat": 24.6249345,
      "lng": 121.1237159,
      "source": "OpenStreetMap",
      "updatedAt": "2026-06-12T20:39:02.403Z"
    },
    {
      "id": 10767840591,
      "name": "新竹",
      "facilityType": "visitor_center",
      "facilityLabel": "🛎 旅客中心",
      "lat": 24.5471643,
      "lng": 121.1099941,
      "source": "OpenStreetMap",
      "updatedAt": "2026-06-12T20:39:02.403Z"
    },
    {
      "id": 10767840747,
      "name": "新竹",
      "facilityType": "visitor_center",
      "facilityLabel": "🛎 旅客中心",
      "lat": 24.5045842,
      "lng": 121.171564,
      "source": "OpenStreetMap",
      "updatedAt": "2026-06-12T20:39:02.404Z"
    },
    {
      "id": 11264383445,
      "name": "梅后蔓瀑布",
      "facilityType": "tourist_attraction",
      "facilityLabel": "🧭 旅遊景點",
      "lat": 24.6499703,
      "lng": 121.1575291,
      "source": "OpenStreetMap",
      "updatedAt": "2026-06-12T20:39:02.404Z"
    },
    {
      "id": 11559062869,
      "name": "鬼澤山步道登山入口",
      "facilityType": "tourist_attraction",
      "facilityLabel": "🧭 旅遊景點",
      "lat": 24.6182972,
      "lng": 121.1152895,
      "source": "OpenStreetMap",
      "updatedAt": "2026-06-12T20:39:02.405Z"
    },
    {
      "id": 12098006559,
      "name": "祖靈祭台",
      "facilityType": "tourist_attraction",
      "facilityLabel": "🧭 旅遊景點",
      "lat": 24.5740446,
      "lng": 121.0777017,
      "source": "OpenStreetMap",
      "updatedAt": "2026-06-12T20:39:02.405Z"
    },
    {
      "id": 13275491187,
      "name": "五峰瀑布",
      "facilityType": "tourist_attraction",
      "facilityLabel": "🧭 旅遊景點",
      "lat": 24.5775932,
      "lng": 121.1065733,
      "source": "OpenStreetMap",
      "updatedAt": "2026-06-12T20:39:02.406Z"
    },
    {
      "id": 94881901,
      "name": "清泉一號吊橋",
      "facilityType": "tourist_attraction",
      "facilityLabel": "🧭 旅遊景點",
      "lat": 24.573733,
      "lng": 121.1047851,
      "source": "OpenStreetMap",
      "updatedAt": "2026-06-12T20:39:02.406Z"
    },
    {
      "id": 94881911,
      "name": "清泉三號吊橋",
      "facilityType": "tourist_attraction",
      "facilityLabel": "🧭 旅遊景點",
      "lat": 24.5782257,
      "lng": 121.1050101,
      "source": "OpenStreetMap",
      "updatedAt": "2026-06-12T20:39:02.407Z"
    },
    {
      "id": 330790907,
      "name": "清泉二號吊橋",
      "facilityType": "tourist_attraction",
      "facilityLabel": "🧭 旅遊景點",
      "lat": 24.5763388,
      "lng": 121.1051731,
      "source": "OpenStreetMap",
      "updatedAt": "2026-06-12T20:39:02.407Z"
    },
    {
      "id": 330790908,
      "name": "清泉吊橋",
      "facilityType": "tourist_attraction",
      "facilityLabel": "🧭 旅遊景點",
      "lat": 24.5750585,
      "lng": 121.1046763,
      "source": "OpenStreetMap",
      "updatedAt": "2026-06-12T20:39:02.408Z"
    },
    {
      "id": 452383162,
      "name": "谷燕瀑布步道",
      "facilityType": "tourist_attraction",
      "facilityLabel": "🧭 旅遊景點",
      "lat": 24.6246441,
      "lng": 121.1211852,
      "source": "OpenStreetMap",
      "updatedAt": "2026-06-12T20:39:02.408Z"
    },
    {
      "id": 986974277,
      "name": "賽夏族矮靈祭場",
      "facilityType": "tourist_attraction",
      "facilityLabel": "🧭 旅遊景點",
      "lat": 24.6225504,
      "lng": 121.0993844,
      "source": "OpenStreetMap",
      "updatedAt": "2026-06-12T20:39:02.409Z"
    },
    {
      "id": 1011578046,
      "name": "雙溪吊橋(廢棄)",
      "facilityType": "tourist_attraction",
      "facilityLabel": "🧭 旅遊景點",
      "lat": 24.6000706,
      "lng": 121.1145285,
      "source": "OpenStreetMap",
      "updatedAt": "2026-06-12T20:39:02.409Z"
    },
    {
      "id": 1155192362,
      "name": "谷燕瀑布步道",
      "facilityType": "tourist_attraction",
      "facilityLabel": "🧭 旅遊景點",
      "lat": 24.6251092,
      "lng": 121.1231174,
      "source": "OpenStreetMap",
      "updatedAt": "2026-06-12T20:39:02.409Z"
    },
    {
      "id": 1155192363,
      "name": "谷燕瀑布步道",
      "facilityType": "tourist_attraction",
      "facilityLabel": "🧭 旅遊景點",
      "lat": 24.6249167,
      "lng": 121.1227328,
      "source": "OpenStreetMap",
      "updatedAt": "2026-06-12T20:39:02.410Z"
    },
    {
      "id": 7012502,
      "name": "觀霧國家森林遊樂區",
      "facilityType": "spot",
      "facilityLabel": "📍 親子景點",
      "lat": 24.4994778,
      "lng": 121.1064234,
      "source": "OpenStreetMap",
      "updatedAt": "2026-06-12T20:39:02.410Z"
    },
    {
      "id": 7023014,
      "name": "觀霧寬尾鳳蝶野生動物重要棲息環境",
      "facilityType": "spot",
      "facilityLabel": "📍 親子景點",
      "lat": 24.5006571,
      "lng": 121.1356863,
      "source": "OpenStreetMap",
      "updatedAt": "2026-06-12T20:39:02.411Z"
    },
    {
      "id": 7116214,
      "name": "佳仁山、馬達拉溪區域生態保護區",
      "facilityType": "spot",
      "facilityLabel": "📍 親子景點",
      "lat": 24.4228515,
      "lng": 121.0798384,
      "source": "OpenStreetMap",
      "updatedAt": "2026-06-12T20:39:02.411Z"
    },
    {
      "id": 7116215,
      "name": "台灣檫樹生態保護區",
      "facilityType": "spot",
      "facilityLabel": "📍 親子景點",
      "lat": 24.5045484,
      "lng": 121.1294938,
      "source": "OpenStreetMap",
      "updatedAt": "2026-06-12T20:39:02.412Z"
    }
  ]
}
