{
  "city": "花蓮縣",
  "district": "花蓮市",
  "category": "transport",
  "updatedAt": "2026-06-11T16:04:46.906Z",
  "rev": 1,
  "count": 52,
  "items": [
    {
      "id": 1590870801,
      "name": "花蓮醫院",
      "type": "bus",
      "city": "花蓮縣",
      "district": "花蓮市",
      "lat": 23.9798146,
      "lng": 121.6114781,
      "routes": [
        "310",
        "311",
        "1129",
        "1132",
        "1132A",
        "1133",
        "1136",
        "1141A"
      ],
      "routeCount": 8,
      "routeSource": "gtfs",
      "routeUpdatedAt": "2026-06-14T16:43:42.178Z",
      "routeConfidence": "high"
    },
    {
      "id": 2569373049,
      "name": "中華加油站",
      "type": "bus",
      "city": "花蓮縣",
      "district": "花蓮市",
      "lat": 23.9749876,
      "lng": 121.5977713,
      "routes": [
        "1139",
        "1139B",
        "1139C"
      ],
      "routeCount": 3,
      "routeSource": "gtfs",
      "routeUpdatedAt": "2026-06-14T16:43:42.178Z",
      "routeConfidence": "high"
    },
    {
      "id": 2569373052,
      "name": "中華路",
      "type": "bus",
      "city": "花蓮縣",
      "district": "花蓮市",
      "lat": 23.9761664,
      "lng": 121.6088608,
      "routes": [
        "301",
        "1121",
        "1122",
        "1128",
        "1129",
        "1132",
        "1132A",
        "1133",
        "1136",
        "1139",
        "1139B",
        "1139C",
        "1140",
        "1141A",
        "1145",
        "8119"
      ],
      "routeCount": 16,
      "routeSource": "gtfs",
      "routeUpdatedAt": "2026-06-14T16:43:42.179Z",
      "routeConfidence": "high"
    },
    {
      "id": 2569373064,
      "name": "德安",
      "type": "bus",
      "city": "花蓮縣",
      "district": "花蓮市",
      "lat": 23.9746562,
      "lng": 121.593813,
      "routes": [
        "1139",
        "1139B",
        "1139C"
      ],
      "routeCount": 3,
      "routeSource": "gtfs",
      "routeUpdatedAt": "2026-06-14T16:43:42.179Z",
      "routeConfidence": "high"
    },
    {
      "id": 2569373070,
      "name": "文化園區",
      "type": "bus",
      "city": "花蓮縣",
      "district": "花蓮市",
      "lat": 23.9757378,
      "lng": 121.6045002
    },
    {
      "id": 2569373072,
      "name": "明禮國小",
      "type": "bus",
      "city": "花蓮縣",
      "district": "花蓮市",
      "lat": 23.9802271,
      "lng": 121.6100559,
      "routes": [
        "1121",
        "1122",
        "1128",
        "1139",
        "1139B",
        "1139C",
        "1140",
        "1145"
      ],
      "routeCount": 8,
      "routeSource": "gtfs",
      "routeUpdatedAt": "2026-06-14T16:43:42.179Z",
      "routeConfidence": "high"
    },
    {
      "id": 2569373075,
      "name": "田埔",
      "type": "bus",
      "city": "花蓮縣",
      "district": "花蓮市",
      "lat": 23.9743352,
      "lng": 121.5903329,
      "routes": [
        "1139",
        "1139B",
        "1139C"
      ],
      "routeCount": 3,
      "routeSource": "gtfs",
      "routeUpdatedAt": "2026-06-14T16:43:42.179Z",
      "routeConfidence": "high"
    },
    {
      "id": 2569373078,
      "name": "花蓮轉運站",
      "type": "bus",
      "city": "花蓮縣",
      "district": "花蓮市",
      "lat": 23.9930305,
      "lng": 121.6032371,
      "routes": [
        "301",
        "303",
        "303B",
        "303C",
        "303D",
        "304",
        "305",
        "305A",
        "308",
        "308A",
        "310",
        "311",
        "311A",
        "1121",
        "1122",
        "1128",
        "1129",
        "1132",
        "1132A",
        "1133",
        "1136",
        "1139",
        "1139B",
        "1139C",
        "1140",
        "1141",
        "1141A",
        "1145",
        "1918",
        "8119"
      ],
      "routeCount": 30,
      "routeSource": "gtfs",
      "routeUpdatedAt": "2026-06-14T16:43:42.180Z",
      "routeConfidence": "high"
    },
    {
      "id": 2569373082,
      "name": "進豐路",
      "type": "bus",
      "city": "花蓮縣",
      "district": "花蓮市",
      "lat": 23.9854347,
      "lng": 121.6067122
    },
    {
      "id": 2667349216,
      "name": "大同市場",
      "type": "bus",
      "city": "花蓮縣",
      "district": "花蓮市",
      "lat": 23.9811803,
      "lng": 121.6061427,
      "routes": [
        "308",
        "308A",
        "311",
        "1121",
        "1122",
        "1129",
        "1132",
        "1132A",
        "1133",
        "1136",
        "1139",
        "1139B",
        "1139C",
        "1141A"
      ],
      "routeCount": 14,
      "routeSource": "gtfs",
      "routeUpdatedAt": "2026-06-14T16:43:42.180Z",
      "routeConfidence": "high"
    },
    {
      "id": 2667349270,
      "name": "臺灣企銀",
      "type": "bus",
      "city": "花蓮縣",
      "district": "花蓮市",
      "lat": 23.9785366,
      "lng": 121.6082312,
      "routes": [
        "308",
        "308A",
        "311",
        "1121",
        "1122",
        "1129",
        "1132",
        "1132A",
        "1133",
        "1136",
        "1139",
        "1139B",
        "1139C",
        "1141A"
      ],
      "routeCount": 14,
      "routeSource": "gtfs",
      "routeUpdatedAt": "2026-06-14T16:43:42.181Z",
      "routeConfidence": "high"
    },
    {
      "id": 2667349271,
      "name": "花蓮商校",
      "type": "bus",
      "city": "花蓮縣",
      "district": "花蓮市",
      "lat": 23.986552,
      "lng": 121.6020443,
      "routes": [
        "301",
        "308",
        "308A",
        "311",
        "1121",
        "1122",
        "1129",
        "1132",
        "1132A",
        "1133",
        "1136",
        "1139",
        "1139B",
        "1139C",
        "1141A"
      ],
      "routeCount": 15,
      "routeSource": "gtfs",
      "routeUpdatedAt": "2026-06-14T16:43:42.181Z",
      "routeConfidence": "high"
    },
    {
      "id": 2667349272,
      "name": "花蓮旅社",
      "type": "bus",
      "city": "花蓮縣",
      "district": "花蓮市",
      "lat": 23.9754056,
      "lng": 121.6103955,
      "routes": [
        "1128",
        "1129",
        "1132",
        "1132A",
        "1133",
        "1136",
        "1139",
        "1139B",
        "1139C",
        "1141A"
      ],
      "routeCount": 10,
      "routeSource": "gtfs",
      "routeUpdatedAt": "2026-06-14T16:43:42.182Z",
      "routeConfidence": "high"
    },
    {
      "id": 2667349273,
      "name": "荳蘭橋",
      "type": "bus",
      "city": "花蓮縣",
      "district": "花蓮市",
      "lat": 23.9740494,
      "lng": 121.5889142,
      "routes": [
        "1139",
        "1139B",
        "1139C"
      ],
      "routeCount": 3,
      "routeSource": "gtfs",
      "routeUpdatedAt": "2026-06-14T16:43:42.182Z",
      "routeConfidence": "high"
    },
    {
      "id": 2667349280,
      "name": "郵政總局",
      "type": "bus",
      "city": "花蓮縣",
      "district": "花蓮市",
      "lat": 23.9840069,
      "lng": 121.6040254,
      "routes": [
        "301",
        "308",
        "308A",
        "311",
        "1121",
        "1122",
        "1129",
        "1132",
        "1132A",
        "1133",
        "1136",
        "1139",
        "1139B",
        "1139C",
        "1141A"
      ],
      "routeCount": 15,
      "routeSource": "gtfs",
      "routeUpdatedAt": "2026-06-14T16:43:42.182Z",
      "routeConfidence": "high"
    },
    {
      "id": 3266710672,
      "name": "仁里橋",
      "type": "bus",
      "city": "花蓮縣",
      "district": "花蓮市",
      "lat": 23.9690018,
      "lng": 121.595006,
      "routes": [
        "1121",
        "1122",
        "1128",
        "1140",
        "1145",
        "8119"
      ],
      "routeCount": 6,
      "routeSource": "gtfs",
      "routeUpdatedAt": "2026-06-14T16:43:42.182Z",
      "routeConfidence": "high"
    },
    {
      "id": 3266712176,
      "name": "中福站",
      "type": "bus",
      "city": "花蓮縣",
      "district": "花蓮市",
      "lat": 23.9734263,
      "lng": 121.6017411,
      "routes": [
        "1121",
        "1122",
        "1128",
        "1140",
        "1145"
      ],
      "routeCount": 5,
      "routeSource": "gtfs",
      "routeUpdatedAt": "2026-06-14T16:43:42.182Z",
      "routeConfidence": "high"
    },
    {
      "id": 3266712271,
      "name": "中正國小",
      "type": "bus",
      "city": "花蓮縣",
      "district": "花蓮市",
      "lat": 23.9710465,
      "lng": 121.5981469,
      "routes": [
        "1121",
        "1122",
        "1128",
        "1140",
        "1145",
        "8119"
      ],
      "routeCount": 6,
      "routeSource": "gtfs",
      "routeUpdatedAt": "2026-06-14T16:43:42.182Z",
      "routeConfidence": "high"
    },
    {
      "id": 3266712274,
      "name": "中正站",
      "type": "bus",
      "city": "花蓮縣",
      "district": "花蓮市",
      "lat": 23.9746489,
      "lng": 121.6013307
    },
    {
      "id": 3268403214,
      "name": "花蓮總站",
      "type": "bus",
      "city": "花蓮縣",
      "district": "花蓮市",
      "lat": 23.9747581,
      "lng": 121.6108977
    },
    {
      "id": 3268403215,
      "name": "統帥飯店",
      "type": "bus",
      "city": "花蓮縣",
      "district": "花蓮市",
      "lat": 23.977477,
      "lng": 121.6114565
    },
    {
      "id": 3268403216,
      "name": "亞士都飯店",
      "type": "bus",
      "city": "花蓮縣",
      "district": "花蓮市",
      "lat": 23.9844834,
      "lng": 121.6230351
    },
    {
      "id": 3268403217,
      "name": "門諾醫院",
      "type": "bus",
      "city": "花蓮縣",
      "district": "花蓮市",
      "lat": 23.9879803,
      "lng": 121.6259884,
      "routes": [
        "308",
        "308A",
        "311"
      ],
      "routeCount": 3,
      "routeSource": "gtfs",
      "routeUpdatedAt": "2026-06-14T16:43:42.183Z",
      "routeConfidence": "high"
    },
    {
      "id": 3268412558,
      "name": "石雕博物館",
      "type": "bus",
      "city": "花蓮縣",
      "district": "花蓮市",
      "lat": 23.9901973,
      "lng": 121.6281083
    },
    {
      "id": 3268412560,
      "name": "美崙市場",
      "type": "bus",
      "city": "花蓮縣",
      "district": "花蓮市",
      "lat": 23.9933862,
      "lng": 121.6276678
    },
    {
      "id": 3268412561,
      "name": "美崙飯店",
      "type": "bus",
      "city": "花蓮縣",
      "district": "花蓮市",
      "lat": 23.9994889,
      "lng": 121.6281924
    },
    {
      "id": 3268412563,
      "name": "大陳一村",
      "type": "bus",
      "city": "花蓮縣",
      "district": "花蓮市",
      "lat": 24.005472,
      "lng": 121.6185701,
      "routes": [
        "311",
        "1129",
        "1132",
        "1132A",
        "1133",
        "1136",
        "1141A"
      ],
      "routeCount": 7,
      "routeSource": "gtfs",
      "routeUpdatedAt": "2026-06-14T16:43:42.183Z",
      "routeConfidence": "high"
    },
    {
      "id": 3268412568,
      "name": "慈濟醫院",
      "type": "bus",
      "city": "花蓮縣",
      "district": "花蓮市",
      "lat": 23.9949286,
      "lng": 121.5927297,
      "routes": [
        "305",
        "305A",
        "311"
      ],
      "routeCount": 3,
      "routeSource": "gtfs",
      "routeUpdatedAt": "2026-06-14T16:43:42.183Z",
      "routeConfidence": "high"
    },
    {
      "id": 3270595361,
      "name": "松園別館",
      "type": "bus",
      "city": "花蓮縣",
      "district": "花蓮市",
      "lat": 23.9826642,
      "lng": 121.618566,
      "routes": [
        "310",
        "311",
        "1129",
        "1132",
        "1132A",
        "1133",
        "1136",
        "1141A"
      ],
      "routeCount": 8,
      "routeSource": "gtfs",
      "routeUpdatedAt": "2026-06-14T16:43:42.183Z",
      "routeConfidence": "high"
    },
    {
      "id": 3270595362,
      "name": "上美崙",
      "type": "bus",
      "city": "花蓮縣",
      "district": "花蓮市",
      "lat": 23.9851011,
      "lng": 121.6205706,
      "routes": [
        "311",
        "1129",
        "1132",
        "1132A",
        "1133",
        "1136",
        "1141A"
      ],
      "routeCount": 7,
      "routeSource": "gtfs",
      "routeUpdatedAt": "2026-06-14T16:43:42.183Z",
      "routeConfidence": "high"
    },
    {
      "id": 3270595364,
      "name": "花蓮縣政府",
      "type": "bus",
      "city": "花蓮縣",
      "district": "花蓮市",
      "lat": 23.9908458,
      "lng": 121.6217611,
      "routes": [
        "1129",
        "1132",
        "1132A",
        "1133",
        "1136",
        "1141A"
      ],
      "routeCount": 6,
      "routeSource": "gtfs",
      "routeUpdatedAt": "2026-06-14T16:43:42.183Z",
      "routeConfidence": "high"
    },
    {
      "id": 3270595365,
      "name": "花蓮工校",
      "type": "bus",
      "city": "花蓮縣",
      "district": "花蓮市",
      "lat": 23.9982701,
      "lng": 121.62102
    },
    {
      "id": 4243930811,
      "name": "東大門夜市",
      "type": "bus",
      "city": "花蓮縣",
      "district": "花蓮市",
      "lat": 23.9746008,
      "lng": 121.6111436,
      "routes": [
        "301",
        "308",
        "308A",
        "310",
        "1128",
        "1129",
        "1132",
        "1132A",
        "1133",
        "1136",
        "1139",
        "1139B",
        "1139C",
        "1141A"
      ],
      "routeCount": 14,
      "routeSource": "gtfs",
      "routeUpdatedAt": "2026-06-14T16:43:42.184Z",
      "routeConfidence": "high"
    },
    {
      "id": 4243950395,
      "name": "花蓮旅行社",
      "type": "bus",
      "city": "花蓮縣",
      "district": "花蓮市",
      "lat": 23.9756446,
      "lng": 121.6102287,
      "routes": [
        "1128",
        "1129",
        "1132",
        "1132A",
        "1133",
        "1136",
        "1139",
        "1139B",
        "1139C",
        "1141A"
      ],
      "routeCount": 10,
      "routeSource": "gtfs",
      "routeUpdatedAt": "2026-06-14T16:43:42.185Z",
      "routeConfidence": "high"
    },
    {
      "id": 4685244695,
      "name": "仁愛之家(內政部東區老人之家)",
      "type": "bus",
      "city": "花蓮縣",
      "district": "花蓮市",
      "lat": 23.9894877,
      "lng": 121.6270299
    },
    {
      "id": 4685249804,
      "name": "中信飯店:翰品酒店",
      "type": "bus",
      "city": "花蓮縣",
      "district": "花蓮市",
      "lat": 23.9920259,
      "lng": 121.6265095
    },
    {
      "id": 5267976600,
      "name": "明廉國小",
      "type": "bus",
      "city": "花蓮縣",
      "district": "花蓮市",
      "lat": 23.9950913,
      "lng": 121.5951605,
      "routes": [
        "303",
        "305",
        "305A",
        "311"
      ],
      "routeCount": 4,
      "routeSource": "gtfs",
      "routeUpdatedAt": "2026-06-14T16:43:42.185Z",
      "routeConfidence": "high"
    },
    {
      "id": 5659925908,
      "name": "花蓮",
      "type": "train",
      "city": "花蓮縣",
      "district": "花蓮市",
      "lat": 23.9926399,
      "lng": 121.6009524
    },
    {
      "id": 5700276131,
      "name": "花蓮港",
      "type": "train",
      "city": "花蓮縣",
      "district": "花蓮市",
      "lat": 23.9942118,
      "lng": 121.6357715
    },
    {
      "id": 6336949288,
      "name": "花蓮電影城",
      "type": "bus",
      "city": "花蓮縣",
      "district": "花蓮市",
      "lat": 23.9894517,
      "lng": 121.6059317,
      "routes": [
        "301",
        "308",
        "308A"
      ],
      "routeCount": 3,
      "routeSource": "gtfs",
      "routeUpdatedAt": "2026-06-14T16:43:42.185Z",
      "routeConfidence": "high"
    },
    {
      "id": 6804438523,
      "name": "軒轅路",
      "type": "bus",
      "city": "花蓮縣",
      "district": "花蓮市",
      "lat": 23.9748428,
      "lng": 121.611688,
      "routes": [
        "8119"
      ],
      "routeCount": 1,
      "routeSource": "gtfs",
      "routeUpdatedAt": "2026-06-14T16:43:42.185Z",
      "routeConfidence": "high"
    },
    {
      "id": 6804443690,
      "name": "中正站",
      "type": "bus",
      "city": "花蓮縣",
      "district": "花蓮市",
      "lat": 23.9754855,
      "lng": 121.6046324
    },
    {
      "id": 6804585934,
      "name": "商校街",
      "type": "bus",
      "city": "花蓮縣",
      "district": "花蓮市",
      "lat": 23.9878332,
      "lng": 121.6048068,
      "routes": [
        "301",
        "308",
        "308A"
      ],
      "routeCount": 3,
      "routeSource": "gtfs",
      "routeUpdatedAt": "2026-06-14T16:43:42.185Z",
      "routeConfidence": "high"
    },
    {
      "id": 6804585936,
      "name": "市立圖書館",
      "type": "bus",
      "city": "花蓮縣",
      "district": "花蓮市",
      "lat": 23.9900191,
      "lng": 121.6013467,
      "routes": [
        "303",
        "305",
        "305A",
        "311",
        "1121",
        "1122",
        "1129",
        "1132",
        "1132A",
        "1133",
        "1136",
        "1139",
        "1139B",
        "1139C",
        "1141",
        "1141A"
      ],
      "routeCount": 16,
      "routeSource": "gtfs",
      "routeUpdatedAt": "2026-06-14T16:43:42.186Z",
      "routeConfidence": "high"
    },
    {
      "id": 6804585938,
      "name": "帝君廟",
      "type": "bus",
      "city": "花蓮縣",
      "district": "花蓮市",
      "lat": 23.9871961,
      "lng": 121.6063142,
      "routes": [
        "1121",
        "1122",
        "1128",
        "1139",
        "1139B",
        "1139C",
        "1140",
        "1145"
      ],
      "routeCount": 8,
      "routeSource": "gtfs",
      "routeUpdatedAt": "2026-06-14T16:43:42.186Z",
      "routeConfidence": "high"
    },
    {
      "id": 6806954123,
      "name": "地方法院",
      "type": "bus",
      "city": "花蓮縣",
      "district": "花蓮市",
      "lat": 23.9890227,
      "lng": 121.6212924,
      "routes": [
        "1129",
        "1132",
        "1132A",
        "1133",
        "1136",
        "1141A"
      ],
      "routeCount": 6,
      "routeSource": "gtfs",
      "routeUpdatedAt": "2026-06-14T16:43:42.186Z",
      "routeConfidence": "high"
    },
    {
      "id": 7119949023,
      "name": "花蓮車站",
      "type": "bus",
      "city": "花蓮縣",
      "district": "花蓮市",
      "lat": 23.9934939,
      "lng": 121.6038372,
      "routes": [
        "301",
        "303",
        "303B",
        "303C",
        "303D",
        "304",
        "305",
        "305A",
        "308",
        "308A",
        "310",
        "311",
        "311A",
        "1121",
        "1122",
        "1128",
        "1129",
        "1132",
        "1132A",
        "1133",
        "1136",
        "1139",
        "1139B",
        "1139C",
        "1140",
        "1141",
        "1141A",
        "1145",
        "1918",
        "8119"
      ],
      "routeCount": 30,
      "routeSource": "gtfs",
      "routeUpdatedAt": "2026-06-14T16:43:42.187Z",
      "routeConfidence": "high"
    },
    {
      "id": 7126035004,
      "name": "花蓮火車站",
      "type": "bus",
      "city": "花蓮縣",
      "district": "花蓮市",
      "lat": 23.9930786,
      "lng": 121.6032578,
      "routes": [
        "301",
        "303",
        "303B",
        "303C",
        "303D",
        "304",
        "305",
        "305A",
        "308",
        "308A",
        "310",
        "311",
        "311A",
        "1121",
        "1122",
        "1128",
        "1129",
        "1132",
        "1132A",
        "1133",
        "1136",
        "1139",
        "1139B",
        "1139C",
        "1140",
        "1141",
        "1141A",
        "1145",
        "1918",
        "8119"
      ],
      "routeCount": 30,
      "routeSource": "gtfs",
      "routeUpdatedAt": "2026-06-14T16:43:42.188Z",
      "routeConfidence": "high"
    },
    {
      "id": 9645117615,
      "name": "重慶市場 (石藝大街)",
      "type": "bus",
      "city": "花蓮縣",
      "district": "花蓮市",
      "lat": 23.9726358,
      "lng": 121.6090795,
      "routes": [
        "301"
      ],
      "routeCount": 1,
      "routeSource": "gtfs",
      "routeUpdatedAt": "2026-06-14T16:43:42.188Z",
      "routeConfidence": "high"
    },
    {
      "id": 12270458090,
      "name": "榮民之家",
      "type": "bus",
      "city": "花蓮縣",
      "district": "花蓮市",
      "lat": 24.0026255,
      "lng": 121.6194635,
      "routes": [
        "311",
        "1129",
        "1132",
        "1132A",
        "1133",
        "1136",
        "1141A"
      ],
      "routeCount": 7,
      "routeSource": "gtfs",
      "routeUpdatedAt": "2026-06-14T16:43:42.188Z",
      "routeConfidence": "high"
    },
    {
      "id": 12270517538,
      "name": "四維高中",
      "type": "bus",
      "city": "花蓮縣",
      "district": "花蓮市",
      "lat": 24.0003868,
      "lng": 121.5912428,
      "routes": [
        "1128",
        "1132A",
        "1139B"
      ],
      "routeCount": 3,
      "routeSource": "gtfs",
      "routeUpdatedAt": "2026-06-14T15:08:27.094Z",
      "routeConfidence": "high"
    },
    {
      "id": 13357446786,
      "name": "公車站",
      "type": "bus",
      "city": "花蓮縣",
      "district": "花蓮市",
      "lat": 24.0234289,
      "lng": 121.6291084
    }
  ]
}
