{
  "city": "新竹縣",
  "district": "竹北市",
  "category": "transport",
  "updatedAt": "2026-06-11T16:04:46.906Z",
  "rev": 1,
  "count": 322,
  "items": [
    {
      "id": 279154134,
      "name": "竹北",
      "type": "train",
      "city": "新竹縣",
      "district": "竹北市",
      "lat": 24.8391734,
      "lng": 121.0092345
    },
    {
      "id": 936369020,
      "name": "高鐵新竹站",
      "type": "bus",
      "city": "新竹縣",
      "district": "竹北市",
      "lat": 24.8074485,
      "lng": 121.0405979,
      "routes": [
        "182",
        "0557",
        "5700",
        "5900",
        "先導公車",
        "先導公車A",
        "快捷5號",
        "快捷5號A",
        "快捷8號",
        "快捷8號支",
        "快捷9號",
        "芎林－高鐵線",
        "觀光1號",
        "觀光2號",
        "觀光8號"
      ],
      "routeCount": 15,
      "routeSource": "gtfs",
      "routeUpdatedAt": "2026-06-14T16:43:41.681Z",
      "routeConfidence": "high"
    },
    {
      "id": 2625683965,
      "name": "交大竹北校區",
      "type": "bus",
      "city": "新竹縣",
      "district": "竹北市",
      "lat": 24.8126007,
      "lng": 121.0230044
    },
    {
      "id": 3305173091,
      "name": "蓮花寺",
      "type": "bus",
      "city": "新竹縣",
      "district": "竹北市",
      "lat": 24.8764426,
      "lng": 120.9613762,
      "routes": [
        "62"
      ],
      "routeCount": 1,
      "routeSource": "gtfs",
      "routeUpdatedAt": "2026-06-14T15:08:26.699Z",
      "routeConfidence": "high"
    },
    {
      "id": 3305173105,
      "name": "山腳",
      "type": "bus",
      "city": "新竹縣",
      "district": "竹北市",
      "lat": 24.8738786,
      "lng": 120.9560058,
      "routes": [
        "62",
        "68路",
        "68路A"
      ],
      "routeCount": 3,
      "routeSource": "gtfs",
      "routeUpdatedAt": "2026-06-14T16:43:41.681Z",
      "routeConfidence": "high"
    },
    {
      "id": 3305173107,
      "name": "蓮花寺口",
      "type": "bus",
      "city": "新竹縣",
      "district": "竹北市",
      "lat": 24.8770086,
      "lng": 120.9553235,
      "routes": [
        "62",
        "68路",
        "68路A"
      ],
      "routeCount": 3,
      "routeSource": "gtfs",
      "routeUpdatedAt": "2026-06-14T16:43:41.681Z",
      "routeConfidence": "high"
    },
    {
      "id": 3305197424,
      "name": "新港村",
      "type": "bus",
      "city": "新竹縣",
      "district": "竹北市",
      "lat": 24.8505799,
      "lng": 120.9461323,
      "routes": [
        "63"
      ],
      "routeCount": 1,
      "routeSource": "gtfs",
      "routeUpdatedAt": "2026-06-14T15:08:26.699Z",
      "routeConfidence": "high"
    },
    {
      "id": 3305236014,
      "name": "竹北口",
      "type": "bus",
      "city": "新竹縣",
      "district": "竹北市",
      "lat": 24.8380413,
      "lng": 121.0050623,
      "routes": [
        "61",
        "61支線A",
        "61B",
        "66",
        "66A",
        "68路",
        "68路A",
        "68路B",
        "5606",
        "5606A",
        "5612",
        "5619",
        "5620",
        "5621",
        "5700",
        "快捷8號",
        "快捷8號支"
      ],
      "routeCount": 17,
      "routeSource": "gtfs",
      "routeUpdatedAt": "2026-06-14T16:43:41.682Z",
      "routeConfidence": "high"
    },
    {
      "id": 3305236016,
      "name": "竹北",
      "type": "bus",
      "city": "新竹縣",
      "district": "竹北市",
      "lat": 24.8380085,
      "lng": 121.0050623,
      "routes": [
        "61",
        "61支線A",
        "61B",
        "66",
        "66A",
        "68路",
        "68路A",
        "68路B",
        "5606",
        "5606A",
        "5612",
        "5619",
        "5620",
        "5621",
        "5700",
        "快捷8號",
        "快捷8號支"
      ],
      "routeCount": 17,
      "routeSource": "gtfs",
      "routeUpdatedAt": "2026-06-14T16:43:41.682Z",
      "routeConfidence": "high"
    },
    {
      "id": 3305236018,
      "name": "市公所",
      "type": "bus",
      "city": "新竹縣",
      "district": "竹北市",
      "lat": 24.8395225,
      "lng": 121.0035903,
      "routes": [
        "60",
        "60A",
        "61",
        "61支線A",
        "61B",
        "62",
        "63",
        "65",
        "65A",
        "66",
        "66A",
        "68路",
        "68路A",
        "68路B"
      ],
      "routeCount": 14,
      "routeSource": "gtfs",
      "routeUpdatedAt": "2026-06-14T16:43:41.682Z",
      "routeConfidence": "high"
    },
    {
      "id": 3305236025,
      "name": "竹北",
      "type": "bus",
      "city": "新竹縣",
      "district": "竹北市",
      "lat": 24.838213,
      "lng": 121.0099802,
      "routes": [
        "60",
        "60A",
        "61",
        "61支線A",
        "61B",
        "62",
        "63",
        "65",
        "65A",
        "66",
        "66A",
        "5621",
        "5700",
        "5900",
        "快捷8號",
        "快捷8號支"
      ],
      "routeCount": 16,
      "routeSource": "gtfs",
      "routeUpdatedAt": "2026-06-14T16:43:41.683Z",
      "routeConfidence": "high"
    },
    {
      "id": 3305236026,
      "name": "竹北",
      "type": "bus",
      "city": "新竹縣",
      "district": "竹北市",
      "lat": 24.8374805,
      "lng": 121.0092416,
      "routes": [
        "60",
        "60A",
        "61",
        "61支線A",
        "61B",
        "62",
        "63",
        "65",
        "65A",
        "66",
        "66A",
        "5621",
        "5900"
      ],
      "routeCount": 13,
      "routeSource": "gtfs",
      "routeUpdatedAt": "2026-06-14T16:43:41.683Z",
      "routeConfidence": "high"
    },
    {
      "id": 3305639771,
      "name": "竹北國中",
      "type": "bus",
      "city": "新竹縣",
      "district": "竹北市",
      "lat": 24.8410797,
      "lng": 121.0002353,
      "routes": [
        "60",
        "60A",
        "61",
        "61支線A",
        "61B",
        "63",
        "65",
        "65A",
        "66",
        "66A",
        "68路",
        "68路A",
        "68路B"
      ],
      "routeCount": 13,
      "routeSource": "gtfs",
      "routeUpdatedAt": "2026-06-14T16:43:41.683Z",
      "routeConfidence": "high"
    },
    {
      "id": 3305639773,
      "name": "新社口",
      "type": "bus",
      "city": "新竹縣",
      "district": "竹北市",
      "lat": 24.8392964,
      "lng": 121.0042131
    },
    {
      "id": 3305639775,
      "name": "新社",
      "type": "bus",
      "city": "新竹縣",
      "district": "竹北市",
      "lat": 24.8421046,
      "lng": 120.9982089,
      "routes": [
        "60",
        "60A",
        "61",
        "61支線A",
        "61B",
        "63",
        "65",
        "65A",
        "66",
        "66A",
        "68路",
        "68路A",
        "68路B"
      ],
      "routeCount": 13,
      "routeSource": "gtfs",
      "routeUpdatedAt": "2026-06-14T16:43:41.684Z",
      "routeConfidence": "high"
    },
    {
      "id": 3305639777,
      "name": "竹北火車站",
      "type": "bus",
      "city": "新竹縣",
      "district": "竹北市",
      "lat": 24.8385767,
      "lng": 121.0100914,
      "routes": [
        "60",
        "60A",
        "61",
        "61支線A",
        "61B",
        "62",
        "63",
        "65",
        "65A",
        "66",
        "66A",
        "5621",
        "5700",
        "5900",
        "快捷8號",
        "快捷8號支"
      ],
      "routeCount": 16,
      "routeSource": "gtfs",
      "routeUpdatedAt": "2026-06-14T16:43:41.684Z",
      "routeConfidence": "high"
    },
    {
      "id": 3305908461,
      "name": "華興街",
      "type": "bus",
      "city": "新竹縣",
      "district": "竹北市",
      "lat": 24.8402396,
      "lng": 121.0018535
    },
    {
      "id": 3305908463,
      "name": "聯興口",
      "type": "bus",
      "city": "新竹縣",
      "district": "竹北市",
      "lat": 24.8429842,
      "lng": 120.9953201,
      "routes": [
        "63",
        "68路",
        "68路A",
        "68路B"
      ],
      "routeCount": 4,
      "routeSource": "gtfs",
      "routeUpdatedAt": "2026-06-14T16:43:41.684Z",
      "routeConfidence": "high"
    },
    {
      "id": 3305908465,
      "name": "新社尾",
      "type": "bus",
      "city": "新竹縣",
      "district": "竹北市",
      "lat": 24.8429061,
      "lng": 120.9924358,
      "routes": [
        "63",
        "68路",
        "68路A",
        "68路B"
      ],
      "routeCount": 4,
      "routeSource": "gtfs",
      "routeUpdatedAt": "2026-06-14T16:43:41.684Z",
      "routeConfidence": "high"
    },
    {
      "id": 3305908467,
      "name": "中泰路口",
      "type": "bus",
      "city": "新竹縣",
      "district": "竹北市",
      "lat": 24.8406424,
      "lng": 121.0055106,
      "routes": [
        "60",
        "60A",
        "61",
        "61支線A",
        "61B",
        "62",
        "68路",
        "68路A",
        "68路B",
        "快捷7號"
      ],
      "routeCount": 10,
      "routeSource": "gtfs",
      "routeUpdatedAt": "2026-06-14T16:43:41.684Z",
      "routeConfidence": "high"
    },
    {
      "id": 3305908469,
      "name": "華興街口",
      "type": "bus",
      "city": "新竹縣",
      "district": "竹北市",
      "lat": 24.8421233,
      "lng": 121.0049109,
      "routes": [
        "60",
        "60A",
        "61",
        "61支線A",
        "61B"
      ],
      "routeCount": 5,
      "routeSource": "gtfs",
      "routeUpdatedAt": "2026-06-14T16:43:41.685Z",
      "routeConfidence": "high"
    },
    {
      "id": 3305908471,
      "name": "飛利浦",
      "type": "bus",
      "city": "新竹縣",
      "district": "竹北市",
      "lat": 24.8433979,
      "lng": 121.0055169,
      "routes": [
        "62",
        "68路A",
        "5606",
        "5606A",
        "5612"
      ],
      "routeCount": 5,
      "routeSource": "gtfs",
      "routeUpdatedAt": "2026-06-14T16:43:41.685Z",
      "routeConfidence": "high"
    },
    {
      "id": 3305908473,
      "name": "泰和一街口",
      "type": "bus",
      "city": "新竹縣",
      "district": "竹北市",
      "lat": 24.8458933,
      "lng": 121.0054637,
      "routes": [
        "62",
        "68路A"
      ],
      "routeCount": 2,
      "routeSource": "gtfs",
      "routeUpdatedAt": "2026-06-14T15:08:26.701Z",
      "routeConfidence": "high"
    },
    {
      "id": 3305908474,
      "name": "泰和一街口",
      "type": "bus",
      "city": "新竹縣",
      "district": "竹北市",
      "lat": 24.8472149,
      "lng": 121.0054474,
      "routes": [
        "62"
      ],
      "routeCount": 1,
      "routeSource": "gtfs",
      "routeUpdatedAt": "2026-06-14T15:08:26.701Z",
      "routeConfidence": "high"
    },
    {
      "id": 3305908475,
      "name": "玫瑰新村",
      "type": "bus",
      "city": "新竹縣",
      "district": "竹北市",
      "lat": 24.847331,
      "lng": 121.005416,
      "routes": [
        "5606",
        "5606A",
        "5612"
      ],
      "routeCount": 3,
      "routeSource": "gtfs",
      "routeUpdatedAt": "2026-06-14T16:43:41.685Z",
      "routeConfidence": "high"
    },
    {
      "id": 3305908477,
      "name": "中和街口",
      "type": "bus",
      "city": "新竹縣",
      "district": "竹北市",
      "lat": 24.8496731,
      "lng": 121.0045832,
      "routes": [
        "62",
        "68路A"
      ],
      "routeCount": 2,
      "routeSource": "gtfs",
      "routeUpdatedAt": "2026-06-14T15:08:26.701Z",
      "routeConfidence": "high"
    },
    {
      "id": 3305908478,
      "name": "中和街口",
      "type": "bus",
      "city": "新竹縣",
      "district": "竹北市",
      "lat": 24.8486836,
      "lng": 121.0050602
    },
    {
      "id": 3305908479,
      "name": "東華",
      "type": "bus",
      "city": "新竹縣",
      "district": "竹北市",
      "lat": 24.8497484,
      "lng": 121.0045733,
      "routes": [
        "5606",
        "5606A",
        "5612"
      ],
      "routeCount": 3,
      "routeSource": "gtfs",
      "routeUpdatedAt": "2026-06-14T15:08:26.701Z",
      "routeConfidence": "high"
    },
    {
      "id": 3305908480,
      "name": "水產試驗所",
      "type": "bus",
      "city": "新竹縣",
      "district": "竹北市",
      "lat": 24.8503298,
      "lng": 121.0047208
    },
    {
      "id": 3305908481,
      "name": "貓兒錠口",
      "type": "bus",
      "city": "新竹縣",
      "district": "竹北市",
      "lat": 24.8551357,
      "lng": 121.0013199,
      "routes": [
        "62"
      ],
      "routeCount": 1,
      "routeSource": "gtfs",
      "routeUpdatedAt": "2026-06-14T16:43:41.685Z",
      "routeConfidence": "high"
    },
    {
      "id": 3305908483,
      "name": "鳳山崎",
      "type": "bus",
      "city": "新竹縣",
      "district": "竹北市",
      "lat": 24.8575351,
      "lng": 120.9881501,
      "routes": [
        "62"
      ],
      "routeCount": 1,
      "routeSource": "gtfs",
      "routeUpdatedAt": "2026-06-14T16:43:41.685Z",
      "routeConfidence": "high"
    },
    {
      "id": 3305908485,
      "name": "田九厝",
      "type": "bus",
      "city": "新竹縣",
      "district": "竹北市",
      "lat": 24.8589819,
      "lng": 120.9796963,
      "routes": [
        "62"
      ],
      "routeCount": 1,
      "routeSource": "gtfs",
      "routeUpdatedAt": "2026-06-14T16:43:41.685Z",
      "routeConfidence": "high"
    },
    {
      "id": 3305908487,
      "name": "鳳岡",
      "type": "bus",
      "city": "新竹縣",
      "district": "竹北市",
      "lat": 24.8613058,
      "lng": 120.9644829,
      "routes": [
        "62",
        "68路",
        "68路A"
      ],
      "routeCount": 3,
      "routeSource": "gtfs",
      "routeUpdatedAt": "2026-06-14T16:43:41.685Z",
      "routeConfidence": "high"
    },
    {
      "id": 3305908489,
      "name": "崇義村",
      "type": "bus",
      "city": "新竹縣",
      "district": "竹北市",
      "lat": 24.8614706,
      "lng": 120.9578103,
      "routes": [
        "62"
      ],
      "routeCount": 1,
      "routeSource": "gtfs",
      "routeUpdatedAt": "2026-06-14T16:43:41.685Z",
      "routeConfidence": "high"
    },
    {
      "id": 3305908491,
      "name": "庄頭",
      "type": "bus",
      "city": "新竹縣",
      "district": "竹北市",
      "lat": 24.8618681,
      "lng": 120.9590582,
      "routes": [
        "62"
      ],
      "routeCount": 1,
      "routeSource": "gtfs",
      "routeUpdatedAt": "2026-06-14T16:43:41.685Z",
      "routeConfidence": "high"
    },
    {
      "id": 3305908493,
      "name": "崁頂",
      "type": "bus",
      "city": "新竹縣",
      "district": "竹北市",
      "lat": 24.8614932,
      "lng": 120.9561826,
      "routes": [
        "62"
      ],
      "routeCount": 1,
      "routeSource": "gtfs",
      "routeUpdatedAt": "2026-06-14T16:43:41.685Z",
      "routeConfidence": "high"
    },
    {
      "id": 3305908495,
      "name": "崁頂",
      "type": "bus",
      "city": "新竹縣",
      "district": "竹北市",
      "lat": 24.8621298,
      "lng": 120.9552259
    },
    {
      "id": 3305908497,
      "name": "德惠宮",
      "type": "bus",
      "city": "新竹縣",
      "district": "竹北市",
      "lat": 24.8621851,
      "lng": 120.9542776,
      "routes": [
        "62"
      ],
      "routeCount": 1,
      "routeSource": "gtfs",
      "routeUpdatedAt": "2026-06-14T16:43:41.685Z",
      "routeConfidence": "high"
    },
    {
      "id": 3305908499,
      "name": "崁仔腳",
      "type": "bus",
      "city": "新竹縣",
      "district": "竹北市",
      "lat": 24.861385,
      "lng": 120.9493972,
      "routes": [
        "62"
      ],
      "routeCount": 1,
      "routeSource": "gtfs",
      "routeUpdatedAt": "2026-06-14T16:43:41.685Z",
      "routeConfidence": "high"
    },
    {
      "id": 3305908501,
      "name": "鳳岡國小",
      "type": "bus",
      "city": "新竹縣",
      "district": "竹北市",
      "lat": 24.8612237,
      "lng": 120.9645948,
      "routes": [
        "62",
        "68路",
        "68路A"
      ],
      "routeCount": 3,
      "routeSource": "gtfs",
      "routeUpdatedAt": "2026-06-14T16:43:41.685Z",
      "routeConfidence": "high"
    },
    {
      "id": 3305908508,
      "name": "鳳岡國中",
      "type": "bus",
      "city": "新竹縣",
      "district": "竹北市",
      "lat": 24.8638047,
      "lng": 120.9663073,
      "routes": [
        "62",
        "68路",
        "68路A"
      ],
      "routeCount": 3,
      "routeSource": "gtfs",
      "routeUpdatedAt": "2026-06-14T16:43:41.685Z",
      "routeConfidence": "high"
    },
    {
      "id": 3305908510,
      "name": "竹圍",
      "type": "bus",
      "city": "新竹縣",
      "district": "竹北市",
      "lat": 24.8615717,
      "lng": 120.952286
    },
    {
      "id": 3305908512,
      "name": "拔仔窟",
      "type": "bus",
      "city": "新竹縣",
      "district": "竹北市",
      "lat": 24.8645197,
      "lng": 120.9495752,
      "routes": [
        "62"
      ],
      "routeCount": 1,
      "routeSource": "gtfs",
      "routeUpdatedAt": "2026-06-14T16:43:41.685Z",
      "routeConfidence": "high"
    },
    {
      "id": 3305908514,
      "name": "田心子",
      "type": "bus",
      "city": "新竹縣",
      "district": "竹北市",
      "lat": 24.8686513,
      "lng": 120.9513392,
      "routes": [
        "62"
      ],
      "routeCount": 1,
      "routeSource": "gtfs",
      "routeUpdatedAt": "2026-06-14T16:43:41.685Z",
      "routeConfidence": "high"
    },
    {
      "id": 3305908516,
      "name": "庄尾",
      "type": "bus",
      "city": "新竹縣",
      "district": "竹北市",
      "lat": 24.8728425,
      "lng": 120.9547383,
      "routes": [
        "62"
      ],
      "routeCount": 1,
      "routeSource": "gtfs",
      "routeUpdatedAt": "2026-06-14T16:43:41.685Z",
      "routeConfidence": "high"
    },
    {
      "id": 3305908518,
      "name": "水利大樓",
      "type": "bus",
      "city": "新竹縣",
      "district": "竹北市",
      "lat": 24.8346014,
      "lng": 121.0047679,
      "routes": [
        "60",
        "60A",
        "61",
        "61支線A",
        "61B",
        "65",
        "65A",
        "66",
        "66A",
        "68路",
        "68路A",
        "68路B",
        "5606",
        "5606A",
        "5612",
        "5619",
        "5620",
        "5621"
      ],
      "routeCount": 18,
      "routeSource": "gtfs",
      "routeUpdatedAt": "2026-06-14T16:43:41.685Z",
      "routeConfidence": "high"
    },
    {
      "id": 3305908520,
      "name": "豆仔埔橋",
      "type": "bus",
      "city": "新竹縣",
      "district": "竹北市",
      "lat": 24.8319148,
      "lng": 121.0032701,
      "routes": [
        "5606",
        "5606A",
        "5612",
        "5619",
        "5620",
        "5621"
      ],
      "routeCount": 6,
      "routeSource": "gtfs",
      "routeUpdatedAt": "2026-06-14T16:43:41.686Z",
      "routeConfidence": "high"
    },
    {
      "id": 3305908522,
      "name": "伯公下",
      "type": "bus",
      "city": "新竹縣",
      "district": "竹北市",
      "lat": 24.8298435,
      "lng": 121.0007523,
      "routes": [
        "5606",
        "5606A",
        "5612",
        "5619",
        "5620",
        "5621"
      ],
      "routeCount": 6,
      "routeSource": "gtfs",
      "routeUpdatedAt": "2026-06-14T15:08:26.701Z",
      "routeConfidence": "high"
    },
    {
      "id": 3305908524,
      "name": "伯公廟",
      "type": "bus",
      "city": "新竹縣",
      "district": "竹北市",
      "lat": 24.829921,
      "lng": 121.0008162
    },
    {
      "id": 3305908526,
      "name": "下斗崙",
      "type": "bus",
      "city": "新竹縣",
      "district": "竹北市",
      "lat": 24.828521,
      "lng": 120.9993961,
      "routes": [
        "5606",
        "5606A",
        "5612",
        "5614",
        "5615",
        "5615A",
        "5619",
        "5620"
      ],
      "routeCount": 8,
      "routeSource": "gtfs",
      "routeUpdatedAt": "2026-06-14T15:08:26.702Z",
      "routeConfidence": "high"
    },
    {
      "id": 3305952971,
      "name": "家樂福",
      "type": "bus",
      "city": "新竹縣",
      "district": "竹北市",
      "lat": 24.8274442,
      "lng": 121.0088049,
      "routes": [
        "60",
        "60A",
        "61",
        "61支線A",
        "61B",
        "62",
        "63",
        "65",
        "65A",
        "66",
        "66A",
        "68路",
        "68路A",
        "68路B",
        "5900",
        "快捷8號",
        "快捷8號支",
        "快捷9號"
      ],
      "routeCount": 18,
      "routeSource": "gtfs",
      "routeUpdatedAt": "2026-06-14T16:43:41.686Z",
      "routeConfidence": "high"
    },
    {
      "id": 3305952973,
      "name": "新竹縣政府",
      "type": "bus",
      "city": "新竹縣",
      "district": "竹北市",
      "lat": 24.8259564,
      "lng": 121.0116644
    },
    {
      "id": 3305952974,
      "name": "新竹縣政府",
      "type": "bus",
      "city": "新竹縣",
      "district": "竹北市",
      "lat": 24.8257013,
      "lng": 121.0127416
    },
    {
      "id": 3305952975,
      "name": "縣政府",
      "type": "bus",
      "city": "新竹縣",
      "district": "竹北市",
      "lat": 24.8260149,
      "lng": 121.0115764
    },
    {
      "id": 3666869501,
      "name": "東元醫院",
      "type": "bus",
      "city": "新竹縣",
      "district": "竹北市",
      "lat": 24.8236474,
      "lng": 121.0127094,
      "routes": [
        "60",
        "60A",
        "61",
        "61支線A",
        "61B",
        "5900"
      ],
      "routeCount": 6,
      "routeSource": "gtfs",
      "routeUpdatedAt": "2026-06-14T16:43:41.687Z",
      "routeConfidence": "high"
    },
    {
      "id": 3305952979,
      "name": "自強七街(喜來登飯店)",
      "type": "bus",
      "city": "新竹縣",
      "district": "竹北市",
      "lat": 24.8198874,
      "lng": 121.0272953
    },
    {
      "id": 3305952981,
      "name": "公園大郡",
      "type": "bus",
      "city": "新竹縣",
      "district": "竹北市",
      "lat": 24.843524,
      "lng": 121.0023931,
      "routes": [
        "60",
        "60A",
        "61",
        "61支線A",
        "61B"
      ],
      "routeCount": 5,
      "routeSource": "gtfs",
      "routeUpdatedAt": "2026-06-14T16:43:41.687Z",
      "routeConfidence": "high"
    },
    {
      "id": 3305952983,
      "name": "兒15公園",
      "type": "bus",
      "city": "新竹縣",
      "district": "竹北市",
      "lat": 24.8439681,
      "lng": 120.9996665,
      "routes": [
        "60",
        "60A",
        "61",
        "61支線A",
        "61B"
      ],
      "routeCount": 5,
      "routeSource": "gtfs",
      "routeUpdatedAt": "2026-06-14T16:43:41.687Z",
      "routeConfidence": "high"
    },
    {
      "id": 3305952985,
      "name": "新民街",
      "type": "bus",
      "city": "新竹縣",
      "district": "竹北市",
      "lat": 24.8438967,
      "lng": 120.9965423,
      "routes": [
        "60",
        "60A",
        "61",
        "61支線A",
        "61B"
      ],
      "routeCount": 5,
      "routeSource": "gtfs",
      "routeUpdatedAt": "2026-06-14T16:43:41.687Z",
      "routeConfidence": "high"
    },
    {
      "id": 3305952987,
      "name": "新社里",
      "type": "bus",
      "city": "新竹縣",
      "district": "竹北市",
      "lat": 24.8434447,
      "lng": 120.9947202,
      "routes": [
        "65",
        "65A",
        "66",
        "66A"
      ],
      "routeCount": 4,
      "routeSource": "gtfs",
      "routeUpdatedAt": "2026-06-14T16:43:41.687Z",
      "routeConfidence": "high"
    },
    {
      "id": 3305952989,
      "name": "華興街",
      "type": "bus",
      "city": "新竹縣",
      "district": "竹北市",
      "lat": 24.8383225,
      "lng": 121.0007278,
      "routes": [
        "65",
        "65A",
        "66",
        "66A"
      ],
      "routeCount": 4,
      "routeSource": "gtfs",
      "routeUpdatedAt": "2026-06-14T16:43:41.687Z",
      "routeConfidence": "high"
    },
    {
      "id": 3305952991,
      "name": "公九公園",
      "type": "bus",
      "city": "新竹縣",
      "district": "竹北市",
      "lat": 24.8328378,
      "lng": 121.0012297,
      "routes": [
        "65",
        "65A",
        "66",
        "66A"
      ],
      "routeCount": 4,
      "routeSource": "gtfs",
      "routeUpdatedAt": "2026-06-14T16:43:41.687Z",
      "routeConfidence": "high"
    },
    {
      "id": 3305952993,
      "name": "里活動中心",
      "type": "bus",
      "city": "新竹縣",
      "district": "竹北市",
      "lat": 24.8313385,
      "lng": 120.9983294,
      "routes": [
        "65",
        "65A"
      ],
      "routeCount": 2,
      "routeSource": "gtfs",
      "routeUpdatedAt": "2026-06-14T15:08:26.702Z",
      "routeConfidence": "high"
    },
    {
      "id": 3305952995,
      "name": "下斗崙",
      "type": "bus",
      "city": "新竹縣",
      "district": "竹北市",
      "lat": 24.8294073,
      "lng": 120.9990635,
      "routes": [
        "65",
        "65A",
        "66",
        "66A",
        "5606",
        "5606A",
        "5612",
        "5614",
        "5615",
        "5615A",
        "5619",
        "5620",
        "5621"
      ],
      "routeCount": 13,
      "routeSource": "gtfs",
      "routeUpdatedAt": "2026-06-14T16:43:41.687Z",
      "routeConfidence": "high"
    },
    {
      "id": 3311572665,
      "name": "縣體育場",
      "type": "bus",
      "city": "新竹縣",
      "district": "竹北市",
      "lat": 24.8195812,
      "lng": 121.018316,
      "routes": [
        "5614",
        "5615",
        "5615A",
        "快捷9號"
      ],
      "routeCount": 4,
      "routeSource": "gtfs",
      "routeUpdatedAt": "2026-06-14T16:43:41.687Z",
      "routeConfidence": "high"
    },
    {
      "id": 3311572667,
      "name": "六家",
      "type": "bus",
      "city": "新竹縣",
      "district": "竹北市",
      "lat": 24.8166012,
      "lng": 121.0260256,
      "routes": [
        "60",
        "60A",
        "61",
        "61支線A",
        "61B",
        "5614",
        "5615",
        "5615A"
      ],
      "routeCount": 8,
      "routeSource": "gtfs",
      "routeUpdatedAt": "2026-06-14T16:43:41.688Z",
      "routeConfidence": "high"
    },
    {
      "id": 3311848924,
      "name": "天后宮",
      "type": "bus",
      "city": "新竹縣",
      "district": "竹北市",
      "lat": 24.8354472,
      "lng": 121.0116687,
      "routes": [
        "60",
        "60A",
        "61",
        "61支線A",
        "61B",
        "63",
        "65",
        "65A",
        "66",
        "66A",
        "5619",
        "5620",
        "5621",
        "快捷7號"
      ],
      "routeCount": 14,
      "routeSource": "gtfs",
      "routeUpdatedAt": "2026-06-14T16:43:41.688Z",
      "routeConfidence": "high"
    },
    {
      "id": 3339734819,
      "name": "白地",
      "type": "bus",
      "city": "新竹縣",
      "district": "竹北市",
      "lat": 24.8499051,
      "lng": 120.9582179,
      "routes": [
        "63"
      ],
      "routeCount": 1,
      "routeSource": "gtfs",
      "routeUpdatedAt": "2026-06-14T15:08:26.703Z",
      "routeConfidence": "high"
    },
    {
      "id": 3339882415,
      "name": "喜來登飯店",
      "type": "bus",
      "city": "新竹縣",
      "district": "竹北市",
      "lat": 24.8210858,
      "lng": 121.028983
    },
    {
      "id": 3339937521,
      "name": "六家國中",
      "type": "bus",
      "city": "新竹縣",
      "district": "竹北市",
      "lat": 24.8212496,
      "lng": 121.0319501
    },
    {
      "id": 3340976217,
      "name": "竹北站（統聯）",
      "type": "bus",
      "city": "新竹縣",
      "district": "竹北市",
      "lat": 24.8254837,
      "lng": 121.0123284
    },
    {
      "id": 3560261986,
      "name": "六家",
      "type": "train",
      "city": "新竹縣",
      "district": "竹北市",
      "lat": 24.8071256,
      "lng": 121.0394141
    },
    {
      "id": 3662871023,
      "name": "新竹地檢署(法院)",
      "type": "bus",
      "city": "新竹縣",
      "district": "竹北市",
      "lat": 24.8153833,
      "lng": 121.0187013,
      "routes": [
        "5615A"
      ],
      "routeCount": 1,
      "routeSource": "gtfs",
      "routeUpdatedAt": "2026-06-14T15:08:26.703Z",
      "routeConfidence": "high"
    },
    {
      "id": 3666688943,
      "name": "十興",
      "type": "bus",
      "city": "新竹縣",
      "district": "竹北市",
      "lat": 24.8149861,
      "lng": 121.0353497,
      "routes": [
        "60",
        "60A",
        "61",
        "61支線A",
        "61B",
        "5614",
        "5615",
        "5615A",
        "快捷9號"
      ],
      "routeCount": 9,
      "routeSource": "gtfs",
      "routeUpdatedAt": "2026-06-14T16:43:41.688Z",
      "routeConfidence": "high"
    },
    {
      "id": 3666688945,
      "name": "上十興",
      "type": "bus",
      "city": "新竹縣",
      "district": "竹北市",
      "lat": 24.8139585,
      "lng": 121.0381382,
      "routes": [
        "60",
        "60A",
        "61",
        "61支線A",
        "61B"
      ],
      "routeCount": 5,
      "routeSource": "gtfs",
      "routeUpdatedAt": "2026-06-14T16:43:41.688Z",
      "routeConfidence": "high"
    },
    {
      "id": 3666688947,
      "name": "交叉口",
      "type": "bus",
      "city": "新竹縣",
      "district": "竹北市",
      "lat": 24.8194489,
      "lng": 121.0300236,
      "routes": [
        "5614",
        "5615",
        "5615A"
      ],
      "routeCount": 3,
      "routeSource": "gtfs",
      "routeUpdatedAt": "2026-06-14T15:08:26.703Z",
      "routeConfidence": "high"
    },
    {
      "id": 3666688949,
      "name": "交叉口",
      "type": "bus",
      "city": "新竹縣",
      "district": "竹北市",
      "lat": 24.8190423,
      "lng": 121.0309189,
      "routes": [
        "60",
        "60A",
        "61",
        "61支線A",
        "61B",
        "5614",
        "5615",
        "5615A",
        "快捷9號"
      ],
      "routeCount": 9,
      "routeSource": "gtfs",
      "routeUpdatedAt": "2026-06-14T16:43:41.688Z",
      "routeConfidence": "high"
    },
    {
      "id": 3666688950,
      "name": "喜來登",
      "type": "bus",
      "city": "新竹縣",
      "district": "竹北市",
      "lat": 24.8201365,
      "lng": 121.0293092,
      "routes": [
        "61",
        "61支線A",
        "61B"
      ],
      "routeCount": 3,
      "routeSource": "gtfs",
      "routeUpdatedAt": "2026-06-14T15:08:26.703Z",
      "routeConfidence": "high"
    },
    {
      "id": 3666688954,
      "name": "嘉豐六路口",
      "type": "bus",
      "city": "新竹縣",
      "district": "竹北市",
      "lat": 24.8139546,
      "lng": 121.0332457,
      "routes": [
        "5900"
      ],
      "routeCount": 1,
      "routeSource": "gtfs",
      "routeUpdatedAt": "2026-06-14T15:08:26.703Z",
      "routeConfidence": "high"
    },
    {
      "id": 3666688962,
      "name": "嘉豐六路口",
      "type": "bus",
      "city": "新竹縣",
      "district": "竹北市",
      "lat": 24.8148817,
      "lng": 121.032932,
      "routes": [
        "5900"
      ],
      "routeCount": 1,
      "routeSource": "gtfs",
      "routeUpdatedAt": "2026-06-14T15:08:26.703Z",
      "routeConfidence": "high"
    },
    {
      "id": 3666688963,
      "name": "特殊教育學校",
      "type": "bus",
      "city": "新竹縣",
      "district": "竹北市",
      "lat": 24.8149153,
      "lng": 121.0323403,
      "routes": [
        "0557",
        "快捷5號",
        "快捷5號A",
        "快捷7號"
      ],
      "routeCount": 4,
      "routeSource": "gtfs",
      "routeUpdatedAt": "2026-06-14T16:43:41.688Z",
      "routeConfidence": "high"
    },
    {
      "id": 3666688965,
      "name": "米崙",
      "type": "bus",
      "city": "新竹縣",
      "district": "竹北市",
      "lat": 24.812731,
      "lng": 121.0409325,
      "routes": [
        "60",
        "60A",
        "61",
        "61支線A",
        "61B"
      ],
      "routeCount": 5,
      "routeSource": "gtfs",
      "routeUpdatedAt": "2026-06-14T16:43:41.688Z",
      "routeConfidence": "high"
    },
    {
      "id": 3666688966,
      "name": "上十興",
      "type": "bus",
      "city": "新竹縣",
      "district": "竹北市",
      "lat": 24.8125208,
      "lng": 121.0410077,
      "routes": [
        "5614",
        "5615",
        "5615A"
      ],
      "routeCount": 3,
      "routeSource": "gtfs",
      "routeUpdatedAt": "2026-06-14T15:08:26.703Z",
      "routeConfidence": "high"
    },
    {
      "id": 3666688969,
      "name": "下東興",
      "type": "bus",
      "city": "新竹縣",
      "district": "竹北市",
      "lat": 24.8096873,
      "lng": 121.0454718,
      "routes": [
        "60",
        "60A",
        "61",
        "61支線A",
        "61B",
        "5614",
        "5615",
        "5615A"
      ],
      "routeCount": 8,
      "routeSource": "gtfs",
      "routeUpdatedAt": "2026-06-14T16:43:41.689Z",
      "routeConfidence": "high"
    },
    {
      "id": 3666688971,
      "name": "東興",
      "type": "bus",
      "city": "新竹縣",
      "district": "竹北市",
      "lat": 24.8078602,
      "lng": 121.0477056,
      "routes": [
        "60",
        "60A",
        "61",
        "61支線A",
        "61B",
        "5614",
        "5615",
        "5615A"
      ],
      "routeCount": 8,
      "routeSource": "gtfs",
      "routeUpdatedAt": "2026-06-14T16:43:41.689Z",
      "routeConfidence": "high"
    },
    {
      "id": 3666798705,
      "name": "十興國小",
      "type": "bus",
      "city": "新竹縣",
      "district": "竹北市",
      "lat": 24.8244907,
      "lng": 121.0249135
    },
    {
      "id": 3666798707,
      "name": "公園城",
      "type": "bus",
      "city": "新竹縣",
      "district": "竹北市",
      "lat": 24.8332039,
      "lng": 121.0234752,
      "routes": [
        "60",
        "60A",
        "61",
        "61B"
      ],
      "routeCount": 4,
      "routeSource": "gtfs",
      "routeUpdatedAt": "2026-06-14T16:43:41.689Z",
      "routeConfidence": "high"
    },
    {
      "id": 3666798709,
      "name": "三民球場",
      "type": "bus",
      "city": "新竹縣",
      "district": "竹北市",
      "lat": 24.83389,
      "lng": 121.0107635,
      "routes": [
        "5621"
      ],
      "routeCount": 1,
      "routeSource": "gtfs",
      "routeUpdatedAt": "2026-06-14T15:08:26.703Z",
      "routeConfidence": "high"
    },
    {
      "id": 3666798740,
      "name": "三崁店",
      "type": "bus",
      "city": "新竹縣",
      "district": "竹北市",
      "lat": 24.7948447,
      "lng": 121.0567707,
      "routes": [
        "60A",
        "61",
        "61支線A",
        "61B",
        "5614",
        "5615",
        "5615A"
      ],
      "routeCount": 7,
      "routeSource": "gtfs",
      "routeUpdatedAt": "2026-06-14T16:43:41.689Z",
      "routeConfidence": "high"
    },
    {
      "id": 3666798742,
      "name": "下庄口",
      "type": "bus",
      "city": "新竹縣",
      "district": "竹北市",
      "lat": 24.8419321,
      "lng": 120.9576837,
      "routes": [
        "63"
      ],
      "routeCount": 1,
      "routeSource": "gtfs",
      "routeUpdatedAt": "2026-06-14T16:43:41.689Z",
      "routeConfidence": "high"
    },
    {
      "id": 3666798744,
      "name": "新庄口",
      "type": "bus",
      "city": "新竹縣",
      "district": "竹北市",
      "lat": 24.8419348,
      "lng": 120.9551937,
      "routes": [
        "63"
      ],
      "routeCount": 1,
      "routeSource": "gtfs",
      "routeUpdatedAt": "2026-06-14T16:43:41.689Z",
      "routeConfidence": "high"
    },
    {
      "id": 3666798747,
      "name": "下溪洲",
      "type": "bus",
      "city": "新竹縣",
      "district": "竹北市",
      "lat": 24.8417369,
      "lng": 120.9701421,
      "routes": [
        "63"
      ],
      "routeCount": 1,
      "routeSource": "gtfs",
      "routeUpdatedAt": "2026-06-14T16:43:41.689Z",
      "routeConfidence": "high"
    },
    {
      "id": 3666798749,
      "name": "上泉州厝",
      "type": "bus",
      "city": "新竹縣",
      "district": "竹北市",
      "lat": 24.8201712,
      "lng": 121.016735,
      "routes": [
        "60",
        "60A",
        "61",
        "61支線A",
        "61B",
        "5614"
      ],
      "routeCount": 6,
      "routeSource": "gtfs",
      "routeUpdatedAt": "2026-06-14T16:43:41.689Z",
      "routeConfidence": "high"
    },
    {
      "id": 3666798751,
      "name": "上鹿場",
      "type": "bus",
      "city": "新竹縣",
      "district": "竹北市",
      "lat": 24.8180346,
      "lng": 121.0232929,
      "routes": [
        "60",
        "60A",
        "61",
        "61支線A",
        "61B",
        "5614",
        "5615",
        "5615A"
      ],
      "routeCount": 8,
      "routeSource": "gtfs",
      "routeUpdatedAt": "2026-06-14T16:43:41.689Z",
      "routeConfidence": "high"
    },
    {
      "id": 3666798753,
      "name": "鹿場",
      "type": "bus",
      "city": "新竹縣",
      "district": "竹北市",
      "lat": 24.8185912,
      "lng": 121.0222231,
      "routes": [
        "5614",
        "5615",
        "5615A"
      ],
      "routeCount": 3,
      "routeSource": "gtfs",
      "routeUpdatedAt": "2026-06-14T15:08:26.704Z",
      "routeConfidence": "high"
    },
    {
      "id": 3666798755,
      "name": "土地廟",
      "type": "bus",
      "city": "新竹縣",
      "district": "竹北市",
      "lat": 24.8423961,
      "lng": 120.9510719,
      "routes": [
        "63"
      ],
      "routeCount": 1,
      "routeSource": "gtfs",
      "routeUpdatedAt": "2026-06-14T16:43:41.689Z",
      "routeConfidence": "high"
    },
    {
      "id": 3666798757,
      "name": "白地口",
      "type": "bus",
      "city": "新竹縣",
      "district": "竹北市",
      "lat": 24.8428872,
      "lng": 120.9488289,
      "routes": [
        "63"
      ],
      "routeCount": 1,
      "routeSource": "gtfs",
      "routeUpdatedAt": "2026-06-14T16:43:41.689Z",
      "routeConfidence": "high"
    },
    {
      "id": 3666798759,
      "name": "和興",
      "type": "bus",
      "city": "新竹縣",
      "district": "竹北市",
      "lat": 24.8456127,
      "lng": 120.9476527,
      "routes": [
        "63"
      ],
      "routeCount": 1,
      "routeSource": "gtfs",
      "routeUpdatedAt": "2026-06-14T15:08:26.704Z",
      "routeConfidence": "high"
    },
    {
      "id": 3666798760,
      "name": "長青路口",
      "type": "bus",
      "city": "新竹縣",
      "district": "竹北市",
      "lat": 24.8434418,
      "lng": 120.955653,
      "routes": [
        "63"
      ],
      "routeCount": 1,
      "routeSource": "gtfs",
      "routeUpdatedAt": "2026-06-14T16:43:41.689Z",
      "routeConfidence": "high"
    },
    {
      "id": 3666798762,
      "name": "大眉",
      "type": "bus",
      "city": "新竹縣",
      "district": "竹北市",
      "lat": 24.8577644,
      "lng": 120.9987821,
      "routes": [
        "5606",
        "5606A",
        "5612"
      ],
      "routeCount": 3,
      "routeSource": "gtfs",
      "routeUpdatedAt": "2026-06-14T15:08:26.704Z",
      "routeConfidence": "high"
    },
    {
      "id": 3666798763,
      "name": "大眉村",
      "type": "bus",
      "city": "新竹縣",
      "district": "竹北市",
      "lat": 24.8577876,
      "lng": 120.9987445,
      "routes": [
        "5606",
        "5606A",
        "5612"
      ],
      "routeCount": 3,
      "routeSource": "gtfs",
      "routeUpdatedAt": "2026-06-14T15:08:26.704Z",
      "routeConfidence": "high"
    },
    {
      "id": 3666798767,
      "name": "山水天地",
      "type": "bus",
      "city": "新竹縣",
      "district": "竹北市",
      "lat": 24.8587262,
      "lng": 120.9948197,
      "routes": [
        "5606",
        "5606A",
        "5612"
      ],
      "routeCount": 3,
      "routeSource": "gtfs",
      "routeUpdatedAt": "2026-06-14T15:08:26.704Z",
      "routeConfidence": "high"
    },
    {
      "id": 3666798769,
      "name": "山水天地",
      "type": "bus",
      "city": "新竹縣",
      "district": "竹北市",
      "lat": 24.8590972,
      "lng": 120.9957253,
      "routes": [
        "5606",
        "5606A",
        "5612"
      ],
      "routeCount": 3,
      "routeSource": "gtfs",
      "routeUpdatedAt": "2026-06-14T15:08:26.704Z",
      "routeConfidence": "high"
    },
    {
      "id": 3666798771,
      "name": "盛日電器",
      "type": "bus",
      "city": "新竹縣",
      "district": "竹北市",
      "lat": 24.8554462,
      "lng": 121.0021417,
      "routes": [
        "5606",
        "5606A",
        "5612"
      ],
      "routeCount": 3,
      "routeSource": "gtfs",
      "routeUpdatedAt": "2026-06-14T15:08:26.704Z",
      "routeConfidence": "high"
    },
    {
      "id": 3666798773,
      "name": "竹北郵局",
      "type": "bus",
      "city": "新竹縣",
      "district": "竹北市",
      "lat": 24.8360808,
      "lng": 121.0084146,
      "routes": [
        "5621"
      ],
      "routeCount": 1,
      "routeSource": "gtfs",
      "routeUpdatedAt": "2026-06-14T15:08:26.704Z",
      "routeConfidence": "high"
    },
    {
      "id": 3666798781,
      "name": "仁愛國中",
      "type": "bus",
      "city": "新竹縣",
      "district": "竹北市",
      "lat": 24.8329823,
      "lng": 121.0139884,
      "routes": [
        "61",
        "61支線A",
        "61B",
        "快捷1號"
      ],
      "routeCount": 4,
      "routeSource": "gtfs",
      "routeUpdatedAt": "2026-06-14T16:43:41.689Z",
      "routeConfidence": "high"
    },
    {
      "id": 3666798782,
      "name": "仁愛國中",
      "type": "bus",
      "city": "新竹縣",
      "district": "竹北市",
      "lat": 24.832962,
      "lng": 121.0151357,
      "routes": [
        "快捷1號"
      ],
      "routeCount": 1,
      "routeSource": "gtfs",
      "routeUpdatedAt": "2026-06-14T15:08:26.704Z",
      "routeConfidence": "high"
    },
    {
      "id": 3666798786,
      "name": "地政所",
      "type": "bus",
      "city": "新竹縣",
      "district": "竹北市",
      "lat": 24.8331621,
      "lng": 121.0129382,
      "routes": [
        "60",
        "60A",
        "5621"
      ],
      "routeCount": 3,
      "routeSource": "gtfs",
      "routeUpdatedAt": "2026-06-14T16:43:41.689Z",
      "routeConfidence": "high"
    },
    {
      "id": 3666798788,
      "name": "竹北地政事務所",
      "type": "bus",
      "city": "新竹縣",
      "district": "竹北市",
      "lat": 24.8331658,
      "lng": 121.0128768,
      "routes": [
        "快捷7號"
      ],
      "routeCount": 1,
      "routeSource": "gtfs",
      "routeUpdatedAt": "2026-06-14T16:43:41.689Z",
      "routeConfidence": "high"
    },
    {
      "id": 3666798790,
      "name": "市場",
      "type": "bus",
      "city": "新竹縣",
      "district": "竹北市",
      "lat": 24.8337386,
      "lng": 121.0144651
    },
    {
      "id": 3666798791,
      "name": "市場前",
      "type": "bus",
      "city": "新竹縣",
      "district": "竹北市",
      "lat": 24.8338462,
      "lng": 121.0144651
    },
    {
      "id": 3666798794,
      "name": "仁義路口",
      "type": "bus",
      "city": "新竹縣",
      "district": "竹北市",
      "lat": 24.8350716,
      "lng": 121.0140608,
      "routes": [
        "5619",
        "5620",
        "5621"
      ],
      "routeCount": 3,
      "routeSource": "gtfs",
      "routeUpdatedAt": "2026-06-14T16:43:41.690Z",
      "routeConfidence": "high"
    },
    {
      "id": 3666798796,
      "name": "文化街口",
      "type": "bus",
      "city": "新竹縣",
      "district": "竹北市",
      "lat": 24.8361087,
      "lng": 121.0151585,
      "routes": [
        "60",
        "60A",
        "61",
        "61支線A",
        "61B",
        "63",
        "65",
        "65A",
        "66",
        "66A"
      ],
      "routeCount": 10,
      "routeSource": "gtfs",
      "routeUpdatedAt": "2026-06-14T16:43:41.690Z",
      "routeConfidence": "high"
    },
    {
      "id": 3666798798,
      "name": "家樂福(原頂好超市)",
      "type": "bus",
      "city": "新竹縣",
      "district": "竹北市",
      "lat": 24.8350481,
      "lng": 121.0179527,
      "routes": [
        "60",
        "60A",
        "61",
        "61支線A",
        "61B"
      ],
      "routeCount": 5,
      "routeSource": "gtfs",
      "routeUpdatedAt": "2026-06-14T16:43:41.690Z",
      "routeConfidence": "high"
    },
    {
      "id": 3666798799,
      "name": "竹北一",
      "type": "bus",
      "city": "新竹縣",
      "district": "竹北市",
      "lat": 24.8351716,
      "lng": 121.0176958,
      "routes": [
        "5619",
        "5620"
      ],
      "routeCount": 2,
      "routeSource": "gtfs",
      "routeUpdatedAt": "2026-06-14T16:43:41.690Z",
      "routeConfidence": "high"
    },
    {
      "id": 3666798802,
      "name": "縣政二路",
      "type": "bus",
      "city": "新竹縣",
      "district": "竹北市",
      "lat": 24.8308862,
      "lng": 121.0178564,
      "routes": [
        "快捷1號",
        "快捷7號"
      ],
      "routeCount": 2,
      "routeSource": "gtfs",
      "routeUpdatedAt": "2026-06-14T16:43:41.690Z",
      "routeConfidence": "high"
    },
    {
      "id": 3666798804,
      "name": "文化局",
      "type": "bus",
      "city": "新竹縣",
      "district": "竹北市",
      "lat": 24.8302396,
      "lng": 121.0116,
      "routes": [
        "60",
        "61",
        "61支線A",
        "快捷1號"
      ],
      "routeCount": 4,
      "routeSource": "gtfs",
      "routeUpdatedAt": "2026-06-14T16:43:41.690Z",
      "routeConfidence": "high"
    },
    {
      "id": 3666869454,
      "name": "六家農會",
      "type": "bus",
      "city": "新竹縣",
      "district": "竹北市",
      "lat": 24.8176508,
      "lng": 121.0281079
    },
    {
      "id": 3666869455,
      "name": "代辦所",
      "type": "bus",
      "city": "新竹縣",
      "district": "竹北市",
      "lat": 24.8176833,
      "lng": 121.0281425,
      "routes": [
        "5614",
        "5615",
        "5615A"
      ],
      "routeCount": 3,
      "routeSource": "gtfs",
      "routeUpdatedAt": "2026-06-14T15:08:26.705Z",
      "routeConfidence": "high"
    },
    {
      "id": 3666869456,
      "name": "嘉豐一街",
      "type": "bus",
      "city": "新竹縣",
      "district": "竹北市",
      "lat": 24.8151431,
      "lng": 121.0279003,
      "routes": [
        "60",
        "60A",
        "61",
        "61支線A",
        "61B"
      ],
      "routeCount": 5,
      "routeSource": "gtfs",
      "routeUpdatedAt": "2026-06-14T16:43:41.690Z",
      "routeConfidence": "high"
    },
    {
      "id": 3666869458,
      "name": "新仁醫院",
      "type": "bus",
      "city": "新竹縣",
      "district": "竹北市",
      "lat": 24.8352048,
      "lng": 121.0086836,
      "routes": [
        "60",
        "60A",
        "61",
        "61支線A",
        "61B",
        "5900"
      ],
      "routeCount": 6,
      "routeSource": "gtfs",
      "routeUpdatedAt": "2026-06-14T16:43:41.690Z",
      "routeConfidence": "high"
    },
    {
      "id": 3666869461,
      "name": "新仁大安醫院",
      "type": "bus",
      "city": "新竹縣",
      "district": "竹北市",
      "lat": 24.8346877,
      "lng": 121.0075334,
      "routes": [
        "62",
        "63",
        "65",
        "65A",
        "66",
        "66A"
      ],
      "routeCount": 6,
      "routeSource": "gtfs",
      "routeUpdatedAt": "2026-06-14T16:43:41.690Z",
      "routeConfidence": "high"
    },
    {
      "id": 3666869463,
      "name": "北和宮",
      "type": "bus",
      "city": "新竹縣",
      "district": "竹北市",
      "lat": 24.837966,
      "lng": 121.0153693,
      "routes": [
        "60",
        "60A",
        "61",
        "61支線A",
        "61B",
        "63",
        "65",
        "65A",
        "66",
        "66A"
      ],
      "routeCount": 10,
      "routeSource": "gtfs",
      "routeUpdatedAt": "2026-06-14T16:43:41.691Z",
      "routeConfidence": "high"
    },
    {
      "id": 3666869468,
      "name": "台元紡織廠",
      "type": "bus",
      "city": "新竹縣",
      "district": "竹北市",
      "lat": 24.8386719,
      "lng": 121.0117149,
      "routes": [
        "60",
        "60A",
        "61",
        "61支線A",
        "61B",
        "63",
        "65",
        "65A",
        "66",
        "66A"
      ],
      "routeCount": 10,
      "routeSource": "gtfs",
      "routeUpdatedAt": "2026-06-14T16:43:41.691Z",
      "routeConfidence": "high"
    },
    {
      "id": 3666869470,
      "name": "泰和",
      "type": "bus",
      "city": "新竹縣",
      "district": "竹北市",
      "lat": 24.8391165,
      "lng": 121.0104799,
      "routes": [
        "5621"
      ],
      "routeCount": 1,
      "routeSource": "gtfs",
      "routeUpdatedAt": "2026-06-14T15:08:26.705Z",
      "routeConfidence": "high"
    },
    {
      "id": 3666869473,
      "name": "台灣企銀",
      "type": "bus",
      "city": "新竹縣",
      "district": "竹北市",
      "lat": 24.8278962,
      "lng": 121.0102925,
      "routes": [
        "快捷1號"
      ],
      "routeCount": 1,
      "routeSource": "gtfs",
      "routeUpdatedAt": "2026-06-14T16:43:41.691Z",
      "routeConfidence": "high"
    },
    {
      "id": 3666869475,
      "name": "文化中心",
      "type": "bus",
      "city": "新竹縣",
      "district": "竹北市",
      "lat": 24.8306335,
      "lng": 121.0138688,
      "routes": [
        "快捷7號"
      ],
      "routeCount": 1,
      "routeSource": "gtfs",
      "routeUpdatedAt": "2026-06-14T16:43:41.691Z",
      "routeConfidence": "high"
    },
    {
      "id": 3666869478,
      "name": "婦幼館",
      "type": "bus",
      "city": "新竹縣",
      "district": "竹北市",
      "lat": 24.8330616,
      "lng": 121.0191498,
      "routes": [
        "快捷1號",
        "快捷7號"
      ],
      "routeCount": 2,
      "routeSource": "gtfs",
      "routeUpdatedAt": "2026-06-14T16:43:41.691Z",
      "routeConfidence": "high"
    },
    {
      "id": 3666869480,
      "name": "水瓏",
      "type": "bus",
      "city": "新竹縣",
      "district": "竹北市",
      "lat": 24.8352718,
      "lng": 121.0211944,
      "routes": [
        "60",
        "60A",
        "5619",
        "5620"
      ],
      "routeCount": 4,
      "routeSource": "gtfs",
      "routeUpdatedAt": "2026-06-14T16:43:41.691Z",
      "routeConfidence": "high"
    },
    {
      "id": 3666869482,
      "name": "田屋",
      "type": "bus",
      "city": "新竹縣",
      "district": "竹北市",
      "lat": 24.8313019,
      "lng": 121.0255723,
      "routes": [
        "60",
        "60A",
        "61",
        "61B"
      ],
      "routeCount": 4,
      "routeSource": "gtfs",
      "routeUpdatedAt": "2026-06-14T16:43:41.691Z",
      "routeConfidence": "high"
    },
    {
      "id": 3666869484,
      "name": "德山",
      "type": "bus",
      "city": "新竹縣",
      "district": "竹北市",
      "lat": 24.834305,
      "lng": 121.0261293,
      "routes": [
        "5619",
        "5620"
      ],
      "routeCount": 2,
      "routeSource": "gtfs",
      "routeUpdatedAt": "2026-06-14T15:08:26.705Z",
      "routeConfidence": "high"
    },
    {
      "id": 3666869486,
      "name": "成瀧",
      "type": "bus",
      "city": "新竹縣",
      "district": "竹北市",
      "lat": 24.8343522,
      "lng": 121.0248848,
      "routes": [
        "61支線A",
        "5619",
        "5620"
      ],
      "routeCount": 3,
      "routeSource": "gtfs",
      "routeUpdatedAt": "2026-06-14T16:43:41.691Z",
      "routeConfidence": "high"
    },
    {
      "id": 3666869487,
      "name": "伍福宮",
      "type": "bus",
      "city": "新竹縣",
      "district": "竹北市",
      "lat": 24.8218673,
      "lng": 121.0290152,
      "routes": [
        "60",
        "60A",
        "61",
        "61支線A",
        "61B"
      ],
      "routeCount": 5,
      "routeSource": "gtfs",
      "routeUpdatedAt": "2026-06-14T16:43:41.691Z",
      "routeConfidence": "high"
    },
    {
      "id": 3666869489,
      "name": "台新罐頭廠",
      "type": "bus",
      "city": "新竹縣",
      "district": "竹北市",
      "lat": 24.8270782,
      "lng": 121.0027275,
      "routes": [
        "65",
        "65A",
        "66",
        "66A",
        "5614",
        "5615",
        "5615A"
      ],
      "routeCount": 7,
      "routeSource": "gtfs",
      "routeUpdatedAt": "2026-06-14T16:43:41.691Z",
      "routeConfidence": "high"
    },
    {
      "id": 3666869491,
      "name": "祖師廟",
      "type": "bus",
      "city": "新竹縣",
      "district": "竹北市",
      "lat": 24.8254946,
      "lng": 121.0065785,
      "routes": [
        "65",
        "65A",
        "66",
        "66A",
        "5614",
        "5615",
        "5615A"
      ],
      "routeCount": 7,
      "routeSource": "gtfs",
      "routeUpdatedAt": "2026-06-14T16:43:41.691Z",
      "routeConfidence": "high"
    },
    {
      "id": 3666869493,
      "name": "博愛國小",
      "type": "bus",
      "city": "新竹縣",
      "district": "竹北市",
      "lat": 24.8300689,
      "lng": 121.0051156,
      "routes": [
        "60",
        "60A",
        "61",
        "61支線A",
        "61B",
        "68路",
        "68路A",
        "68路B",
        "快捷8號",
        "快捷8號支"
      ],
      "routeCount": 10,
      "routeSource": "gtfs",
      "routeUpdatedAt": "2026-06-14T16:43:41.692Z",
      "routeConfidence": "high"
    },
    {
      "id": 3666869495,
      "name": "光明六路口",
      "type": "bus",
      "city": "新竹縣",
      "district": "竹北市",
      "lat": 24.8301052,
      "lng": 121.005069,
      "routes": [
        "5900"
      ],
      "routeCount": 1,
      "routeSource": "gtfs",
      "routeUpdatedAt": "2026-06-14T16:43:41.692Z",
      "routeConfidence": "high"
    },
    {
      "id": 3666869497,
      "name": "衛生所",
      "type": "bus",
      "city": "新竹縣",
      "district": "竹北市",
      "lat": 24.8314199,
      "lng": 121.0064197,
      "routes": [
        "62",
        "63",
        "65",
        "65A",
        "66",
        "66A"
      ],
      "routeCount": 6,
      "routeSource": "gtfs",
      "routeUpdatedAt": "2026-06-14T16:43:41.692Z",
      "routeConfidence": "high"
    },
    {
      "id": 3666869499,
      "name": "縣政九路",
      "type": "bus",
      "city": "新竹縣",
      "district": "竹北市",
      "lat": 24.825159,
      "lng": 121.0086734,
      "routes": [
        "65",
        "65A",
        "66A"
      ],
      "routeCount": 3,
      "routeSource": "gtfs",
      "routeUpdatedAt": "2026-06-14T16:43:41.692Z",
      "routeConfidence": "high"
    },
    {
      "id": 3666869503,
      "name": "金興",
      "type": "bus",
      "city": "新竹縣",
      "district": "竹北市",
      "lat": 24.8599184,
      "lng": 120.9755031,
      "routes": [
        "62"
      ],
      "routeCount": 1,
      "routeSource": "gtfs",
      "routeUpdatedAt": "2026-06-14T16:43:41.692Z",
      "routeConfidence": "high"
    },
    {
      "id": 3666869505,
      "name": "園仔頂",
      "type": "bus",
      "city": "新竹縣",
      "district": "竹北市",
      "lat": 24.8668082,
      "lng": 120.9511413,
      "routes": [
        "62"
      ],
      "routeCount": 1,
      "routeSource": "gtfs",
      "routeUpdatedAt": "2026-06-14T16:43:41.692Z",
      "routeConfidence": "high"
    },
    {
      "id": 3666869507,
      "name": "廣聖宮",
      "type": "bus",
      "city": "新竹縣",
      "district": "竹北市",
      "lat": 24.822507,
      "lng": 121.0270621,
      "routes": [
        "60",
        "60A",
        "61",
        "61支線A",
        "61B"
      ],
      "routeCount": 5,
      "routeSource": "gtfs",
      "routeUpdatedAt": "2026-06-14T16:43:41.692Z",
      "routeConfidence": "high"
    },
    {
      "id": 3666869509,
      "name": "莊敬五路",
      "type": "bus",
      "city": "新竹縣",
      "district": "竹北市",
      "lat": 24.8237875,
      "lng": 121.0269214
    },
    {
      "id": 3666923383,
      "name": "彰化銀行",
      "type": "bus",
      "city": "新竹縣",
      "district": "竹北市",
      "lat": 24.8418361,
      "lng": 121.0126321,
      "routes": [
        "62"
      ],
      "routeCount": 1,
      "routeSource": "gtfs",
      "routeUpdatedAt": "2026-06-14T16:43:41.692Z",
      "routeConfidence": "high"
    },
    {
      "id": 3666923385,
      "name": "縣府入口",
      "type": "bus",
      "city": "新竹縣",
      "district": "竹北市",
      "lat": 24.8230417,
      "lng": 121.0101651,
      "routes": [
        "5614",
        "5615",
        "5615A"
      ],
      "routeCount": 3,
      "routeSource": "gtfs",
      "routeUpdatedAt": "2026-06-14T15:08:26.706Z",
      "routeConfidence": "high"
    },
    {
      "id": 3666923387,
      "name": "泉州厝",
      "type": "bus",
      "city": "新竹縣",
      "district": "竹北市",
      "lat": 24.8211536,
      "lng": 121.0137563,
      "routes": [
        "60",
        "60A",
        "61",
        "61支線A",
        "61B",
        "5614",
        "5615",
        "5615A",
        "快捷9號"
      ],
      "routeCount": 9,
      "routeSource": "gtfs",
      "routeUpdatedAt": "2026-06-14T16:43:41.692Z",
      "routeConfidence": "high"
    },
    {
      "id": 3666923389,
      "name": "衛生局",
      "type": "bus",
      "city": "新竹縣",
      "district": "竹北市",
      "lat": 24.8257421,
      "lng": 121.0153922,
      "routes": [
        "快捷1號"
      ],
      "routeCount": 1,
      "routeSource": "gtfs",
      "routeUpdatedAt": "2026-06-14T16:43:41.692Z",
      "routeConfidence": "high"
    },
    {
      "id": 3666923391,
      "name": "逸境新村",
      "type": "bus",
      "city": "新竹縣",
      "district": "竹北市",
      "lat": 24.8567681,
      "lng": 120.991539,
      "routes": [
        "62"
      ],
      "routeCount": 1,
      "routeSource": "gtfs",
      "routeUpdatedAt": "2026-06-14T16:43:41.692Z",
      "routeConfidence": "high"
    },
    {
      "id": 3666923393,
      "name": "大眉",
      "type": "bus",
      "city": "新竹縣",
      "district": "竹北市",
      "lat": 24.8562441,
      "lng": 120.9951024,
      "routes": [
        "62"
      ],
      "routeCount": 1,
      "routeSource": "gtfs",
      "routeUpdatedAt": "2026-06-14T16:43:41.692Z",
      "routeConfidence": "high"
    },
    {
      "id": 3666923395,
      "name": "自強北路勝利八街",
      "type": "bus",
      "city": "新竹縣",
      "district": "竹北市",
      "lat": 24.8242107,
      "lng": 121.0316387
    },
    {
      "id": 3666923399,
      "name": "社區口",
      "type": "bus",
      "city": "新竹縣",
      "district": "竹北市",
      "lat": 24.8492053,
      "lng": 120.9490468
    },
    {
      "id": 3666923401,
      "name": "港安宮",
      "type": "bus",
      "city": "新竹縣",
      "district": "竹北市",
      "lat": 24.8497076,
      "lng": 120.9485481,
      "routes": [
        "63"
      ],
      "routeCount": 1,
      "routeSource": "gtfs",
      "routeUpdatedAt": "2026-06-14T15:08:26.706Z",
      "routeConfidence": "high"
    },
    {
      "id": 3666923402,
      "name": "新港",
      "type": "bus",
      "city": "新竹縣",
      "district": "竹北市",
      "lat": 24.850581,
      "lng": 120.9461668,
      "routes": [
        "63"
      ],
      "routeCount": 1,
      "routeSource": "gtfs",
      "routeUpdatedAt": "2026-06-14T15:08:26.706Z",
      "routeConfidence": "high"
    },
    {
      "id": 3666923403,
      "name": "東海國小",
      "type": "bus",
      "city": "新竹縣",
      "district": "竹北市",
      "lat": 24.8054571,
      "lng": 121.0493175,
      "routes": [
        "60",
        "60A",
        "61",
        "61支線A",
        "61B",
        "5614",
        "5615",
        "5615A",
        "快捷8號"
      ],
      "routeCount": 9,
      "routeSource": "gtfs",
      "routeUpdatedAt": "2026-06-14T16:43:41.692Z",
      "routeConfidence": "high"
    },
    {
      "id": 3666923405,
      "name": "東海",
      "type": "bus",
      "city": "新竹縣",
      "district": "竹北市",
      "lat": 24.8028991,
      "lng": 121.0507007,
      "routes": [
        "60A",
        "61",
        "61支線A",
        "61B",
        "5614",
        "5615",
        "5615A",
        "快捷8號"
      ],
      "routeCount": 8,
      "routeSource": "gtfs",
      "routeUpdatedAt": "2026-06-14T16:43:41.692Z",
      "routeConfidence": "high"
    },
    {
      "id": 3666923407,
      "name": "東平",
      "type": "bus",
      "city": "新竹縣",
      "district": "竹北市",
      "lat": 24.8009584,
      "lng": 121.0520066,
      "routes": [
        "60A",
        "61",
        "61支線A",
        "61B",
        "5614",
        "5615",
        "5615A"
      ],
      "routeCount": 7,
      "routeSource": "gtfs",
      "routeUpdatedAt": "2026-06-14T16:43:41.692Z",
      "routeConfidence": "high"
    },
    {
      "id": 3666923409,
      "name": "東光",
      "type": "bus",
      "city": "新竹縣",
      "district": "竹北市",
      "lat": 24.7974233,
      "lng": 121.0550688,
      "routes": [
        "60A",
        "61",
        "61支線A",
        "61B",
        "5614",
        "5615",
        "5615A"
      ],
      "routeCount": 7,
      "routeSource": "gtfs",
      "routeUpdatedAt": "2026-06-14T16:43:41.693Z",
      "routeConfidence": "high"
    },
    {
      "id": 3666923411,
      "name": "隘口",
      "type": "bus",
      "city": "新竹縣",
      "district": "竹北市",
      "lat": 24.7975716,
      "lng": 121.0482287,
      "routes": [
        "61",
        "61支線A",
        "61B"
      ],
      "routeCount": 3,
      "routeSource": "gtfs",
      "routeUpdatedAt": "2026-06-14T15:08:26.706Z",
      "routeConfidence": "high"
    },
    {
      "id": 3666923412,
      "name": "堤頂",
      "type": "bus",
      "city": "新竹縣",
      "district": "竹北市",
      "lat": 24.7931804,
      "lng": 121.0531163,
      "routes": [
        "61",
        "61支線A",
        "61B"
      ],
      "routeCount": 3,
      "routeSource": "gtfs",
      "routeUpdatedAt": "2026-06-14T15:08:26.706Z",
      "routeConfidence": "high"
    },
    {
      "id": 3666923413,
      "name": "東海里",
      "type": "bus",
      "city": "新竹縣",
      "district": "竹北市",
      "lat": 24.7932195,
      "lng": 121.0582584,
      "routes": [
        "60A",
        "61",
        "61支線A",
        "61B"
      ],
      "routeCount": 4,
      "routeSource": "gtfs",
      "routeUpdatedAt": "2026-06-14T16:43:41.693Z",
      "routeConfidence": "high"
    },
    {
      "id": 3666923414,
      "name": "東勢口",
      "type": "bus",
      "city": "新竹縣",
      "district": "竹北市",
      "lat": 24.863327,
      "lng": 120.9682337,
      "routes": [
        "62",
        "68路",
        "68路A"
      ],
      "routeCount": 3,
      "routeSource": "gtfs",
      "routeUpdatedAt": "2026-06-14T16:43:41.693Z",
      "routeConfidence": "high"
    },
    {
      "id": 3666923416,
      "name": "園頂",
      "type": "bus",
      "city": "新竹縣",
      "district": "竹北市",
      "lat": 24.8616132,
      "lng": 120.9713106,
      "routes": [
        "62"
      ],
      "routeCount": 1,
      "routeSource": "gtfs",
      "routeUpdatedAt": "2026-06-14T16:43:41.693Z",
      "routeConfidence": "high"
    },
    {
      "id": 3666923419,
      "name": "泰和里",
      "type": "bus",
      "city": "新竹縣",
      "district": "竹北市",
      "lat": 24.8454387,
      "lng": 121.0075483,
      "routes": [
        "62"
      ],
      "routeCount": 1,
      "routeSource": "gtfs",
      "routeUpdatedAt": "2026-06-14T16:43:41.693Z",
      "routeConfidence": "high"
    },
    {
      "id": 3666923421,
      "name": "新港里",
      "type": "bus",
      "city": "新竹縣",
      "district": "竹北市",
      "lat": 24.8494161,
      "lng": 120.945139,
      "routes": [
        "63"
      ],
      "routeCount": 1,
      "routeSource": "gtfs",
      "routeUpdatedAt": "2026-06-14T15:08:26.706Z",
      "routeConfidence": "high"
    },
    {
      "id": 3666923424,
      "name": "邱厝",
      "type": "bus",
      "city": "新竹縣",
      "district": "竹北市",
      "lat": 24.8405879,
      "lng": 120.9806582,
      "routes": [
        "63",
        "65",
        "65A",
        "66",
        "66A"
      ],
      "routeCount": 5,
      "routeSource": "gtfs",
      "routeUpdatedAt": "2026-06-14T16:43:41.693Z",
      "routeConfidence": "high"
    },
    {
      "id": 3666925026,
      "name": "聯興",
      "type": "bus",
      "city": "新竹縣",
      "district": "竹北市",
      "lat": 24.8406788,
      "lng": 120.9787525,
      "routes": [
        "63",
        "65",
        "65A",
        "66",
        "66A"
      ],
      "routeCount": 5,
      "routeSource": "gtfs",
      "routeUpdatedAt": "2026-06-14T16:43:41.693Z",
      "routeConfidence": "high"
    },
    {
      "id": 3666925028,
      "name": "溪洲",
      "type": "bus",
      "city": "新竹縣",
      "district": "竹北市",
      "lat": 24.8410127,
      "lng": 120.9762215,
      "routes": [
        "63",
        "65",
        "65A",
        "66",
        "66A"
      ],
      "routeCount": 5,
      "routeSource": "gtfs",
      "routeUpdatedAt": "2026-06-14T16:43:41.693Z",
      "routeConfidence": "high"
    },
    {
      "id": 3666925030,
      "name": "麻園橋",
      "type": "bus",
      "city": "新竹縣",
      "district": "竹北市",
      "lat": 24.8444522,
      "lng": 120.9764396,
      "routes": [
        "65",
        "65A",
        "66",
        "66A",
        "68路",
        "68路A"
      ],
      "routeCount": 6,
      "routeSource": "gtfs",
      "routeUpdatedAt": "2026-06-14T16:43:41.693Z",
      "routeConfidence": "high"
    },
    {
      "id": 3666925032,
      "name": "馬麟厝",
      "type": "bus",
      "city": "新竹縣",
      "district": "竹北市",
      "lat": 24.8405784,
      "lng": 120.9848442,
      "routes": [
        "63",
        "65",
        "65A",
        "66",
        "66A"
      ],
      "routeCount": 5,
      "routeSource": "gtfs",
      "routeUpdatedAt": "2026-06-14T16:43:41.693Z",
      "routeConfidence": "high"
    },
    {
      "id": 3666925034,
      "name": "陳厝",
      "type": "bus",
      "city": "新竹縣",
      "district": "竹北市",
      "lat": 24.8378355,
      "lng": 120.9844061,
      "routes": [
        "65",
        "65A",
        "66",
        "66A"
      ],
      "routeCount": 4,
      "routeSource": "gtfs",
      "routeUpdatedAt": "2026-06-14T16:43:41.693Z",
      "routeConfidence": "high"
    },
    {
      "id": 3666925036,
      "name": "澎湖窟",
      "type": "bus",
      "city": "新竹縣",
      "district": "竹北市",
      "lat": 24.8351791,
      "lng": 120.9837638
    },
    {
      "id": 3667119866,
      "name": "砂石廠",
      "type": "bus",
      "city": "新竹縣",
      "district": "竹北市",
      "lat": 24.7925684,
      "lng": 121.0589587,
      "routes": [
        "5614",
        "5615",
        "5615A",
        "快捷8號"
      ],
      "routeCount": 4,
      "routeSource": "gtfs",
      "routeUpdatedAt": "2026-06-14T16:43:41.693Z",
      "routeConfidence": "high"
    },
    {
      "id": 3667119872,
      "name": "國產實業",
      "type": "bus",
      "city": "新竹縣",
      "district": "竹北市",
      "lat": 24.7922366,
      "lng": 121.0566021,
      "routes": [
        "61",
        "61支線A",
        "61B"
      ],
      "routeCount": 3,
      "routeSource": "gtfs",
      "routeUpdatedAt": "2026-06-14T15:08:26.707Z",
      "routeConfidence": "high"
    },
    {
      "id": 3667208089,
      "name": "美德",
      "type": "bus",
      "city": "新竹縣",
      "district": "竹北市",
      "lat": 24.8455139,
      "lng": 121.0194174,
      "routes": [
        "5621"
      ],
      "routeCount": 1,
      "routeSource": "gtfs",
      "routeUpdatedAt": "2026-06-14T15:08:26.707Z",
      "routeConfidence": "high"
    },
    {
      "id": 3667208091,
      "name": "環北路口",
      "type": "bus",
      "city": "新竹縣",
      "district": "竹北市",
      "lat": 24.8455405,
      "lng": 121.0194467
    },
    {
      "id": 3667208093,
      "name": "番仔坡",
      "type": "bus",
      "city": "新竹縣",
      "district": "竹北市",
      "lat": 24.8440713,
      "lng": 121.016955,
      "routes": [
        "5621"
      ],
      "routeCount": 1,
      "routeSource": "gtfs",
      "routeUpdatedAt": "2026-06-14T15:08:26.707Z",
      "routeConfidence": "high"
    },
    {
      "id": 3667208095,
      "name": "番子坡",
      "type": "bus",
      "city": "新竹縣",
      "district": "竹北市",
      "lat": 24.8437853,
      "lng": 121.0158851
    },
    {
      "id": 3667208097,
      "name": "客家園區",
      "type": "bus",
      "city": "新竹縣",
      "district": "竹北市",
      "lat": 24.8116876,
      "lng": 121.0277966,
      "routes": [
        "60",
        "60A",
        "61",
        "61支線A",
        "61B"
      ],
      "routeCount": 5,
      "routeSource": "gtfs",
      "routeUpdatedAt": "2026-06-14T16:43:41.693Z",
      "routeConfidence": "high"
    },
    {
      "id": 3667208099,
      "name": "黃昏市場",
      "type": "bus",
      "city": "新竹縣",
      "district": "竹北市",
      "lat": 24.8416604,
      "lng": 120.9866212,
      "routes": [
        "63"
      ],
      "routeCount": 1,
      "routeSource": "gtfs",
      "routeUpdatedAt": "2026-06-14T16:43:41.693Z",
      "routeConfidence": "high"
    },
    {
      "id": 3667208101,
      "name": "水圳公園",
      "type": "bus",
      "city": "新竹縣",
      "district": "竹北市",
      "lat": 24.8092885,
      "lng": 121.036189,
      "routes": [
        "61",
        "61支線A",
        "61B"
      ],
      "routeCount": 3,
      "routeSource": "gtfs",
      "routeUpdatedAt": "2026-06-14T15:08:26.707Z",
      "routeConfidence": "high"
    },
    {
      "id": 3667213886,
      "name": "公三公園",
      "type": "bus",
      "city": "新竹縣",
      "district": "竹北市",
      "lat": 24.8032642,
      "lng": 121.0366934,
      "routes": [
        "60",
        "60A",
        "快捷8號支"
      ],
      "routeCount": 3,
      "routeSource": "gtfs",
      "routeUpdatedAt": "2026-06-14T16:43:41.693Z",
      "routeConfidence": "high"
    },
    {
      "id": 3667213887,
      "name": "高鐵八路",
      "type": "bus",
      "city": "新竹縣",
      "district": "竹北市",
      "lat": 24.8033284,
      "lng": 121.0408802,
      "routes": [
        "60",
        "60A",
        "61",
        "61支線A",
        "61B"
      ],
      "routeCount": 5,
      "routeSource": "gtfs",
      "routeUpdatedAt": "2026-06-14T16:43:41.693Z",
      "routeConfidence": "high"
    },
    {
      "id": 3667213889,
      "name": "清境名園",
      "type": "bus",
      "city": "新竹縣",
      "district": "竹北市",
      "lat": 24.84235,
      "lng": 120.9658358,
      "routes": [
        "63"
      ],
      "routeCount": 1,
      "routeSource": "gtfs",
      "routeUpdatedAt": "2026-06-14T16:43:41.693Z",
      "routeConfidence": "high"
    },
    {
      "id": 3667213901,
      "name": "豐田國小",
      "type": "bus",
      "city": "新竹縣",
      "district": "竹北市",
      "lat": 24.8424334,
      "lng": 120.9647733,
      "routes": [
        "63"
      ],
      "routeCount": 1,
      "routeSource": "gtfs",
      "routeUpdatedAt": "2026-06-14T16:43:41.693Z",
      "routeConfidence": "high"
    },
    {
      "id": 3667213903,
      "name": "豐田",
      "type": "bus",
      "city": "新竹縣",
      "district": "竹北市",
      "lat": 24.8425017,
      "lng": 120.9640698,
      "routes": [
        "63"
      ],
      "routeCount": 1,
      "routeSource": "gtfs",
      "routeUpdatedAt": "2026-06-14T16:43:41.693Z",
      "routeConfidence": "high"
    },
    {
      "id": 3667213905,
      "name": "頂庄口",
      "type": "bus",
      "city": "新竹縣",
      "district": "竹北市",
      "lat": 24.8425535,
      "lng": 120.9617487,
      "routes": [
        "63"
      ],
      "routeCount": 1,
      "routeSource": "gtfs",
      "routeUpdatedAt": "2026-06-14T16:43:41.693Z",
      "routeConfidence": "high"
    },
    {
      "id": 3667213907,
      "name": "豐田口",
      "type": "bus",
      "city": "新竹縣",
      "district": "竹北市",
      "lat": 24.842054,
      "lng": 120.9671592,
      "routes": [
        "63"
      ],
      "routeCount": 1,
      "routeSource": "gtfs",
      "routeUpdatedAt": "2026-06-14T16:43:41.693Z",
      "routeConfidence": "high"
    },
    {
      "id": 3667213909,
      "name": "盛隆",
      "type": "bus",
      "city": "新竹縣",
      "district": "竹北市",
      "lat": 24.8423948,
      "lng": 120.9893631,
      "routes": [
        "63",
        "68路",
        "68路A",
        "68路B"
      ],
      "routeCount": 4,
      "routeSource": "gtfs",
      "routeUpdatedAt": "2026-06-14T16:43:41.693Z",
      "routeConfidence": "high"
    },
    {
      "id": 3667213911,
      "name": "溝貝街口",
      "type": "bus",
      "city": "新竹縣",
      "district": "竹北市",
      "lat": 24.8458051,
      "lng": 120.9906508,
      "routes": [
        "65",
        "65A",
        "66",
        "66A"
      ],
      "routeCount": 4,
      "routeSource": "gtfs",
      "routeUpdatedAt": "2026-06-14T16:43:41.693Z",
      "routeConfidence": "high"
    },
    {
      "id": 3667213913,
      "name": "聯興社區",
      "type": "bus",
      "city": "新竹縣",
      "district": "竹北市",
      "lat": 24.8464115,
      "lng": 120.9880301,
      "routes": [
        "65",
        "65A",
        "66",
        "66A"
      ],
      "routeCount": 4,
      "routeSource": "gtfs",
      "routeUpdatedAt": "2026-06-14T16:43:41.694Z",
      "routeConfidence": "high"
    },
    {
      "id": 3667213915,
      "name": "許厝",
      "type": "bus",
      "city": "新竹縣",
      "district": "竹北市",
      "lat": 24.8466593,
      "lng": 120.9571478,
      "routes": [
        "63"
      ],
      "routeCount": 1,
      "routeSource": "gtfs",
      "routeUpdatedAt": "2026-06-14T16:43:41.694Z",
      "routeConfidence": "high"
    },
    {
      "id": 3667213917,
      "name": "新瓦屋",
      "type": "bus",
      "city": "新竹縣",
      "district": "竹北市",
      "lat": 24.8115513,
      "lng": 121.0279384,
      "routes": [
        "快捷7號"
      ],
      "routeCount": 1,
      "routeSource": "gtfs",
      "routeUpdatedAt": "2026-06-14T15:08:26.707Z",
      "routeConfidence": "high"
    },
    {
      "id": 3667213918,
      "name": "文興嘉豐南路口",
      "type": "bus",
      "city": "新竹縣",
      "district": "竹北市",
      "lat": 24.8087747,
      "lng": 121.0322916,
      "routes": [
        "182",
        "先導公車",
        "先導公車A",
        "快捷7號",
        "快捷8號",
        "快捷8號支",
        "快捷9號"
      ],
      "routeCount": 7,
      "routeSource": "gtfs",
      "routeUpdatedAt": "2026-06-14T16:43:41.694Z",
      "routeConfidence": "high"
    },
    {
      "id": 3667213919,
      "name": "嘉政一街",
      "type": "bus",
      "city": "新竹縣",
      "district": "竹北市",
      "lat": 24.8089063,
      "lng": 121.0265622,
      "routes": [
        "60",
        "60A",
        "61",
        "61支線A",
        "61B"
      ],
      "routeCount": 5,
      "routeSource": "gtfs",
      "routeUpdatedAt": "2026-06-14T16:43:41.694Z",
      "routeConfidence": "high"
    },
    {
      "id": 3667213921,
      "name": "六家五路",
      "type": "bus",
      "city": "新竹縣",
      "district": "竹北市",
      "lat": 24.8075466,
      "lng": 121.029277,
      "routes": [
        "60",
        "60A",
        "61",
        "61支線A",
        "61B"
      ],
      "routeCount": 5,
      "routeSource": "gtfs",
      "routeUpdatedAt": "2026-06-14T16:43:41.694Z",
      "routeConfidence": "high"
    },
    {
      "id": 3667213989,
      "name": "海仔尾",
      "type": "bus",
      "city": "新竹縣",
      "district": "竹北市",
      "lat": 24.8503223,
      "lng": 120.9416938,
      "routes": [
        "63"
      ],
      "routeCount": 1,
      "routeSource": "gtfs",
      "routeUpdatedAt": "2026-06-14T15:08:26.707Z",
      "routeConfidence": "high"
    },
    {
      "id": 3667213997,
      "name": "大灣街口",
      "type": "bus",
      "city": "新竹縣",
      "district": "竹北市",
      "lat": 24.8423664,
      "lng": 120.9752008,
      "routes": [
        "65",
        "65A",
        "66",
        "66A"
      ],
      "routeCount": 4,
      "routeSource": "gtfs",
      "routeUpdatedAt": "2026-06-14T16:43:41.694Z",
      "routeConfidence": "high"
    },
    {
      "id": 3667213999,
      "name": "嘉豐郵局",
      "type": "bus",
      "city": "新竹縣",
      "district": "竹北市",
      "lat": 24.8151027,
      "lng": 121.0279652,
      "routes": [
        "快捷7號"
      ],
      "routeCount": 1,
      "routeSource": "gtfs",
      "routeUpdatedAt": "2026-06-14T16:43:41.694Z",
      "routeConfidence": "high"
    },
    {
      "id": 3667214000,
      "name": "十興路",
      "type": "bus",
      "city": "新竹縣",
      "district": "竹北市",
      "lat": 24.8331845,
      "lng": 121.0233264,
      "routes": [
        "快捷7號"
      ],
      "routeCount": 1,
      "routeSource": "gtfs",
      "routeUpdatedAt": "2026-06-14T15:08:26.707Z",
      "routeConfidence": "high"
    },
    {
      "id": 3667229692,
      "name": "麻園國小",
      "type": "bus",
      "city": "新竹縣",
      "district": "竹北市",
      "lat": 24.8463572,
      "lng": 120.9764563,
      "routes": [
        "65",
        "65A",
        "66",
        "66A",
        "68路",
        "68路A"
      ],
      "routeCount": 6,
      "routeSource": "gtfs",
      "routeUpdatedAt": "2026-06-14T16:43:41.694Z",
      "routeConfidence": "high"
    },
    {
      "id": 3667229694,
      "name": "麻園涼亭",
      "type": "bus",
      "city": "新竹縣",
      "district": "竹北市",
      "lat": 24.8477285,
      "lng": 120.9768064,
      "routes": [
        "65",
        "65A",
        "66",
        "66A"
      ],
      "routeCount": 4,
      "routeSource": "gtfs",
      "routeUpdatedAt": "2026-06-14T16:43:41.694Z",
      "routeConfidence": "high"
    },
    {
      "id": 3667229696,
      "name": "長園",
      "type": "bus",
      "city": "新竹縣",
      "district": "竹北市",
      "lat": 24.849215,
      "lng": 120.9791642,
      "routes": [
        "65",
        "65A",
        "66",
        "66A"
      ],
      "routeCount": 4,
      "routeSource": "gtfs",
      "routeUpdatedAt": "2026-06-14T16:43:41.694Z",
      "routeConfidence": "high"
    },
    {
      "id": 3667229698,
      "name": "土地廟",
      "type": "bus",
      "city": "新竹縣",
      "district": "竹北市",
      "lat": 24.8479516,
      "lng": 120.9823491,
      "routes": [
        "65",
        "65A",
        "66",
        "66A"
      ],
      "routeCount": 4,
      "routeSource": "gtfs",
      "routeUpdatedAt": "2026-06-14T16:43:41.694Z",
      "routeConfidence": "high"
    },
    {
      "id": 3667229700,
      "name": "蓮園社區",
      "type": "bus",
      "city": "新竹縣",
      "district": "竹北市",
      "lat": 24.8470315,
      "lng": 120.9851699,
      "routes": [
        "65",
        "65A",
        "66",
        "66A"
      ],
      "routeCount": 4,
      "routeSource": "gtfs",
      "routeUpdatedAt": "2026-06-14T16:43:41.694Z",
      "routeConfidence": "high"
    },
    {
      "id": 3667229702,
      "name": "溪洲里",
      "type": "bus",
      "city": "新竹縣",
      "district": "竹北市",
      "lat": 24.8330781,
      "lng": 120.9830198,
      "routes": [
        "65",
        "65A",
        "66",
        "66A"
      ],
      "routeCount": 4,
      "routeSource": "gtfs",
      "routeUpdatedAt": "2026-06-14T16:43:41.694Z",
      "routeConfidence": "high"
    },
    {
      "id": 3667229704,
      "name": "福德宮",
      "type": "bus",
      "city": "新竹縣",
      "district": "竹北市",
      "lat": 24.8316093,
      "lng": 120.9833259,
      "routes": [
        "65",
        "65A",
        "66",
        "66A"
      ],
      "routeCount": 4,
      "routeSource": "gtfs",
      "routeUpdatedAt": "2026-06-14T16:43:41.694Z",
      "routeConfidence": "high"
    },
    {
      "id": 3667229712,
      "name": "三玄宮",
      "type": "bus",
      "city": "新竹縣",
      "district": "竹北市",
      "lat": 24.8320214,
      "lng": 120.9887817,
      "routes": [
        "65",
        "65A",
        "66",
        "66A"
      ],
      "routeCount": 4,
      "routeSource": "gtfs",
      "routeUpdatedAt": "2026-06-14T16:43:41.694Z",
      "routeConfidence": "high"
    },
    {
      "id": 3667229714,
      "name": "新溪街",
      "type": "bus",
      "city": "新竹縣",
      "district": "竹北市",
      "lat": 24.833299,
      "lng": 120.9910516,
      "routes": [
        "65",
        "65A",
        "66",
        "66A"
      ],
      "routeCount": 4,
      "routeSource": "gtfs",
      "routeUpdatedAt": "2026-06-14T16:43:41.694Z",
      "routeConfidence": "high"
    },
    {
      "id": 3667229716,
      "name": "林厝",
      "type": "bus",
      "city": "新竹縣",
      "district": "竹北市",
      "lat": 24.8345728,
      "lng": 120.993712,
      "routes": [
        "65",
        "65A",
        "66",
        "66A"
      ],
      "routeCount": 4,
      "routeSource": "gtfs",
      "routeUpdatedAt": "2026-06-14T16:43:41.694Z",
      "routeConfidence": "high"
    },
    {
      "id": 3667229718,
      "name": "東興國小",
      "type": "bus",
      "city": "新竹縣",
      "district": "竹北市",
      "lat": 24.8054916,
      "lng": 121.0332759,
      "routes": [
        "60",
        "60A",
        "61",
        "61支線A",
        "61B"
      ],
      "routeCount": 5,
      "routeSource": "gtfs",
      "routeUpdatedAt": "2026-06-14T16:43:41.694Z",
      "routeConfidence": "high"
    },
    {
      "id": 3667229720,
      "name": "隘口三街",
      "type": "bus",
      "city": "新竹縣",
      "district": "竹北市",
      "lat": 24.8011242,
      "lng": 121.0430255,
      "routes": [
        "60",
        "60A",
        "61",
        "61支線A",
        "61B"
      ],
      "routeCount": 5,
      "routeSource": "gtfs",
      "routeUpdatedAt": "2026-06-14T16:43:41.694Z",
      "routeConfidence": "high"
    },
    {
      "id": 3667229722,
      "name": "興隆",
      "type": "bus",
      "city": "新竹縣",
      "district": "竹北市",
      "lat": 24.8003107,
      "lng": 121.0427293,
      "routes": [
        "61",
        "61支線A",
        "61B"
      ],
      "routeCount": 3,
      "routeSource": "gtfs",
      "routeUpdatedAt": "2026-06-14T15:08:26.708Z",
      "routeConfidence": "high"
    },
    {
      "id": 3667229723,
      "name": "莊敬北路",
      "type": "bus",
      "city": "新竹縣",
      "district": "竹北市",
      "lat": 24.8292711,
      "lng": 121.0262539,
      "routes": [
        "60",
        "60A",
        "61",
        "61支線A",
        "61B",
        "快捷7號"
      ],
      "routeCount": 6,
      "routeSource": "gtfs",
      "routeUpdatedAt": "2026-06-14T16:43:41.695Z",
      "routeConfidence": "high"
    },
    {
      "id": 3933501989,
      "name": "新竹",
      "type": "hsr",
      "city": "新竹縣",
      "district": "竹北市",
      "lat": 24.8082959,
      "lng": 121.0402055,
      "systems": [
        "高鐵"
      ],
      "lineCount": 1,
      "lineSource": "gtfs",
      "lineUpdatedAt": "2026-06-14T15:08:26.708Z",
      "lineConfidence": "high"
    },
    {
      "id": 3991799199,
      "name": "東方荷蘭",
      "type": "bus",
      "city": "新竹縣",
      "district": "竹北市",
      "lat": 24.7855708,
      "lng": 121.0658767,
      "routes": [
        "60A",
        "61B"
      ],
      "routeCount": 2,
      "routeSource": "gtfs",
      "routeUpdatedAt": "2026-06-14T16:43:41.695Z",
      "routeConfidence": "high"
    },
    {
      "id": 3991799200,
      "name": "中正橋",
      "type": "bus",
      "city": "新竹縣",
      "district": "竹北市",
      "lat": 24.7872937,
      "lng": 121.0651218
    },
    {
      "id": 3991813408,
      "name": "南茂科技",
      "type": "bus",
      "city": "新竹縣",
      "district": "竹北市",
      "lat": 24.8477324,
      "lng": 121.011295,
      "routes": [
        "62"
      ],
      "routeCount": 1,
      "routeSource": "gtfs",
      "routeUpdatedAt": "2026-06-14T16:43:41.695Z",
      "routeConfidence": "high"
    },
    {
      "id": 4364666181,
      "name": "竹北火車站",
      "type": "bus",
      "city": "新竹縣",
      "district": "竹北市",
      "lat": 24.8397169,
      "lng": 121.0094283
    },
    {
      "id": 4415981892,
      "name": "安興國小",
      "type": "bus",
      "city": "新竹縣",
      "district": "竹北市",
      "lat": 24.8263545,
      "lng": 121.033444,
      "routes": [
        "0557",
        "快捷5號",
        "快捷5號A"
      ],
      "routeCount": 3,
      "routeSource": "gtfs",
      "routeUpdatedAt": "2026-06-14T16:43:41.695Z",
      "routeConfidence": "high"
    },
    {
      "id": 5868731594,
      "name": "哈洛德 (文興路)",
      "type": "bus",
      "city": "新竹縣",
      "district": "竹北市",
      "lat": 24.8077715,
      "lng": 121.0346793,
      "routes": [
        "182",
        "0557",
        "先導公車",
        "先導公車A",
        "快捷9號"
      ],
      "routeCount": 5,
      "routeSource": "gtfs",
      "routeUpdatedAt": "2026-06-14T16:43:41.695Z",
      "routeConfidence": "high"
    },
    {
      "id": 5871257491,
      "name": "文興嘉興路口",
      "type": "bus",
      "city": "新竹縣",
      "district": "竹北市",
      "lat": 24.8128094,
      "lng": 121.024362,
      "routes": [
        "182",
        "先導公車",
        "先導公車A",
        "快捷8號",
        "快捷8號支",
        "快捷9號"
      ],
      "routeCount": 6,
      "routeSource": "gtfs",
      "routeUpdatedAt": "2026-06-14T16:43:41.695Z",
      "routeConfidence": "high"
    },
    {
      "id": 5871257493,
      "name": "新瓦屋 (文興路)",
      "type": "bus",
      "city": "新竹縣",
      "district": "竹北市",
      "lat": 24.8111818,
      "lng": 121.026915,
      "routes": [
        "182",
        "先導公車",
        "先導公車A",
        "快捷7號"
      ],
      "routeCount": 4,
      "routeSource": "gtfs",
      "routeUpdatedAt": "2026-06-14T16:43:41.695Z",
      "routeConfidence": "high"
    },
    {
      "id": 6505488416,
      "name": "客家園區",
      "type": "bus",
      "city": "新竹縣",
      "district": "竹北市",
      "lat": 24.811225,
      "lng": 121.0267851
    },
    {
      "id": 6505488417,
      "name": "生技產業大樓",
      "type": "bus",
      "city": "新竹縣",
      "district": "竹北市",
      "lat": 24.8055383,
      "lng": 121.0487122,
      "routes": [
        "先導公車"
      ],
      "routeCount": 1,
      "routeSource": "gtfs",
      "routeUpdatedAt": "2026-06-14T15:08:26.708Z",
      "routeConfidence": "high"
    },
    {
      "id": 6505488418,
      "name": "研發中心大樓",
      "type": "bus",
      "city": "新竹縣",
      "district": "竹北市",
      "lat": 24.806734,
      "lng": 121.0480784,
      "routes": [
        "先導公車"
      ],
      "routeCount": 1,
      "routeSource": "gtfs",
      "routeUpdatedAt": "2026-06-14T15:08:26.708Z",
      "routeConfidence": "high"
    },
    {
      "id": 6505488464,
      "name": "嘉豐南路二段站",
      "type": "bus",
      "city": "新竹縣",
      "district": "竹北市",
      "lat": 24.8062502,
      "lng": 121.0312067
    },
    {
      "id": 6505488465,
      "name": "哈洛德站",
      "type": "bus",
      "city": "新竹縣",
      "district": "竹北市",
      "lat": 24.807369,
      "lng": 121.0357706,
      "routes": [
        "0557",
        "快捷9號"
      ],
      "routeCount": 2,
      "routeSource": "gtfs",
      "routeUpdatedAt": "2026-06-14T15:08:26.708Z",
      "routeConfidence": "high"
    },
    {
      "id": 6505772326,
      "name": "東元綜合醫院",
      "type": "bus",
      "city": "新竹縣",
      "district": "竹北市",
      "lat": 24.8237924,
      "lng": 121.0141205
    },
    {
      "id": 7736505873,
      "name": "縣體育館",
      "type": "bus",
      "city": "新竹縣",
      "district": "竹北市",
      "lat": 24.8193983,
      "lng": 121.0195641,
      "routes": [
        "60",
        "60A",
        "61",
        "61支線A",
        "61B"
      ],
      "routeCount": 5,
      "routeSource": "gtfs",
      "routeUpdatedAt": "2026-06-14T16:43:41.695Z",
      "routeConfidence": "high"
    },
    {
      "id": 7737119743,
      "name": "田中央",
      "type": "bus",
      "city": "新竹縣",
      "district": "竹北市",
      "lat": 24.8559974,
      "lng": 120.9976737,
      "routes": [
        "62"
      ],
      "routeCount": 1,
      "routeSource": "gtfs",
      "routeUpdatedAt": "2026-06-14T16:43:41.695Z",
      "routeConfidence": "high"
    },
    {
      "id": 7737119745,
      "name": "土地公",
      "type": "bus",
      "city": "新竹縣",
      "district": "竹北市",
      "lat": 24.8581807,
      "lng": 120.9855121,
      "routes": [
        "62"
      ],
      "routeCount": 1,
      "routeSource": "gtfs",
      "routeUpdatedAt": "2026-06-14T16:43:41.695Z",
      "routeConfidence": "high"
    },
    {
      "id": 7737119748,
      "name": "青山鳳凰宮",
      "type": "bus",
      "city": "新竹縣",
      "district": "竹北市",
      "lat": 24.8625544,
      "lng": 120.9695981,
      "routes": [
        "62"
      ],
      "routeCount": 1,
      "routeSource": "gtfs",
      "routeUpdatedAt": "2026-06-14T16:43:41.695Z",
      "routeConfidence": "high"
    },
    {
      "id": 7737119750,
      "name": "稻花香",
      "type": "bus",
      "city": "新竹縣",
      "district": "竹北市",
      "lat": 24.8611332,
      "lng": 120.9622173,
      "routes": [
        "62",
        "68路",
        "68路A"
      ],
      "routeCount": 3,
      "routeSource": "gtfs",
      "routeUpdatedAt": "2026-06-14T16:43:41.695Z",
      "routeConfidence": "high"
    },
    {
      "id": 7737119754,
      "name": "尚海灘",
      "type": "bus",
      "city": "新竹縣",
      "district": "竹北市",
      "lat": 24.8698657,
      "lng": 120.9513875,
      "routes": [
        "62"
      ],
      "routeCount": 1,
      "routeSource": "gtfs",
      "routeUpdatedAt": "2026-06-14T16:43:41.695Z",
      "routeConfidence": "high"
    },
    {
      "id": 7737119756,
      "name": "蓮花寺入口",
      "type": "bus",
      "city": "新竹縣",
      "district": "竹北市",
      "lat": 24.8769746,
      "lng": 120.9552596,
      "routes": [
        "62",
        "68路",
        "68路A"
      ],
      "routeCount": 3,
      "routeSource": "gtfs",
      "routeUpdatedAt": "2026-06-14T16:43:41.695Z",
      "routeConfidence": "high"
    },
    {
      "id": 7737119776,
      "name": "溪洲",
      "type": "bus",
      "city": "新竹縣",
      "district": "竹北市",
      "lat": 24.840972,
      "lng": 120.9750693
    },
    {
      "id": 7737119778,
      "name": "中溪洲",
      "type": "bus",
      "city": "新竹縣",
      "district": "竹北市",
      "lat": 24.8413604,
      "lng": 120.9732902,
      "routes": [
        "63"
      ],
      "routeCount": 1,
      "routeSource": "gtfs",
      "routeUpdatedAt": "2026-06-14T15:08:26.708Z",
      "routeConfidence": "high"
    },
    {
      "id": 7738807723,
      "name": "中醫大",
      "type": "bus",
      "city": "新竹縣",
      "district": "竹北市",
      "lat": 24.8247396,
      "lng": 121.001942,
      "routes": [
        "65",
        "65A",
        "66",
        "66A",
        "快捷9號"
      ],
      "routeCount": 5,
      "routeSource": "gtfs",
      "routeUpdatedAt": "2026-06-14T16:43:41.695Z",
      "routeConfidence": "high"
    },
    {
      "id": 7739101054,
      "name": "六家派出所",
      "type": "bus",
      "city": "新竹縣",
      "district": "竹北市",
      "lat": 24.8223812,
      "lng": 121.0301372,
      "routes": [
        "0557",
        "快捷5號",
        "快捷5號A"
      ],
      "routeCount": 3,
      "routeSource": "gtfs",
      "routeUpdatedAt": "2026-06-14T16:43:41.696Z",
      "routeConfidence": "high"
    },
    {
      "id": 7739101056,
      "name": "喜來登飯店",
      "type": "bus",
      "city": "新竹縣",
      "district": "竹北市",
      "lat": 24.8194573,
      "lng": 121.0284894,
      "routes": [
        "0557",
        "5700",
        "5900",
        "快捷5號",
        "快捷5號A",
        "快捷8號",
        "快捷8號支"
      ],
      "routeCount": 7,
      "routeSource": "gtfs",
      "routeUpdatedAt": "2026-06-14T16:43:41.696Z",
      "routeConfidence": "high"
    },
    {
      "id": 7740077182,
      "name": "新仁醫院",
      "type": "bus",
      "city": "新竹縣",
      "district": "竹北市",
      "lat": 24.8348789,
      "lng": 121.0077568,
      "routes": [
        "60",
        "60A",
        "61",
        "61支線A",
        "61B",
        "5900"
      ],
      "routeCount": 6,
      "routeSource": "gtfs",
      "routeUpdatedAt": "2026-06-14T16:43:41.696Z",
      "routeConfidence": "high"
    },
    {
      "id": 7740136288,
      "name": "十興國小",
      "type": "bus",
      "city": "新竹縣",
      "district": "竹北市",
      "lat": 24.8246479,
      "lng": 121.0238379
    },
    {
      "id": 7740136290,
      "name": "勝利二路",
      "type": "bus",
      "city": "新竹縣",
      "district": "竹北市",
      "lat": 24.8224155,
      "lng": 121.0269401,
      "routes": [
        "快捷7號"
      ],
      "routeCount": 1,
      "routeSource": "gtfs",
      "routeUpdatedAt": "2026-06-14T16:43:41.696Z",
      "routeConfidence": "high"
    },
    {
      "id": 8347607961,
      "name": "臺大生醫醫院",
      "type": "bus",
      "city": "新竹縣",
      "district": "竹北市",
      "lat": 24.8054603,
      "lng": 121.0441863
    },
    {
      "id": 8347607962,
      "name": "台灣生醫材料",
      "type": "bus",
      "city": "新竹縣",
      "district": "竹北市",
      "lat": 24.808333,
      "lng": 121.0464198,
      "routes": [
        "先導公車"
      ],
      "routeCount": 1,
      "routeSource": "gtfs",
      "routeUpdatedAt": "2026-06-14T15:08:26.709Z",
      "routeConfidence": "high"
    },
    {
      "id": 8474778229,
      "name": "竹北後火車站",
      "type": "bus",
      "city": "新竹縣",
      "district": "竹北市",
      "lat": 24.8396775,
      "lng": 121.0094047
    },
    {
      "id": 8474778231,
      "name": "達盛",
      "type": "bus",
      "city": "新竹縣",
      "district": "竹北市",
      "lat": 24.8442893,
      "lng": 120.9860223,
      "routes": [
        "68路",
        "68路A"
      ],
      "routeCount": 2,
      "routeSource": "gtfs",
      "routeUpdatedAt": "2026-06-14T16:43:41.696Z",
      "routeConfidence": "high"
    },
    {
      "id": 8474778233,
      "name": "泉云",
      "type": "bus",
      "city": "新竹縣",
      "district": "竹北市",
      "lat": 24.8483243,
      "lng": 120.9789574,
      "routes": [
        "68路",
        "68路A"
      ],
      "routeCount": 2,
      "routeSource": "gtfs",
      "routeUpdatedAt": "2026-06-14T16:43:41.696Z",
      "routeConfidence": "high"
    },
    {
      "id": 8474778235,
      "name": "囍艷社區",
      "type": "bus",
      "city": "新竹縣",
      "district": "竹北市",
      "lat": 24.8457802,
      "lng": 120.9731427,
      "routes": [
        "68路",
        "68路A"
      ],
      "routeCount": 2,
      "routeSource": "gtfs",
      "routeUpdatedAt": "2026-06-14T16:43:41.696Z",
      "routeConfidence": "high"
    },
    {
      "id": 8474778237,
      "name": "綠光森林",
      "type": "bus",
      "city": "新竹縣",
      "district": "竹北市",
      "lat": 24.847159,
      "lng": 120.9690636,
      "routes": [
        "68路",
        "68路A"
      ],
      "routeCount": 2,
      "routeSource": "gtfs",
      "routeUpdatedAt": "2026-06-14T16:43:41.696Z",
      "routeConfidence": "high"
    },
    {
      "id": 8474778239,
      "name": "帝王別墅",
      "type": "bus",
      "city": "新竹縣",
      "district": "竹北市",
      "lat": 24.8484209,
      "lng": 120.9648951,
      "routes": [
        "68路",
        "68路A"
      ],
      "routeCount": 2,
      "routeSource": "gtfs",
      "routeUpdatedAt": "2026-06-14T16:43:41.696Z",
      "routeConfidence": "high"
    },
    {
      "id": 8474778241,
      "name": "三王宮",
      "type": "bus",
      "city": "新竹縣",
      "district": "竹北市",
      "lat": 24.850215,
      "lng": 120.9619682,
      "routes": [
        "68路",
        "68路A"
      ],
      "routeCount": 2,
      "routeSource": "gtfs",
      "routeUpdatedAt": "2026-06-14T15:08:26.709Z",
      "routeConfidence": "high"
    },
    {
      "id": 8474778243,
      "name": "白地橋頭",
      "type": "bus",
      "city": "新竹縣",
      "district": "竹北市",
      "lat": 24.8508124,
      "lng": 120.9586903,
      "routes": [
        "68路",
        "68路A"
      ],
      "routeCount": 2,
      "routeSource": "gtfs",
      "routeUpdatedAt": "2026-06-14T15:08:26.709Z",
      "routeConfidence": "high"
    },
    {
      "id": 8474778245,
      "name": "正隆",
      "type": "bus",
      "city": "新竹縣",
      "district": "竹北市",
      "lat": 24.8588502,
      "lng": 120.9628397
    },
    {
      "id": 8474778247,
      "name": "楊柳堂",
      "type": "bus",
      "city": "新竹縣",
      "district": "竹北市",
      "lat": 24.864969,
      "lng": 120.9685656,
      "routes": [
        "68路",
        "68路A"
      ],
      "routeCount": 2,
      "routeSource": "gtfs",
      "routeUpdatedAt": "2026-06-14T15:08:26.709Z",
      "routeConfidence": "high"
    },
    {
      "id": 8474778248,
      "name": "虎尾寮",
      "type": "bus",
      "city": "新竹縣",
      "district": "竹北市",
      "lat": 24.8681971,
      "lng": 120.9700868,
      "routes": [
        "68路",
        "68路A"
      ],
      "routeCount": 2,
      "routeSource": "gtfs",
      "routeUpdatedAt": "2026-06-14T15:08:26.709Z",
      "routeConfidence": "high"
    },
    {
      "id": 8474778249,
      "name": "吳厝",
      "type": "bus",
      "city": "新竹縣",
      "district": "竹北市",
      "lat": 24.8693147,
      "lng": 120.969289,
      "routes": [
        "68路",
        "68路A"
      ],
      "routeCount": 2,
      "routeSource": "gtfs",
      "routeUpdatedAt": "2026-06-14T15:08:26.709Z",
      "routeConfidence": "high"
    },
    {
      "id": 8474778250,
      "name": "靜善宮",
      "type": "bus",
      "city": "新竹縣",
      "district": "竹北市",
      "lat": 24.8707063,
      "lng": 120.9662746,
      "routes": [
        "68路",
        "68路A"
      ],
      "routeCount": 2,
      "routeSource": "gtfs",
      "routeUpdatedAt": "2026-06-14T15:08:26.709Z",
      "routeConfidence": "high"
    },
    {
      "id": 8474778251,
      "name": "大佛王寺",
      "type": "bus",
      "city": "新竹縣",
      "district": "竹北市",
      "lat": 24.870957,
      "lng": 120.964861,
      "routes": [
        "68路",
        "68路A"
      ],
      "routeCount": 2,
      "routeSource": "gtfs",
      "routeUpdatedAt": "2026-06-14T15:08:26.709Z",
      "routeConfidence": "high"
    },
    {
      "id": 8474778252,
      "name": "下山邊",
      "type": "bus",
      "city": "新竹縣",
      "district": "竹北市",
      "lat": 24.8723617,
      "lng": 120.9608386,
      "routes": [
        "68路",
        "68路A"
      ],
      "routeCount": 2,
      "routeSource": "gtfs",
      "routeUpdatedAt": "2026-06-14T15:08:26.709Z",
      "routeConfidence": "high"
    },
    {
      "id": 8474778253,
      "name": "真龍殿",
      "type": "bus",
      "city": "新竹縣",
      "district": "竹北市",
      "lat": 24.865445,
      "lng": 120.9596449,
      "routes": [
        "68路",
        "68路A"
      ],
      "routeCount": 2,
      "routeSource": "gtfs",
      "routeUpdatedAt": "2026-06-14T15:08:26.709Z",
      "routeConfidence": "high"
    },
    {
      "id": 8474778254,
      "name": "羊寮港",
      "type": "bus",
      "city": "新竹縣",
      "district": "竹北市",
      "lat": 24.8761622,
      "lng": 120.9548092,
      "routes": [
        "68路",
        "68路A"
      ],
      "routeCount": 2,
      "routeSource": "gtfs",
      "routeUpdatedAt": "2026-06-14T16:43:41.696Z",
      "routeConfidence": "high"
    },
    {
      "id": 9273804227,
      "name": "碧友富貴",
      "type": "bus",
      "city": "新竹縣",
      "district": "竹北市",
      "lat": 24.848041,
      "lng": 121.0050205,
      "routes": [
        "62",
        "68路A"
      ],
      "routeCount": 2,
      "routeSource": "gtfs",
      "routeUpdatedAt": "2026-06-14T15:08:26.709Z",
      "routeConfidence": "high"
    },
    {
      "id": 9990031760,
      "name": "大眉口",
      "type": "bus",
      "city": "新竹縣",
      "district": "竹北市",
      "lat": 24.8554135,
      "lng": 121.0021917,
      "routes": [
        "68路A"
      ],
      "routeCount": 1,
      "routeSource": "gtfs",
      "routeUpdatedAt": "2026-06-14T15:08:26.709Z",
      "routeConfidence": "high"
    },
    {
      "id": 10008407208,
      "name": "生醫園區服務處",
      "type": "bus",
      "city": "新竹縣",
      "district": "竹北市",
      "lat": 24.804491,
      "lng": 121.0447487
    },
    {
      "id": 10008440385,
      "name": "中泰",
      "type": "bus",
      "city": "新竹縣",
      "district": "竹北市",
      "lat": 24.8476123,
      "lng": 121.0097363,
      "routes": [
        "62"
      ],
      "routeCount": 1,
      "routeSource": "gtfs",
      "routeUpdatedAt": "2026-06-14T15:08:26.709Z",
      "routeConfidence": "high"
    },
    {
      "id": 10712202348,
      "name": "上圓頂",
      "type": "bus",
      "city": "新竹縣",
      "district": "竹北市",
      "lat": 24.8607378,
      "lng": 120.973138
    },
    {
      "id": 10885972909,
      "name": "莊敬三路",
      "type": "bus",
      "city": "新竹縣",
      "district": "竹北市",
      "lat": 24.8268453,
      "lng": 121.0270532,
      "routes": [
        "60",
        "60A",
        "61",
        "61支線A",
        "61B",
        "快捷7號"
      ],
      "routeCount": 6,
      "routeSource": "gtfs",
      "routeUpdatedAt": "2026-06-14T16:43:41.696Z",
      "routeConfidence": "high"
    },
    {
      "id": 10885972911,
      "name": "十興國小",
      "type": "bus",
      "city": "新竹縣",
      "district": "竹北市",
      "lat": 24.8234824,
      "lng": 121.025505,
      "routes": [
        "60",
        "60A",
        "61",
        "61支線A",
        "61B",
        "快捷7號"
      ],
      "routeCount": 6,
      "routeSource": "gtfs",
      "routeUpdatedAt": "2026-06-14T16:43:41.696Z",
      "routeConfidence": "high"
    },
    {
      "id": 10885972913,
      "name": "青山宫",
      "type": "bus",
      "city": "新竹縣",
      "district": "竹北市",
      "lat": 24.8371851,
      "lng": 120.9754443
    },
    {
      "id": 10885972914,
      "name": "竹彎",
      "type": "bus",
      "city": "新竹縣",
      "district": "竹北市",
      "lat": 24.8360159,
      "lng": 120.9734552,
      "routes": [
        "65A",
        "66A"
      ],
      "routeCount": 2,
      "routeSource": "gtfs",
      "routeUpdatedAt": "2026-06-14T15:08:26.709Z",
      "routeConfidence": "high"
    },
    {
      "id": 10885972915,
      "name": "竹西班",
      "type": "bus",
      "city": "新竹縣",
      "district": "竹北市",
      "lat": 24.8339331,
      "lng": 120.9725923,
      "routes": [
        "65A",
        "66A"
      ],
      "routeCount": 2,
      "routeSource": "gtfs",
      "routeUpdatedAt": "2026-06-14T15:08:26.709Z",
      "routeConfidence": "high"
    },