{"city":"基隆市","district":"中正區","category":"medical","updatedAt":"2026-06-12T02:55:18.707Z","rev":1,"count":15,"items":[{"id":2613259185,"name":"大樹藥局","lat":25.1354121,"lng":121.7856094,"address":"202013基隆市中正區新豐街385號","hasBabyChanging":false,"hasAccessible":false,"source":"OpenStreetMap","updatedAt":"2026-06-12T02:55:18.707Z","facilityType":"pharmacy","facilityLabel":"💊 藥局","phone":"+886 2 2469 0660","website":"https://www.greattree.com.tw","wheelchair":false,"needsAddr":false},{"id":4613620969,"name":"八斗子診所","lat":25.1395057,"lng":121.7958498,"address":null,"hasBabyChanging":false,"hasAccessible":false,"source":"OpenStreetMap","updatedAt":"2026-06-12T02:55:18.707Z","facilityType":"clinic","facilityLabel":"🩺 診所","phone":null,"website":null,"wheelchair":false,"needsAddr":true},{"id":4613621694,"name":"明山齒科","lat":25.139991,"lng":121.7967701,"address":null,"hasBabyChanging":false,"hasAccessible":false,"source":"OpenStreetMap","updatedAt":"2026-06-12T02:55:18.707Z","facilityType":"dentist","facilityLabel":"🦷 牙醫","phone":null,"website":null,"wheelchair":false,"needsAddr":true},{"id":5353890780,"name":"基隆市中正區衛生所","lat":25.1409112,"lng":121.7591228,"address":"20248基隆市中正區中正路236號二樓","hasBabyChanging":false,"hasAccessible":false,"source":"OpenStreetMap","updatedAt":"2026-06-12T02:55:18.707Z","facilityType":"health_center","facilityLabel":"🏥 衛生所","phone":null,"website":null,"wheelchair":false,"needsAddr":false},{"id":8400678631,"name":"陳怡穎皮膚科診所","lat":25.1320165,"lng":121.7459109,"address":null,"hasBabyChanging":false,"hasAccessible":false,"source":"OpenStreetMap","updatedAt":"2026-06-12T02:55:18.707Z","facilityType":"clinic","facilityLabel":"🩺 診所","phone":null,"website":null,"wheelchair":false,"needsAddr":true},{"id":8405679189,"name":"屈臣氏","lat":25.1512449,"lng":121.7715248,"address":null,"hasBabyChanging":false,"hasAccessible":false,"source":"OpenStreetMap","updatedAt":"2026-06-12T02:55:18.707Z","facilityType":"pharmacy","facilityLabel":"💊 藥妝","phone":null,"website":null,"wheelchair":false,"needsAddr":true},{"id":11530231410,"name":"吳婦產科","lat":25.1327857,"lng":121.7454625,"address":null,"hasBabyChanging":false,"hasAccessible":false,"source":"OpenStreetMap","updatedAt":"2026-06-12T02:55:18.707Z","facilityType":"clinic","facilityLabel":"🩺 診所","phone":null,"website":null,"wheelchair":false,"needsAddr":true},{"id":13622157546,"name":"同仁神經內科診所","lat":25.1322316,"lng":121.744164,"address":null,"hasBabyChanging":false,"hasAccessible":false,"source":"OpenStreetMap","updatedAt":"2026-06-12T02:55:18.707Z","facilityType":"clinic","facilityLabel":"🩺 診所","phone":null,"website":null,"wheelchair":false,"needsAddr":true},{"id":13622157559,"name":"屈臣氏","lat":25.1326981,"lng":121.745634,"address":null,"hasBabyChanging":false,"hasAccessible":false,"source":"OpenStreetMap","updatedAt":"2026-06-12T02:55:18.707Z","facilityType":"pharmacy","facilityLabel":"💊 藥妝","phone":null,"website":null,"wheelchair":false,"needsAddr":true},{"id":13622157561,"name":"札幌藥妝","lat":25.1345234,"lng":121.7451196,"address":null,"hasBabyChanging":false,"hasAccessible":false,"source":"OpenStreetMap","updatedAt":"2026-06-12T02:55:18.707Z","facilityType":"pharmacy","facilityLabel":"💊 藥局","phone":null,"website":null,"wheelchair":false,"needsAddr":true},{"id":368356541,"name":"基隆市立醫院門診中心","lat":25.1304349,"lng":121.7455725,"address":"20250基隆市中正區義二路2巷6號","hasBabyChanging":false,"hasAccessible":false,"source":"OpenStreetMap","updatedAt":"2026-06-12T02:55:18.707Z","facilityType":"hospital","facilityLabel":"🏥 醫院","phone":null,"website":null,"wheelchair":false,"needsAddr":false},{"id":368358482,"name":"新昆明醫院","lat":25.1332288,"lng":121.7449275,"address":"201基隆市中正區中正路30號","hasBabyChanging":false,"hasAccessible":false,"source":"OpenStreetMap","updatedAt":"2026-06-12T02:55:18.707Z","facilityType":"hospital","facilityLabel":"🏥 醫院","phone":"+886 2 2426 8106","website":"https://skmhosp.webnode.tw/","wheelchair":false,"needsAddr":false},{"id":370101741,"name":"三軍總醫院基隆分院正榮院區","lat":25.1449838,"lng":121.7640559,"address":"基隆市中正區正榮街100號","hasBabyChanging":false,"hasAccessible":false,"source":"OpenStreetMap","updatedAt":"2026-06-12T02:55:18.707Z","facilityType":"hospital","facilityLabel":"🏥 醫院","phone":null,"website":null,"wheelchair":false,"needsAddr":false},{"id":611948037,"name":"王孫斌婦產科","lat":25.1341936,"lng":121.7462048,"address":"20241基隆市中正區義一路69號","hasBabyChanging":false,"hasAccessible":false,"source":"OpenStreetMap","updatedAt":"2026-06-12T02:55:18.707Z","facilityType":"clinic","facilityLabel":"🩺 診所","phone":"+886 2 2424-8125","website":"http://www.wangsunpin.com.tw/","wheelchair":false,"needsAddr":false},{"id":684434694,"name":"維德醫院","lat":25.1303757,"lng":121.798865,"address":null,"hasBabyChanging":false,"hasAccessible":false,"source":"OpenStreetMap","updatedAt":"2026-06-12T02:55:18.707Z","facilityType":"hospital","facilityLabel":"🏥 醫院","phone":null,"website":null,"wheelchair":false,"needsAddr":true}]}