{"city":"基隆市","district":"信義區","category":"medical","updatedAt":"2026-06-12T02:55:18.707Z","rev":1,"count":7,"items":[{"id":2433217422,"name":"大樹藥局","lat":25.1282417,"lng":121.7646261,"address":"201003基隆市信義區東信路166;168號","hasBabyChanging":false,"hasAccessible":false,"source":"OpenStreetMap","updatedAt":"2026-06-12T02:55:18.707Z","facilityType":"pharmacy","facilityLabel":"💊 藥局","phone":"+886 2 2468 0955","website":"https://www.greattree.com.tw","wheelchair":false,"needsAddr":false},{"id":5442553431,"name":"寶雅","lat":25.1276758,"lng":121.7592137,"address":"20141基隆市信義區東明路177號一樓","hasBabyChanging":false,"hasAccessible":false,"source":"OpenStreetMap","updatedAt":"2026-06-12T02:55:18.707Z","facilityType":"pharmacy","facilityLabel":"💊 藥局","phone":null,"website":null,"wheelchair":false,"needsAddr":false},{"id":8432658798,"name":"屈臣氏","lat":25.1349337,"lng":121.7828673,"address":null,"hasBabyChanging":false,"hasAccessible":false,"source":"OpenStreetMap","updatedAt":"2026-06-12T02:55:18.707Z","facilityType":"pharmacy","facilityLabel":"💊 藥妝","phone":null,"website":null,"wheelchair":false,"needsAddr":true},{"id":8540702417,"name":"臺大牙醫診所","lat":25.1286826,"lng":121.7604336,"address":"基隆市信義區東信路320號","hasBabyChanging":false,"hasAccessible":false,"source":"OpenStreetMap","updatedAt":"2026-06-12T02:55:18.707Z","facilityType":"dentist","facilityLabel":"🦷 牙醫","phone":"+886 2 2465 3000","website":null,"wheelchair":false,"needsAddr":false},{"id":257380862,"name":"基隆市立醫院","lat":25.1295999,"lng":121.7620694,"address":"202基隆市信義區東信路282號","hasBabyChanging":false,"hasAccessible":false,"source":"OpenStreetMap","updatedAt":"2026-06-12T02:55:18.707Z","facilityType":"hospital","facilityLabel":"🏥 醫院","phone":null,"website":null,"wheelchair":false,"needsAddr":false},{"id":367812162,"name":"衛生福利部基隆醫院","lat":25.1305582,"lng":121.7484418,"address":"20148基隆市信義區信二路268號","hasBabyChanging":false,"hasAccessible":false,"source":"OpenStreetMap","updatedAt":"2026-06-12T02:55:18.707Z","facilityType":"hospital","facilityLabel":"🏥 醫院","phone":"+886 2 2429-2525","website":"https://www.kln.mohw.gov.tw/","wheelchair":false,"needsAddr":false},{"id":368846370,"name":"基隆市信義區衛生所","lat":25.1286279,"lng":121.7519109,"address":"基隆市信義區信一路69號","hasBabyChanging":false,"hasAccessible":false,"source":"OpenStreetMap","updatedAt":"2026-06-12T02:55:18.707Z","facilityType":"health_center","facilityLabel":"🏥 衛生所","phone":"+886 2 2422-1633","website":"https://klsy.klchb.gov.tw/","wheelchair":false,"needsAddr":false}]}