{"city":"基隆市","district":"暖暖區","category":"medical","updatedAt":"2026-06-12T02:55:18.707Z","rev":1,"count":23,"items":[{"id":1684342229,"name":"屈臣氏","lat":25.0994103,"lng":121.7359296,"address":null,"hasBabyChanging":false,"hasAccessible":false,"source":"OpenStreetMap","updatedAt":"2026-06-12T02:55:18.707Z","facilityType":"pharmacy","facilityLabel":"💊 藥妝","phone":null,"website":null,"wheelchair":false,"needsAddr":true},{"id":1684342354,"name":"杏福健保藥局","lat":25.0994639,"lng":121.7357228,"address":null,"hasBabyChanging":false,"hasAccessible":false,"source":"OpenStreetMap","updatedAt":"2026-06-12T02:55:18.707Z","facilityType":"pharmacy","facilityLabel":"💊 藥局","phone":null,"website":null,"wheelchair":false,"needsAddr":true},{"id":1741212381,"name":"婁診所","lat":25.0995769,"lng":121.7360822,"address":null,"hasBabyChanging":false,"hasAccessible":false,"source":"OpenStreetMap","updatedAt":"2026-06-12T02:55:18.707Z","facilityType":"clinic","facilityLabel":"🩺 診所","phone":null,"website":null,"wheelchair":false,"needsAddr":true},{"id":1741212383,"name":"安昇鑲牙","lat":25.100336,"lng":121.7356048,"address":null,"hasBabyChanging":false,"hasAccessible":false,"source":"OpenStreetMap","updatedAt":"2026-06-12T02:55:18.707Z","facilityType":"clinic","facilityLabel":"🩺 診所","phone":null,"website":null,"wheelchair":false,"needsAddr":true},{"id":1741212400,"name":"柏林藥局","lat":25.1003846,"lng":121.735656,"address":null,"hasBabyChanging":false,"hasAccessible":false,"source":"OpenStreetMap","updatedAt":"2026-06-12T02:55:18.707Z","facilityType":"pharmacy","facilityLabel":"💊 藥局","phone":null,"website":null,"wheelchair":false,"needsAddr":true},{"id":1741212404,"name":"百會診所","lat":25.100283,"lng":121.7355609,"address":null,"hasBabyChanging":false,"hasAccessible":false,"source":"OpenStreetMap","updatedAt":"2026-06-12T02:55:18.707Z","facilityType":"clinic","facilityLabel":"🩺 診所","phone":null,"website":null,"wheelchair":false,"needsAddr":true},{"id":1741212446,"name":"蓬萊中醫","lat":25.0996577,"lng":121.7361843,"address":null,"hasBabyChanging":false,"hasAccessible":false,"source":"OpenStreetMap","updatedAt":"2026-06-12T02:55:18.707Z","facilityType":"clinic","facilityLabel":"🩺 診所","phone":null,"website":null,"wheelchair":false,"needsAddr":true},{"id":1741212447,"name":"金時代牙醫診所","lat":25.1000523,"lng":121.736503,"address":null,"hasBabyChanging":false,"hasAccessible":false,"source":"OpenStreetMap","updatedAt":"2026-06-12T02:55:18.707Z","facilityType":"dentist","facilityLabel":"🦷 牙醫","phone":null,"website":null,"wheelchair":false,"needsAddr":true},{"id":1743242449,"name":"東方藥局","lat":25.1002411,"lng":121.7366152,"address":null,"hasBabyChanging":false,"hasAccessible":false,"source":"OpenStreetMap","updatedAt":"2026-06-12T02:55:18.707Z","facilityType":"pharmacy","facilityLabel":"💊 藥局","phone":null,"website":null,"wheelchair":false,"needsAddr":true},{"id":1773536391,"name":"正榮牙醫診所","lat":25.0986299,"lng":121.7352437,"address":null,"hasBabyChanging":false,"hasAccessible":false,"source":"OpenStreetMap","updatedAt":"2026-06-12T02:55:18.707Z","facilityType":"dentist","facilityLabel":"🦷 牙醫","phone":null,"website":null,"wheelchair":false,"needsAddr":true},{"id":2315471288,"name":"陸記藥局","lat":25.098745,"lng":121.7544125,"address":"205基隆市暖暖區源遠路241號","hasBabyChanging":false,"hasAccessible":false,"source":"OpenStreetMap","updatedAt":"2026-06-12T02:55:18.707Z","facilityType":"pharmacy","facilityLabel":"💊 藥局","phone":"+886 2 2457 6712","website":null,"wheelchair":false,"needsAddr":false},{"id":5639731995,"name":"長春牙醫","lat":25.0986587,"lng":121.7539954,"address":null,"hasBabyChanging":false,"hasAccessible":false,"source":"OpenStreetMap","updatedAt":"2026-06-12T02:55:18.707Z","facilityType":"dentist","facilityLabel":"🦷 牙醫","phone":null,"website":null,"wheelchair":false,"needsAddr":true},{"id":5639731997,"name":"華碇中醫診所","lat":25.0986392,"lng":121.7538828,"address":null,"hasBabyChanging":false,"hasAccessible":false,"source":"OpenStreetMap","updatedAt":"2026-06-12T02:55:18.707Z","facilityType":"clinic","facilityLabel":"🩺 診所","phone":null,"website":null,"wheelchair":false,"needsAddr":true},{"id":5639797666,"name":"宏展藥局","lat":25.0991288,"lng":121.7561972,"address":null,"hasBabyChanging":false,"hasAccessible":false,"source":"OpenStreetMap","updatedAt":"2026-06-12T02:55:18.707Z","facilityType":"pharmacy","facilityLabel":"💊 藥局","phone":null,"website":null,"wheelchair":false,"needsAddr":true},{"id":5639797667,"name":"康合診所","lat":25.0991361,"lng":121.7562615,"address":null,"hasBabyChanging":false,"hasAccessible":false,"source":"OpenStreetMap","updatedAt":"2026-06-12T02:55:18.707Z","facilityType":"clinic","facilityLabel":"🩺 診所","phone":null,"website":null,"wheelchair":false,"needsAddr":true},{"id":5639797668,"name":"家宏藥局","lat":25.0991409,"lng":121.756334,"address":null,"hasBabyChanging":false,"hasAccessible":false,"source":"OpenStreetMap","updatedAt":"2026-06-12T02:55:18.707Z","facilityType":"pharmacy","facilityLabel":"💊 藥局","phone":null,"website":null,"wheelchair":false,"needsAddr":true},{"id":9651770424,"name":"福仁藥行","lat":25.0994378,"lng":121.7366495,"address":"基隆市暖暖區東勢街6-10號","hasBabyChanging":false,"hasAccessible":false,"source":"OpenStreetMap","updatedAt":"2026-06-12T02:55:18.707Z","facilityType":"pharmacy","facilityLabel":"💊 藥局","phone":null,"website":null,"wheelchair":false,"needsAddr":false},{"id":9792050309,"name":"暖暖微風牙醫診所","lat":25.0926795,"lng":121.7371932,"address":"205基隆市暖暖區暖暖街572號","hasBabyChanging":false,"hasAccessible":false,"source":"OpenStreetMap","updatedAt":"2026-06-12T02:55:18.707Z","facilityType":"dentist","facilityLabel":"🦷 牙醫","phone":"+886 2 24593383","website":null,"wheelchair":false,"needsAddr":false},{"id":9792050310,"name":"福安藥局","lat":25.0926413,"lng":121.7364342,"address":"205基隆市暖暖區暖暖街552號","hasBabyChanging":false,"hasAccessible":false,"source":"OpenStreetMap","updatedAt":"2026-06-12T02:55:18.707Z","facilityType":"pharmacy","facilityLabel":"💊 藥局","phone":"+886 2 24588550","website":null,"wheelchair":false,"needsAddr":false},{"id":10791356629,"name":"寶雅","lat":25.0998721,"lng":121.7361038,"address":"基隆市暖暖區暖暖街168號","hasBabyChanging":false,"hasAccessible":false,"source":"OpenStreetMap","updatedAt":"2026-06-12T02:55:18.707Z","facilityType":"pharmacy","facilityLabel":"💊 藥局","phone":null,"website":null,"wheelchair":false,"needsAddr":false},{"id":158330405,"name":"基隆市暖暖區衛生所","lat":25.0989056,"lng":121.7365301,"address":"基隆市暖暖區暖暖街281巷98號","hasBabyChanging":false,"hasAccessible":false,"source":"OpenStreetMap","updatedAt":"2026-06-12T02:55:18.707Z","facilityType":"health_center","facilityLabel":"🏥 衛生所","phone":"+886 2 2457 2630","website":"https://klnn.klchb.gov.tw/","wheelchair":false,"needsAddr":false},{"id":161621160,"name":"臺灣礦工醫院","lat":25.1079869,"lng":121.7331863,"address":"20543基隆市暖暖區源遠路29號","hasBabyChanging":false,"hasAccessible":false,"source":"OpenStreetMap","updatedAt":"2026-06-12T02:55:18.707Z","facilityType":"hospital","facilityLabel":"🏥 醫院","phone":"+886 2 2457-9101","website":"http://twmgh.com","wheelchair":false,"needsAddr":false},{"id":590911645,"name":"東合牙體","lat":25.0991753,"lng":121.7583647,"address":null,"hasBabyChanging":false,"hasAccessible":false,"source":"OpenStreetMap","updatedAt":"2026-06-12T02:55:18.707Z","facilityType":"dentist","facilityLabel":"🦷 牙醫","phone":null,"website":null,"wheelchair":false,"needsAddr":true}]}