{"city":"新北市","district":"板橋區","category":"family","updatedAt":"2026-06-16T13:44:34.710Z","rev":24,"count":111,"items":[{"id":2405739672,"name":"環球購物中心 板橋車站","lat":25.0143069,"lng":121.4641095,"address":"220新北市板橋區縣民大道二段7號","hasBabyChanging":false,"hasAccessible":true,"source":"OpenStreetMap","updatedAt":"2026-06-16T13:44:34.710Z","facilityType":"mall","facilityLabel":"🛍 商場","phone":"+886 2 8969 9888","website":null,"wheelchair":true,"paid":null,"needsAddr":false},{"id":3366010227,"name":"新月橋","lat":25.0296349,"lng":121.4515822,"address":null,"hasBabyChanging":false,"hasAccessible":false,"source":"OpenStreetMap","updatedAt":"2026-06-16T13:44:34.710Z","facilityType":"tourist_attraction","facilityLabel":"🧭 旅遊景點","phone":null,"website":null,"wheelchair":false,"paid":null,"needsAddr":true},{"id":3461497699,"name":"鐵道馳騁I","lat":25.0138358,"lng":121.4636664,"address":null,"hasBabyChanging":false,"hasAccessible":false,"source":"OpenStreetMap","updatedAt":"2026-06-16T13:44:34.710Z","facilityType":"spot","facilityLabel":"📍 親子景點","phone":null,"website":"https://publicart.moc.gov.tw/works/work_detail.php?id=274","wheelchair":false,"paid":null,"needsAddr":true},{"id":4085141426,"name":"元智紀念館","lat":25.0002713,"lng":121.4528995,"address":null,"hasBabyChanging":false,"hasAccessible":false,"source":"OpenStreetMap","updatedAt":"2026-06-16T13:44:34.710Z","facilityType":"culture","facilityLabel":"🎨 藝文場館","phone":null,"website":null,"wheelchair":false,"paid":null,"needsAddr":true},{"id":4385066797,"name":"光復賞鳥綠地","lat":25.0248856,"lng":121.4860638,"address":null,"hasBabyChanging":false,"hasAccessible":false,"source":"OpenStreetMap","updatedAt":"2026-06-16T13:44:34.710Z","facilityType":"tourist_attraction","facilityLabel":"🧭 旅遊景點","phone":null,"website":null,"wheelchair":false,"paid":null,"needsAddr":true},{"id":10268953161,"name":"坤輝牧場","lat":25.0208827,"lng":121.4824031,"address":"220085新北市板橋區中山路二段489號","hasBabyChanging":false,"hasAccessible":false,"source":"OpenStreetMap","updatedAt":"2026-06-16T13:44:34.710Z","facilityType":"farm","facilityLabel":"🌾 農場","phone":null,"website":null,"wheelchair":false,"paid":null,"needsAddr":false},{"id":11050485966,"name":"電幻1號所","lat":25.0119231,"lng":121.4620006,"address":null,"hasBabyChanging":false,"hasAccessible":false,"source":"OpenStreetMap","updatedAt":"2026-06-16T13:44:34.710Z","facilityType":"science","facilityLabel":"🔬 博物館","phone":"+886-02-89697511","website":"https://dsone.taipower.com.tw/","wheelchair":false,"paid":false,"needsAddr":true},{"id":11148195371,"name":"交通部鐵道局","lat":25.0144996,"lng":121.4636311,"address":"220新北市板橋區縣民大道二段7號9樓","hasBabyChanging":false,"hasAccessible":false,"source":"OpenStreetMap","updatedAt":"2026-06-16T13:44:34.710Z","facilityType":"spot","facilityLabel":"📍 親子景點","phone":"+886 2 8072 3333","website":"https://www.rb.gov.tw/","wheelchair":false,"paid":null,"needsAddr":false},{"id":12056497662,"name":"華江橋下自行車練習場","lat":25.0380099,"lng":121.4814131,"address":null,"hasBabyChanging":false,"hasAccessible":false,"source":"OpenStreetMap","updatedAt":"2026-06-16T13:44:34.710Z","facilityType":"tourist_attraction","facilityLabel":"🧭 旅遊景點","phone":null,"website":null,"wheelchair":false,"paid":null,"needsAddr":true},{"id":12056497663,"name":"華江自行車教育園區","lat":25.0361435,"lng":121.4821641,"address":null,"hasBabyChanging":false,"hasAccessible":false,"source":"OpenStreetMap","updatedAt":"2026-06-16T13:44:34.710Z","facilityType":"tourist_attraction","facilityLabel":"🧭 旅遊景點","phone":null,"website":null,"wheelchair":false,"paid":null,"needsAddr":true},{"id":12771566679,"name":"橫虹臥月","lat":25.0106241,"lng":121.4555591,"address":null,"hasBabyChanging":false,"hasAccessible":false,"source":"OpenStreetMap","updatedAt":"2026-06-16T13:44:34.710Z","facilityType":"tourist_attraction","facilityLabel":"🧭 旅遊景點","phone":null,"website":null,"wheelchair":false,"paid":null,"needsAddr":true},{"id":13584320546,"name":"瞭望層","lat":25.012881,"lng":121.4659666,"address":null,"hasBabyChanging":false,"hasAccessible":false,"source":"OpenStreetMap","updatedAt":"2026-06-16T13:44:34.710Z","facilityType":"tourist_attraction","facilityLabel":"🧭 旅遊景點","phone":null,"website":null,"wheelchair":false,"paid":false,"needsAddr":true},{"id":111447445,"name":"介壽公園","lat":25.008379249999997,"lng":121.46270685,"address":null,"hasBabyChanging":false,"hasAccessible":false,"source":"OpenStreetMap","updatedAt":"2026-06-16T13:44:34.710Z","facilityType":"park","facilityLabel":"🌳 中型公園","phone":null,"website":null,"wheelchair":false,"paid":null,"needsAddr":true},{"id":142218538,"name":"溪北公園","lat":24.98922695,"lng":121.43123825,"address":null,"hasBabyChanging":false,"hasAccessible":false,"source":"OpenStreetMap","updatedAt":"2026-06-16T13:44:34.710Z","facilityType":"park","facilityLabel":"🌳 中型公園","phone":null,"website":null,"wheelchair":false,"paid":null,"needsAddr":true},{"id":182810254,"name":"萬坪都會公園","lat":25.0130548,"lng":121.46128329999999,"address":null,"hasBabyChanging":false,"hasAccessible":false,"source":"OpenStreetMap","updatedAt":"2026-06-16T13:44:34.710Z","facilityType":"park","facilityLabel":"🌳 中型公園","phone":null,"website":null,"wheelchair":false,"paid":null,"needsAddr":true},{"id":182810255,"name":"板橋車站站前廣場","lat":25.014939650000002,"lng":121.46273310000001,"address":null,"hasBabyChanging":false,"hasAccessible":false,"source":"OpenStreetMap","updatedAt":"2026-06-16T13:44:34.710Z","facilityType":"park","facilityLabel":"🌳 中型公園","phone":null,"website":null,"wheelchair":false,"paid":null,"needsAddr":true},{"id":189158993,"name":"崑崙公園","lat":24.99331935,"lng":121.4289211,"address":null,"hasBabyChanging":false,"hasAccessible":false,"source":"OpenStreetMap","updatedAt":"2026-06-16T13:44:34.710Z","facilityType":"park","facilityLabel":"🌳 中型公園","phone":null,"website":null,"wheelchair":false,"paid":null,"needsAddr":true},{"id":189158995,"name":"新北市樹林體育園區","lat":24.98109315,"lng":121.4273963,"address":null,"hasBabyChanging":false,"hasAccessible":false,"source":"OpenStreetMap","updatedAt":"2026-06-16T13:44:34.710Z","facilityType":"park","facilityLabel":"🌳 大型公園","phone":null,"website":null,"wheelchair":false,"paid":null,"needsAddr":true},{"id":197231545,"name":"溪洲公園","lat":24.9877252,"lng":121.42676115,"address":null,"hasBabyChanging":false,"hasAccessible":false,"source":"OpenStreetMap","updatedAt":"2026-06-16T13:44:34.710Z","facilityType":"park","facilityLabel":"🌳 中型公園","phone":null,"website":null,"wheelchair":false,"paid":null,"needsAddr":true},{"id":204011425,"name":"廣福公園","lat":24.991706399999998,"lng":121.46340380000001,"address":null,"hasBabyChanging":false,"hasAccessible":false,"source":"OpenStreetMap","updatedAt":"2026-06-16T13:44:34.710Z","facilityType":"park","facilityLabel":"🌳 小型公園","phone":null,"website":null,"wheelchair":false,"paid":null,"needsAddr":true},{"id":204011428,"name":"五權公園","lat":24.99267315,"lng":121.46518474999999,"address":null,"hasBabyChanging":false,"hasAccessible":false,"source":"OpenStreetMap","updatedAt":"2026-06-16T13:44:34.710Z","facilityType":"park","facilityLabel":"🌳 小型公園","phone":null,"website":null,"wheelchair":false,"paid":null,"needsAddr":true},{"id":214920043,"name":"石雕公園","lat":25.0293985,"lng":121.46993760000001,"address":null,"hasBabyChanging":false,"hasAccessible":false,"source":"OpenStreetMap","updatedAt":"2026-06-16T13:44:34.710Z","facilityType":"park","facilityLabel":"🌳 中型公園","phone":null,"website":null,"wheelchair":false,"paid":null,"needsAddr":true},{"id":215191242,"name":"音樂公園","lat":25.02747605,"lng":121.48027345,"address":null,"hasBabyChanging":false,"hasAccessible":false,"source":"OpenStreetMap","updatedAt":"2026-06-16T13:44:34.710Z","facilityType":"park","facilityLabel":"🌳 中型公園","phone":null,"website":null,"wheelchair":false,"paid":null,"needsAddr":true},{"id":215191246,"name":"八德公園","lat":25.0246087,"lng":121.4759108,"address":null,"hasBabyChanging":false,"hasAccessible":false,"source":"OpenStreetMap","updatedAt":"2026-06-16T13:44:34.710Z","facilityType":"park","facilityLabel":"🌳 中型公園","phone":null,"website":null,"wheelchair":false,"paid":null,"needsAddr":true},{"id":215191247,"name":"農村公園","lat":25.0299682,"lng":121.47107779999999,"address":null,"hasBabyChanging":false,"hasAccessible":false,"source":"OpenStreetMap","updatedAt":"2026-06-16T13:44:34.710Z","facilityType":"park","facilityLabel":"🌳 小型公園","phone":null,"website":null,"wheelchair":false,"paid":null,"needsAddr":true},{"id":215191249,"name":"六海園","lat":25.0238639,"lng":121.46798455000001,"address":null,"hasBabyChanging":false,"hasAccessible":false,"source":"OpenStreetMap","updatedAt":"2026-06-16T13:44:34.710Z","facilityType":"park","facilityLabel":"🌳 小型公園","phone":"+886 2 22571892","website":null,"wheelchair":false,"paid":null,"needsAddr":true},{"id":215191250,"name":"中山公園","lat":25.0230892,"lng":121.47169315,"address":"22042新北市板橋區莊敬路179號","hasBabyChanging":false,"hasAccessible":false,"source":"OpenStreetMap","updatedAt":"2026-06-16T13:44:34.710Z","facilityType":"park","facilityLabel":"🌳 小型公園","phone":"+886 2 8258 6832","website":null,"wheelchair":false,"paid":null,"needsAddr":false},{"id":216588173,"name":"接雲寺柏壽公園","lat":25.008885749999997,"lng":121.4537728,"address":null,"hasBabyChanging":false,"hasAccessible":false,"source":"OpenStreetMap","updatedAt":"2026-06-16T13:44:34.710Z","facilityType":"park","facilityLabel":"🌳 小型公園","phone":null,"website":null,"wheelchair":false,"paid":null,"needsAddr":true},{"id":216909881,"name":"科學館","lat":25.007963099999998,"lng":121.44727265,"address":null,"hasBabyChanging":false,"hasAccessible":false,"source":"OpenStreetMap","updatedAt":"2026-06-16T13:44:34.710Z","facilityType":"science","facilityLabel":"🔬 博物館","phone":null,"website":null,"wheelchair":false,"paid":null,"needsAddr":true},{"id":216909897,"name":"新大觀簡易公園","lat":25.01062985,"lng":121.446535,"address":null,"hasBabyChanging":false,"hasAccessible":false,"source":"OpenStreetMap","updatedAt":"2026-06-16T13:44:34.710Z","facilityType":"park","facilityLabel":"🌳 小型公園","phone":null,"website":null,"wheelchair":false,"paid":null,"needsAddr":true},{"id":216932144,"name":"浮洲人工濕地","lat":24.9998325,"lng":121.4388706,"address":null,"hasBabyChanging":false,"hasAccessible":false,"source":"OpenStreetMap","updatedAt":"2026-06-16T13:44:34.710Z","facilityType":"park","facilityLabel":"🌳 超大型公園","phone":null,"website":null,"wheelchair":false,"paid":null,"needsAddr":true},{"id":216932147,"name":"新海三期人工溼地","lat":25.0259329,"lng":121.45107415000001,"address":null,"hasBabyChanging":false,"hasAccessible":false,"source":"OpenStreetMap","updatedAt":"2026-06-16T13:44:34.710Z","facilityType":"park","facilityLabel":"🌳 大型公園","phone":null,"website":null,"wheelchair":false,"paid":null,"needsAddr":true},{"id":217454598,"name":"四維公園","lat":25.02529635,"lng":121.46343905,"address":"新北市板橋區陽明街","hasBabyChanging":false,"hasAccessible":false,"source":"OpenStreetMap","updatedAt":"2026-06-16T13:44:34.710Z","facilityType":"park","facilityLabel":"🌳 中型公園","phone":null,"website":null,"wheelchair":false,"paid":null,"needsAddr":false},{"id":217454600,"name":"華江公園","lat":25.0194806,"lng":121.4720194,"address":null,"hasBabyChanging":false,"hasAccessible":false,"source":"OpenStreetMap","updatedAt":"2026-06-16T13:44:34.710Z","facilityType":"park","facilityLabel":"🌳 中型公園","phone":null,"website":null,"wheelchair":false,"paid":null,"needsAddr":true},{"id":217454601,"name":"莊敬公園","lat":25.0202007,"lng":121.4707064,"address":null,"hasBabyChanging":false,"hasAccessible":false,"source":"OpenStreetMap","updatedAt":"2026-06-16T13:44:34.710Z","facilityType":"park","facilityLabel":"🌳 小型公園","phone":null,"website":null,"wheelchair":false,"paid":null,"needsAddr":true},{"id":217454602,"name":"永豐公園","lat":25.02071085,"lng":121.4769703,"address":null,"hasBabyChanging":false,"hasAccessible":false,"source":"OpenStreetMap","updatedAt":"2026-06-16T13:44:34.710Z","facilityType":"park","facilityLabel":"🌳 小型公園","phone":null,"website":null,"wheelchair":false,"paid":null,"needsAddr":true},{"id":217454603,"name":"萬板公園","lat":25.0215991,"lng":121.47173015,"address":null,"hasBabyChanging":false,"hasAccessible":false,"source":"OpenStreetMap","updatedAt":"2026-06-16T13:44:34.710Z","facilityType":"park","facilityLabel":"🌳 小型公園","phone":null,"website":null,"wheelchair":false,"paid":null,"needsAddr":true},{"id":217454605,"name":"埤墘公園","lat":25.0232503,"lng":121.47327634999999,"address":null,"hasBabyChanging":false,"hasAccessible":false,"source":"OpenStreetMap","updatedAt":"2026-06-16T13:44:34.710Z","facilityType":"park","facilityLabel":"🌳 小型公園","phone":null,"website":null,"wheelchair":false,"paid":null,"needsAddr":true},{"id":217454606,"name":"埤墘公園","lat":25.0232868,"lng":121.4745842,"address":null,"hasBabyChanging":false,"hasAccessible":false,"source":"OpenStreetMap","updatedAt":"2026-06-16T13:44:34.710Z","facilityType":"park","facilityLabel":"🌳 小型公園","phone":null,"website":null,"wheelchair":false,"paid":null,"needsAddr":true},{"id":217454609,"name":"永安公園","lat":25.02432355,"lng":121.47701595000001,"address":null,"hasBabyChanging":false,"hasAccessible":false,"source":"OpenStreetMap","updatedAt":"2026-06-16T13:44:34.710Z","facilityType":"park","facilityLabel":"🌳 小型公園","phone":null,"website":null,"wheelchair":false,"paid":null,"needsAddr":true},{"id":220082958,"name":"大遠百","lat":25.01376865,"lng":121.4669714,"address":"22041新北市板橋區新站路28號","hasBabyChanging":false,"hasAccessible":true,"source":"OpenStreetMap","updatedAt":"2026-06-16T13:44:34.710Z","facilityType":"mall","facilityLabel":"🛍 商場","phone":null,"website":null,"wheelchair":true,"paid":null,"needsAddr":false},{"id":232201617,"name":"麗寶","lat":25.01239925,"lng":121.46207355,"address":"新北市板橋區縣民大道二段3號","hasBabyChanging":false,"hasAccessible":false,"source":"OpenStreetMap","updatedAt":"2026-06-16T13:44:34.710Z","facilityType":"mall","facilityLabel":"🛍 商場","phone":null,"website":null,"wheelchair":false,"paid":null,"needsAddr":false},{"id":233076434,"name":"板橋福德公園","lat":25.01160285,"lng":121.46791735,"address":null,"hasBabyChanging":false,"hasAccessible":true,"source":"OpenStreetMap","updatedAt":"2026-06-16T13:44:34.710Z","facilityType":"park","facilityLabel":"🌳 小型公園","phone":null,"website":null,"wheelchair":true,"paid":null,"needsAddr":true},{"id":255867129,"name":"板橋放送所","lat":25.006758650000002,"lng":121.46537755,"address":"220新北市板橋區民族路130巷67號","hasBabyChanging":false,"hasAccessible":false,"source":"OpenStreetMap","updatedAt":"2026-06-16T13:44:34.710Z","facilityType":"tourist_attraction","facilityLabel":"🧭 旅遊景點","phone":null,"website":null,"wheelchair":false,"paid":null,"needsAddr":false},{"id":259697581,"name":"農村文物館","lat":25.02978435,"lng":121.4707893,"address":null,"hasBabyChanging":false,"hasAccessible":false,"source":"OpenStreetMap","updatedAt":"2026-06-16T13:44:34.710Z","facilityType":"culture","facilityLabel":"🎨 藝文場館","phone":null,"website":null,"wheelchair":false,"paid":null,"needsAddr":true},{"id":263050189,"name":"台灣玩具博物館","lat":25.02412675,"lng":121.4519523,"address":null,"hasBabyChanging":false,"hasAccessible":false,"source":"OpenStreetMap","updatedAt":"2026-06-16T13:44:34.710Z","facilityType":"science","facilityLabel":"🔬 博物館","phone":null,"website":null,"wheelchair":false,"paid":null,"needsAddr":true},{"id":263481460,"name":"雙十廣場","lat":25.028629950000003,"lng":121.4732657,"address":null,"hasBabyChanging":false,"hasAccessible":false,"source":"OpenStreetMap","updatedAt":"2026-06-16T13:44:34.710Z","facilityType":"park","facilityLabel":"🌳 小型公園","phone":null,"website":null,"wheelchair":false,"paid":null,"needsAddr":true},{"id":265561499,"name":"公兒二公園","lat":25.0110505,"lng":121.4630582,"address":null,"hasBabyChanging":false,"hasAccessible":false,"source":"OpenStreetMap","updatedAt":"2026-06-16T13:44:34.710Z","facilityType":"park","facilityLabel":"🌳 小型公園","phone":null,"website":null,"wheelchair":false,"paid":null,"needsAddr":true},{"id":271667492,"name":"國光公園","lat":25.0203113,"lng":121.45307009999999,"address":null,"hasBabyChanging":false,"hasAccessible":false,"source":"OpenStreetMap","updatedAt":"2026-06-16T13:44:34.710Z","facilityType":"park","facilityLabel":"🌳 中型公園","phone":null,"website":null,"wheelchair":false,"paid":null,"needsAddr":true},{"id":271667503,"name":"浮洲運動公園","lat":25.01509235,"lng":121.4487132,"address":null,"hasBabyChanging":false,"hasAccessible":false,"source":"OpenStreetMap","updatedAt":"2026-06-16T13:44:34.710Z","facilityType":"park","facilityLabel":"🌳 大型公園","phone":null,"website":null,"wheelchair":false,"paid":null,"needsAddr":true},{"id":272074271,"name":"民生公園","lat":25.013660950000002,"lng":121.4761336,"address":null,"hasBabyChanging":false,"hasAccessible":false,"source":"OpenStreetMap","updatedAt":"2026-06-16T13:44:34.710Z","facilityType":"park","facilityLabel":"🌳 中型公園","phone":null,"website":null,"wheelchair":false,"paid":null,"needsAddr":true},{"id":278454999,"name":"城林人工濕地","lat":24.974983,"lng":121.43116839999999,"address":null,"hasBabyChanging":false,"hasAccessible":false,"source":"OpenStreetMap","updatedAt":"2026-06-16T13:44:34.710Z","facilityType":"park","facilityLabel":"🌳 超大型公園","phone":null,"website":null,"wheelchair":false,"paid":null,"needsAddr":true},{"id":278455000,"name":"打鳥埤人工濕地","lat":24.979789099999998,"lng":121.43474325,"address":null,"hasBabyChanging":false,"hasAccessible":false,"source":"OpenStreetMap","updatedAt":"2026-06-16T13:44:34.710Z","facilityType":"park","facilityLabel":"🌳 超大型公園","phone":null,"website":"http://www.rhbd.ntpc.gov.tw/cht/index.php?code=list&ids=86","wheelchair":false,"paid":null,"needsAddr":true},{"id":279927122,"name":"科學館","lat":25.01177135,"lng":121.45805955,"address":null,"hasBabyChanging":false,"hasAccessible":false,"source":"OpenStreetMap","updatedAt":"2026-06-16T13:44:34.710Z","facilityType":"science","facilityLabel":"🔬 博物館","phone":null,"website":null,"wheelchair":false,"paid":null,"needsAddr":true},{"id":285000214,"name":"翠園","lat":25.0316434,"lng":121.4742075,"address":null,"hasBabyChanging":false,"hasAccessible":false,"source":"OpenStreetMap","updatedAt":"2026-06-16T13:44:34.710Z","facilityType":"park","facilityLabel":"🌳 小型公園","phone":null,"website":null,"wheelchair":false,"paid":null,"needsAddr":true},{"id":288140442,"name":"永豐公園","lat":25.018932,"lng":121.478123,"address":null,"hasBabyChanging":false,"hasAccessible":false,"source":"OpenStreetMap","updatedAt":"2026-06-16T13:44:34.710Z","facilityType":"park","facilityLabel":"🌳 小型公園","phone":null,"website":null,"wheelchair":false,"paid":null,"needsAddr":true},{"id":288140446,"name":"正隆公園","lat":25.012370349999998,"lng":121.47734614999999,"address":null,"hasBabyChanging":false,"hasAccessible":false,"source":"OpenStreetMap","updatedAt":"2026-06-16T13:44:34.710Z","facilityType":"park","facilityLabel":"🌳 小型公園","phone":null,"website":null,"wheelchair":false,"paid":null,"needsAddr":true},{"id":289000032,"name":"光復簡易公園","lat":25.018207500000003,"lng":121.48487385,"address":null,"hasBabyChanging":false,"hasAccessible":false,"source":"OpenStreetMap","updatedAt":"2026-06-16T13:44:34.710Z","facilityType":"park","facilityLabel":"🌳 中型公園","phone":null,"website":null,"wheelchair":false,"paid":null,"needsAddr":true},{"id":317123793,"name":"資訊公園","lat":25.03464945,"lng":121.4762642,"address":null,"hasBabyChanging":false,"hasAccessible":false,"source":"OpenStreetMap","updatedAt":"2026-06-16T13:44:34.710Z","facilityType":"park","facilityLabel":"🌳 小型公園","phone":"+886 2 2257 1892","website":null,"wheelchair":false,"paid":null,"needsAddr":true},{"id":317418751,"name":"尋夢園地","lat":25.016936299999998,"lng":121.4640886,"address":null,"hasBabyChanging":false,"hasAccessible":false,"source":"OpenStreetMap","updatedAt":"2026-06-16T13:44:34.710Z","facilityType":"park","facilityLabel":"🌳 小型公園","phone":null,"website":null,"wheelchair":false,"paid":null,"needsAddr":true},{"id":317418752,"name":"華陽公園","lat":25.0030133,"lng":121.45288725,"address":null,"hasBabyChanging":false,"hasAccessible":false,"source":"OpenStreetMap","updatedAt":"2026-06-16T13:44:34.710Z","facilityType":"park","facilityLabel":"🌳 小型公園","phone":"+886 2 89510435","website":null,"wheelchair":false,"paid":null,"needsAddr":true},{"id":317461748,"name":"板信公園","lat":25.012447450000003,"lng":121.45653429999999,"address":null,"hasBabyChanging":false,"hasAccessible":false,"source":"OpenStreetMap","updatedAt":"2026-06-16T13:44:34.710Z","facilityType":"park","facilityLabel":"🌳 小型公園","phone":null,"website":null,"wheelchair":false,"paid":null,"needsAddr":true},{"id":317468697,"name":"浮洲親民公園","lat":24.998519700000003,"lng":121.44486555,"address":null,"hasBabyChanging":false,"hasAccessible":false,"source":"OpenStreetMap","updatedAt":"2026-06-16T13:44:34.710Z","facilityType":"park","facilityLabel":"🌳 大型公園","phone":"+886 2 8275 2530","website":null,"wheelchair":false,"paid":null,"needsAddr":true},{"id":324504885,"name":"和平公園","lat":24.99763095,"lng":121.46472675,"address":null,"hasBabyChanging":false,"hasAccessible":false,"source":"OpenStreetMap","updatedAt":"2026-06-16T13:44:34.710Z","facilityType":"park","facilityLabel":"🌳 小型公園","phone":null,"website":null,"wheelchair":false,"paid":null,"needsAddr":true},{"id":324504886,"name":"華福公園","lat":24.997575949999998,"lng":121.46501845,"address":null,"hasBabyChanging":false,"hasAccessible":false,"source":"OpenStreetMap","updatedAt":"2026-06-16T13:44:34.710Z","facilityType":"park","facilityLabel":"🌳 小型公園","phone":null,"website":null,"wheelchair":false,"paid":null,"needsAddr":true},{"id":329664606,"name":"玫瑰公園","lat":25.02469605,"lng":121.45575265,"address":null,"hasBabyChanging":false,"hasAccessible":false,"source":"OpenStreetMap","updatedAt":"2026-06-16T13:44:34.710Z","facilityType":"park","facilityLabel":"🌳 中型公園","phone":null,"website":null,"wheelchair":false,"paid":null,"needsAddr":true},{"id":331958867,"name":"土城線形公園","lat":24.99247935,"lng":121.4482597,"address":null,"hasBabyChanging":false,"hasAccessible":false,"source":"OpenStreetMap","updatedAt":"2026-06-16T13:44:34.710Z","facilityType":"park","facilityLabel":"🌳 小型公園","phone":null,"website":null,"wheelchair":false,"paid":null,"needsAddr":true},{"id":331958869,"name":"華東公園","lat":24.99598685,"lng":121.4489238,"address":null,"hasBabyChanging":false,"hasAccessible":false,"source":"OpenStreetMap","updatedAt":"2026-06-16T13:44:34.710Z","facilityType":"park","facilityLabel":"🌳 小型公園","phone":null,"website":null,"wheelchair":false,"paid":null,"needsAddr":true},{"id":344200568,"name":"溪洲河濱運動公園","lat":24.98845645,"lng":121.437738,"address":null,"hasBabyChanging":false,"hasAccessible":false,"source":"OpenStreetMap","updatedAt":"2026-06-16T13:44:34.710Z","facilityType":"park","facilityLabel":"🌳 超大型公園","phone":null,"website":null,"wheelchair":false,"paid":null,"needsAddr":true},{"id":344200569,"name":"浮洲藝術河濱公園","lat":24.999862649999997,"lng":121.44020375,"address":null,"hasBabyChanging":false,"hasAccessible":false,"source":"OpenStreetMap","updatedAt":"2026-06-16T13:44:34.710Z","facilityType":"park","facilityLabel":"🌳 大型公園","phone":null,"website":null,"wheelchair":false,"paid":null,"needsAddr":true},{"id":344200574,"name":"江子翠河口景觀河濱公園","lat":25.03400405,"lng":121.47366285000001,"address":null,"hasBabyChanging":false,"hasAccessible":false,"source":"OpenStreetMap","updatedAt":"2026-06-16T13:44:34.710Z","facilityType":"park","facilityLabel":"🌳 超大型公園","phone":null,"website":null,"wheelchair":false,"paid":null,"needsAddr":true},{"id":345803332,"name":"仁愛公園","lat":25.0113409,"lng":121.46956655,"address":null,"hasBabyChanging":false,"hasAccessible":false,"source":"OpenStreetMap","updatedAt":"2026-06-16T13:44:34.710Z","facilityType":"park","facilityLabel":"🌳 小型公園","phone":null,"website":null,"wheelchair":false,"paid":null,"needsAddr":true},{"id":345967875,"name":"信義公園","lat":24.995138599999997,"lng":121.4562962,"address":null,"hasBabyChanging":false,"hasAccessible":false,"source":"OpenStreetMap","updatedAt":"2026-06-16T13:44:34.710Z","facilityType":"park","facilityLabel":"🌳 小型公園","phone":null,"website":null,"wheelchair":false,"paid":null,"needsAddr":true},{"id":352622127,"name":"光復賞鳥河濱公園","lat":25.01988035,"lng":121.48644395,"address":null,"hasBabyChanging":false,"hasAccessible":false,"source":"OpenStreetMap","updatedAt":"2026-06-16T13:44:34.710Z","facilityType":"park","facilityLabel":"🌳 大型公園","phone":null,"website":null,"wheelchair":false,"paid":null,"needsAddr":true},{"id":352622128,"name":"江翠礫間水岸公園","lat":25.02609985,"lng":121.48542995,"address":null,"hasBabyChanging":false,"hasAccessible":false,"source":"OpenStreetMap","updatedAt":"2026-06-16T13:44:34.710Z","facilityType":"park","facilityLabel":"🌳 大型公園","phone":null,"website":null,"wheelchair":false,"paid":null,"needsAddr":true},{"id":381166747,"name":"大豐公園","lat":24.999339149999997,"lng":121.43276854999999,"address":null,"hasBabyChanging":false,"hasAccessible":false,"source":"OpenStreetMap","updatedAt":"2026-06-16T13:44:34.710Z","facilityType":"park","facilityLabel":"🌳 小型公園","phone":null,"website":null,"wheelchair":false,"paid":null,"needsAddr":true},{"id":442156945,"name":"稚匯公園","lat":25.035180099999998,"lng":121.4723985,"address":null,"hasBabyChanging":false,"hasAccessible":false,"source":"OpenStreetMap","updatedAt":"2026-06-16T13:44:34.710Z","facilityType":"park","facilityLabel":"🌳 小型公園","phone":null,"website":null,"wheelchair":false,"paid":null,"needsAddr":true},{"id":442156946,"name":"華江123木頭公園","lat":25.036052849999997,"lng":121.47547965000001,"address":null,"hasBabyChanging":false,"hasAccessible":false,"source":"OpenStreetMap","updatedAt":"2026-06-16T13:44:34.710Z","facilityType":"park","facilityLabel":"🌳 小型公園","phone":null,"website":null,"wheelchair":false,"paid":null,"needsAddr":true},{"id":442156948,"name":"溪頭河濱公園","lat":25.03308095,"lng":121.46797380000001,"address":null,"hasBabyChanging":false,"hasAccessible":false,"source":"OpenStreetMap","updatedAt":"2026-06-16T13:44:34.710Z","facilityType":"park","facilityLabel":"🌳 中型公園","phone":null,"website":null,"wheelchair":false,"paid":null,"needsAddr":true},{"id":442156949,"name":"時光公園","lat":25.037097850000002,"lng":121.47844735,"address":null,"hasBabyChanging":false,"hasAccessible":false,"source":"OpenStreetMap","updatedAt":"2026-06-16T13:44:34.710Z","facilityType":"park","facilityLabel":"🌳 小型公園","phone":null,"website":null,"wheelchair":false,"paid":null,"needsAddr":true},{"id":442161082,"name":"懷石公園","lat":25.03079275,"lng":121.48122165,"address":null,"hasBabyChanging":false,"hasAccessible":false,"source":"OpenStreetMap","updatedAt":"2026-06-16T13:44:34.710Z","facilityType":"park","facilityLabel":"🌳 小型公園","phone":null,"website":null,"wheelchair":false,"paid":null,"needsAddr":true},{"id":494080590,"name":"埔墘公園","lat":25.0153339,"lng":121.4816685,"address":null,"hasBabyChanging":false,"hasAccessible":false,"source":"OpenStreetMap","updatedAt":"2026-06-16T13:44:34.710Z","facilityType":"park","facilityLabel":"🌳 小型公園","phone":null,"website":null,"wheelchair":false,"paid":null,"needsAddr":true},{"id":543440936,"name":"台北紙廠簡易公園","lat":25.00226155,"lng":121.44598875,"address":null,"hasBabyChanging":false,"hasAccessible":false,"source":"OpenStreetMap","updatedAt":"2026-06-16T13:44:34.710Z","facilityType":"park","facilityLabel":"🌳 小型公園","phone":null,"website":null,"wheelchair":false,"paid":null,"needsAddr":true},{"id":543500244,"name":"時光公園","lat":25.0367514,"lng":121.48008585,"address":null,"hasBabyChanging":false,"hasAccessible":false,"source":"OpenStreetMap","updatedAt":"2026-06-16T13:44:34.710Z","facilityType":"park","facilityLabel":"🌳 中型公園","phone":null,"website":null,"wheelchair":false,"paid":null,"needsAddr":true},{"id":545016462,"name":"文丘公園","lat":25.0232718,"lng":121.45003525,"address":null,"hasBabyChanging":false,"hasAccessible":false,"source":"OpenStreetMap","updatedAt":"2026-06-16T13:44:34.710Z","facilityType":"park","facilityLabel":"🌳 小型公園","phone":null,"website":null,"wheelchair":false,"paid":null,"needsAddr":true},{"id":545016463,"name":"藝香公園","lat":25.021667700000002,"lng":121.45048935,"address":null,"hasBabyChanging":false,"hasAccessible":false,"source":"OpenStreetMap","updatedAt":"2026-06-16T13:44:34.710Z","facilityType":"park","facilityLabel":"🌳 小型公園","phone":null,"website":null,"wheelchair":false,"paid":null,"needsAddr":true},{"id":545016798,"name":"雙社公園","lat":25.020267250000003,"lng":121.4499257,"address":null,"hasBabyChanging":false,"hasAccessible":false,"source":"OpenStreetMap","updatedAt":"2026-06-16T13:44:34.710Z","facilityType":"park","facilityLabel":"🌳 小型公園","phone":null,"website":null,"wheelchair":false,"paid":null,"needsAddr":true},{"id":546983673,"name":"華德公園","lat":24.9922755,"lng":121.45335475,"address":null,"hasBabyChanging":false,"hasAccessible":false,"source":"OpenStreetMap","updatedAt":"2026-06-16T13:44:34.710Z","facilityType":"park","facilityLabel":"🌳 小型公園","phone":null,"website":null,"wheelchair":false,"paid":null,"needsAddr":true},{"id":547156808,"name":"藝術博物館","lat":25.00657365,"lng":121.44877725,"address":null,"hasBabyChanging":false,"hasAccessible":false,"source":"OpenStreetMap","updatedAt":"2026-06-16T13:44:34.710Z","facilityType":"science","facilityLabel":"🔬 博物館","phone":null,"website":null,"wheelchair":false,"paid":null,"needsAddr":true},{"id":547235079,"name":"服務中心","lat":25.0021087,"lng":121.44486015,"address":null,"hasBabyChanging":false,"hasAccessible":false,"source":"OpenStreetMap","updatedAt":"2026-06-16T13:44:34.710Z","facilityType":"visitor_center","facilityLabel":"🛎 旅客中心","phone":null,"website":null,"wheelchair":false,"paid":null,"needsAddr":true},{"id":555601447,"name":"榕蔭大池","lat":25.01101765,"lng":121.45496750000001,"address":null,"hasBabyChanging":false,"hasAccessible":false,"source":"OpenStreetMap","updatedAt":"2026-06-16T13:44:34.710Z","facilityType":"water","facilityLabel":"💧 戲水親水","phone":null,"website":null,"wheelchair":false,"paid":null,"needsAddr":true},{"id":571717617,"name":"富貴綠地公園","lat":25.01764215,"lng":121.48247585,"address":null,"hasBabyChanging":false,"hasAccessible":false,"source":"OpenStreetMap","updatedAt":"2026-06-16T13:44:34.710Z","facilityType":"park","facilityLabel":"🌳 小型公園","phone":null,"website":null,"wheelchair":false,"paid":null,"needsAddr":true},{"id":583839216,"name":"馥華森林公園","lat":25.00616735,"lng":121.44518740000001,"address":null,"hasBabyChanging":false,"hasAccessible":false,"source":"OpenStreetMap","updatedAt":"2026-06-16T13:44:34.710Z","facilityType":"park","facilityLabel":"🌳 小型公園","phone":null,"website":null,"wheelchair":false,"paid":null,"needsAddr":true},{"id":583839219,"name":"板橋區公所","lat":25.004357749999997,"lng":121.44641805,"address":null,"hasBabyChanging":false,"hasAccessible":false,"source":"OpenStreetMap","updatedAt":"2026-06-16T13:44:34.710Z","facilityType":"park","facilityLabel":"🌳 小型公園","phone":null,"website":null,"wheelchair":false,"paid":null,"needsAddr":true},{"id":589749164,"name":"崑崙活力廣場","lat":24.9937478,"lng":121.43284445,"address":null,"hasBabyChanging":false,"hasAccessible":false,"source":"OpenStreetMap","updatedAt":"2026-06-16T13:44:34.710Z","facilityType":"park","facilityLabel":"🌳 小型公園","phone":null,"website":null,"wheelchair":false,"paid":null,"needsAddr":true},{"id":692388986,"name":"羊咩咩的家(浮洲)","lat":24.994125750000002,"lng":121.43977885,"address":null,"hasBabyChanging":false,"hasAccessible":false,"source":"OpenStreetMap","updatedAt":"2026-06-16T13:44:34.710Z","facilityType":"tourist_attraction","facilityLabel":"🧭 旅遊景點","phone":null,"website":null,"wheelchair":false,"paid":false,"needsAddr":true},{"id":702336849,"name":"保安休閒公園","lat":24.9954622,"lng":121.43009765,"address":null,"hasBabyChanging":false,"hasAccessible":false,"source":"OpenStreetMap","updatedAt":"2026-06-16T13:44:34.710Z","facilityType":"park","facilityLabel":"🌳 小型公園","phone":null,"website":null,"wheelchair":false,"paid":null,"needsAddr":true},{"id":921532222,"name":"扶輪公園","lat":25.012432099999998,"lng":121.45983765,"address":null,"hasBabyChanging":false,"hasAccessible":false,"source":"OpenStreetMap","updatedAt":"2026-06-16T13:44:34.710Z","facilityType":"park","facilityLabel":"🌳 小型公園","phone":null,"website":null,"wheelchair":false,"paid":null,"needsAddr":true},{"id":981499285,"name":"公3公園","lat":25.0295606,"lng":121.45781224999999,"address":null,"hasBabyChanging":false,"hasAccessible":false,"source":"OpenStreetMap","updatedAt":"2026-06-16T13:44:34.710Z","facilityType":"park","facilityLabel":"🌳 中型公園","phone":null,"website":null,"wheelchair":false,"paid":null,"needsAddr":true},{"id":1008806026,"name":"市民廣場","lat":25.0132834,"lng":121.46496975,"address":null,"hasBabyChanging":false,"hasAccessible":false,"source":"OpenStreetMap","updatedAt":"2026-06-16T13:44:34.710Z","facilityType":"park","facilityLabel":"🌳 中型公園","phone":null,"website":null,"wheelchair":false,"paid":null,"needsAddr":true},{"id":1084984843,"name":"振義里公園","lat":25.0238389,"lng":121.48403665000001,"address":null,"hasBabyChanging":false,"hasAccessible":false,"source":"OpenStreetMap","updatedAt":"2026-06-16T13:44:34.710Z","facilityType":"park","facilityLabel":"🌳 小型公園","phone":null,"website":null,"wheelchair":false,"paid":null,"needsAddr":true},{"id":1101043148,"name":"河堤公園","lat":25.03559495,"lng":121.46727824999999,"address":null,"hasBabyChanging":false,"hasAccessible":false,"source":"OpenStreetMap","updatedAt":"2026-06-16T13:44:34.710Z","facilityType":"park","facilityLabel":"🌳 小型公園","phone":null,"website":null,"wheelchair":false,"paid":null,"needsAddr":true},{"id":1301427096,"name":"板橋放送所","lat":25.0069664,"lng":121.4654806,"address":null,"hasBabyChanging":false,"hasAccessible":false,"source":"OpenStreetMap","updatedAt":"2026-06-16T13:44:34.710Z","facilityType":"park","facilityLabel":"🌳 中型公園","phone":null,"website":null,"wheelchair":false,"paid":null,"needsAddr":true},{"id":7018055,"name":"台北市野雁保護區","lat":25.026960950000003,"lng":121.50550995,"address":null,"hasBabyChanging":false,"hasAccessible":false,"source":"OpenStreetMap","updatedAt":"2026-06-16T13:44:34.710Z","facilityType":"spot","facilityLabel":"📍 親子景點","phone":null,"website":"https://conservation.forest.gov.tw/0000134","wheelchair":false,"paid":null,"needsAddr":true},{"id":8391399,"name":"信義公園","lat":24.99174455,"lng":121.45751645,"address":null,"hasBabyChanging":false,"hasAccessible":false,"source":"OpenStreetMap","updatedAt":"2026-06-16T13:44:34.710Z","facilityType":"park","facilityLabel":"🌳 中型公園","phone":null,"website":null,"wheelchair":false,"paid":null,"needsAddr":true},{"id":9483849,"name":"遠東通訊園區北公園","lat":25.0004006,"lng":121.4561085,"address":null,"hasBabyChanging":false,"hasAccessible":false,"source":"OpenStreetMap","updatedAt":"2026-06-16T13:44:34.710Z","facilityType":"park","facilityLabel":"🌳 中型公園","phone":null,"website":null,"wheelchair":false,"paid":null,"needsAddr":true},{"id":9483851,"name":"忠孝公園","lat":24.997226849999997,"lng":121.45982824999999,"address":null,"hasBabyChanging":false,"hasAccessible":false,"source":"OpenStreetMap","updatedAt":"2026-06-16T13:44:34.710Z","facilityType":"park","facilityLabel":"🌳 中型公園","phone":null,"website":null,"wheelchair":false,"paid":null,"needsAddr":true},{"id":9483883,"name":"南雅公園","lat":25.00351975,"lng":121.45489219999999,"address":"22060新北市板橋區南雅南路二段1之1號","hasBabyChanging":false,"hasAccessible":false,"source":"OpenStreetMap","updatedAt":"2026-06-16T13:44:34.710Z","facilityType":"park","facilityLabel":"🌳 小型公園","phone":"+886 2 89517221","website":null,"wheelchair":false,"paid":null,"needsAddr":false},{"id":12375681,"name":"壽德公園","lat":24.99377145,"lng":121.46671194999999,"address":null,"hasBabyChanging":false,"hasAccessible":false,"source":"OpenStreetMap","updatedAt":"2026-06-16T13:44:34.710Z","facilityType":"park","facilityLabel":"🌳 中型公園","phone":null,"website":null,"wheelchair":false,"paid":null,"needsAddr":true},{"id":14428042,"name":"板橋區環河公園","lat":25.01599965,"lng":121.45104665,"address":null,"hasBabyChanging":false,"hasAccessible":false,"source":"OpenStreetMap","updatedAt":"2026-06-16T13:44:34.710Z","facilityType":"park","facilityLabel":"🌳 中型公園","phone":null,"website":null,"wheelchair":false,"paid":null,"needsAddr":true},{"id":19324810,"name":"重慶公園","lat":24.999959750000002,"lng":121.4648425,"address":null,"hasBabyChanging":false,"hasAccessible":false,"source":"OpenStreetMap","updatedAt":"2026-06-16T13:44:34.710Z","facilityType":"park","facilityLabel":"🌳 中型公園","phone":null,"website":null,"wheelchair":false,"paid":null,"needsAddr":true}]}