{"city":"新北市","district":"金山區","category":"family","updatedAt":"2026-06-10T15:41:05.166Z","rev":14,"count":14,"items":[{"id":207513788,"name":"中角沙灘","lat":25.23620175,"lng":121.63741455,"address":null,"hasBabyChanging":false,"hasAccessible":false,"source":"OpenStreetMap","updatedAt":"2026-06-10T15:41:05.166Z","facilityType":"water","facilityLabel":"💧 戲水親水","phone":null,"website":null,"wheelchair":false,"paid":null,"needsAddr":true},{"id":225807977,"name":"朱銘美術館","lat":25.24416395,"lng":121.61110035,"address":"208402新北市金山區西勢湖2號","hasBabyChanging":false,"hasAccessible":false,"source":"OpenStreetMap","updatedAt":"2026-06-10T15:41:05.166Z","facilityType":"culture","facilityLabel":"🖼️ 美術館","phone":"+886 2 2498 9940","website":"https://www.juming.org.tw","wheelchair":false,"paid":true,"needsAddr":false},{"id":225807980,"name":"美術館本館","lat":25.242854,"lng":121.60985195,"address":null,"hasBabyChanging":false,"hasAccessible":false,"source":"OpenStreetMap","updatedAt":"2026-06-10T15:41:05.166Z","facilityType":"culture","facilityLabel":"🖼️ 美術館","phone":null,"website":null,"wheelchair":false,"paid":null,"needsAddr":true},{"id":327384089,"name":"獅頭山公園","lat":25.22710065,"lng":121.64814905,"address":null,"hasBabyChanging":false,"hasAccessible":false,"source":"OpenStreetMap","updatedAt":"2026-06-10T15:41:05.166Z","facilityType":"park","facilityLabel":"🌳 超大型公園","phone":null,"website":null,"wheelchair":false,"paid":null,"needsAddr":true},{"id":371671381,"name":"露營中心營本部","lat":25.22733125,"lng":121.6409524,"address":null,"hasBabyChanging":false,"hasAccessible":false,"source":"OpenStreetMap","updatedAt":"2026-06-10T15:41:05.166Z","facilityType":"camp","facilityLabel":"⛺ 露營休閒","phone":null,"website":null,"wheelchair":false,"paid":null,"needsAddr":true},{"id":546273610,"name":"鄧麗君紀念公園","lat":25.2481389,"lng":121.60147040000001,"address":null,"hasBabyChanging":false,"hasAccessible":false,"source":"OpenStreetMap","updatedAt":"2026-06-10T15:41:05.166Z","facilityType":"park","facilityLabel":"🌳 小型公園","phone":null,"website":null,"wheelchair":false,"paid":null,"needsAddr":true},{"id":546278398,"name":"朱銘雕塑公園","lat":25.25067405,"lng":121.6058673,"address":null,"hasBabyChanging":false,"hasAccessible":false,"source":"OpenStreetMap","updatedAt":"2026-06-10T15:41:05.166Z","facilityType":"park","facilityLabel":"🌳 小型公園","phone":null,"website":null,"wheelchair":false,"paid":null,"needsAddr":true},{"id":549747876,"name":"新金山海水浴場","lat":25.2305468,"lng":121.64383715,"address":null,"hasBabyChanging":false,"hasAccessible":false,"source":"OpenStreetMap","updatedAt":"2026-06-10T15:41:05.166Z","facilityType":"water","facilityLabel":"💧 戲水親水","phone":null,"website":null,"wheelchair":false,"paid":null,"needsAddr":true},{"id":683630124,"name":"中山溫泉公園","lat":25.22146345,"lng":121.64081215,"address":null,"hasBabyChanging":false,"hasAccessible":false,"source":"OpenStreetMap","updatedAt":"2026-06-10T15:41:05.166Z","facilityType":"park","facilityLabel":"🌳 中型公園","phone":null,"website":null,"wheelchair":false,"paid":null,"needsAddr":true},{"id":696410629,"name":"杜鵑公園","lat":25.220061549999997,"lng":121.6364801,"address":null,"hasBabyChanging":false,"hasAccessible":false,"source":"OpenStreetMap","updatedAt":"2026-06-10T15:41:05.166Z","facilityType":"park","facilityLabel":"🌳 小型公園","phone":null,"website":null,"wheelchair":false,"paid":null,"needsAddr":true},{"id":696410633,"name":"櫻花公園","lat":25.21994945,"lng":121.64087839999999,"address":null,"hasBabyChanging":false,"hasAccessible":false,"source":"OpenStreetMap","updatedAt":"2026-06-10T15:41:05.166Z","facilityType":"park","facilityLabel":"🌳 小型公園","phone":null,"website":null,"wheelchair":false,"paid":null,"needsAddr":true},{"id":700519300,"name":"水尾景觀公園","lat":25.22260685,"lng":121.64719415,"address":null,"hasBabyChanging":false,"hasAccessible":false,"source":"OpenStreetMap","updatedAt":"2026-06-10T15:41:05.166Z","facilityType":"park","facilityLabel":"🌳 小型公園","phone":null,"website":null,"wheelchair":false,"paid":null,"needsAddr":true},{"id":848249868,"name":"公館崙公園","lat":25.21366,"lng":121.63430195000001,"address":null,"hasBabyChanging":false,"hasAccessible":false,"source":"OpenStreetMap","updatedAt":"2026-06-10T15:41:05.166Z","facilityType":"park","facilityLabel":"🌳 小型公園","phone":null,"website":null,"wheelchair":false,"paid":null,"needsAddr":true},{"id":1492969232,"name":"豐漁公園","lat":25.22306845,"lng":121.64677925000001,"address":null,"hasBabyChanging":false,"hasAccessible":false,"source":"OpenStreetMap","updatedAt":"2026-06-10T15:41:05.166Z","facilityType":"park","facilityLabel":"🌳 小型公園","phone":null,"website":null,"wheelchair":false,"paid":null,"needsAddr":true}]}