{
  "city": "彰化縣",
  "category": "family",
  "updatedAt": "2026-06-12T21:04:23.777Z",
  "items": [
    {
      "id": 3287000863,
      "name": "隘門",
      "facilityType": "tourist_attraction",
      "facilityLabel": "🧭 旅遊景點",
      "lat": 24.0567836,
      "lng": 120.4329238,
      "source": "OpenStreetMap",
      "updatedAt": "2026-06-12T21:04:23.755Z"
    },
    {
      "id": 3287000864,
      "name": "半邊井",
      "facilityType": "tourist_attraction",
      "facilityLabel": "🧭 旅遊景點",
      "lat": 24.0560041,
      "lng": 120.4329536,
      "source": "OpenStreetMap",
      "updatedAt": "2026-06-12T21:04:23.757Z"
    },
    {
      "id": 3287093953,
      "name": "天后宮媽祖文物館",
      "facilityType": "culture",
      "facilityLabel": "🎨 藝文場館",
      "lat": 24.0597567,
      "lng": 120.4299149,
      "source": "OpenStreetMap",
      "updatedAt": "2026-06-12T21:04:23.759Z"
    },
    {
      "id": 3339705456,
      "name": "石敢當",
      "facilityType": "tourist_attraction",
      "facilityLabel": "🧭 旅遊景點",
      "lat": 24.055402,
      "lng": 120.4338919,
      "source": "OpenStreetMap",
      "updatedAt": "2026-06-12T21:04:23.761Z"
    },
    {
      "id": 3339705457,
      "name": "十宜樓",
      "facilityType": "tourist_attraction",
      "facilityLabel": "🧭 旅遊景點",
      "lat": 24.0533804,
      "lng": 120.4350776,
      "source": "OpenStreetMap",
      "updatedAt": "2026-06-12T21:04:23.762Z"
    },
    {
      "id": 3339705462,
      "name": "甕牆",
      "facilityType": "tourist_attraction",
      "facilityLabel": "🧭 旅遊景點",
      "lat": 24.0529646,
      "lng": 120.4359754,
      "source": "OpenStreetMap",
      "updatedAt": "2026-06-12T21:04:23.764Z"
    },
    {
      "id": 6939423124,
      "name": "振訓國術館",
      "facilityType": "science",
      "facilityLabel": "🔬 博物館",
      "lat": 24.057765,
      "lng": 120.4326656,
      "source": "OpenStreetMap",
      "updatedAt": "2026-06-12T21:04:23.765Z"
    },
    {
      "id": 8534635217,
      "name": "鎮史館(街長宿舍)",
      "facilityType": "tourist_attraction",
      "facilityLabel": "🧭 旅遊景點",
      "lat": 24.057454,
      "lng": 120.4353004,
      "source": "OpenStreetMap",
      "updatedAt": "2026-06-12T21:04:23.766Z",
      "address": "505彰化縣鹿港鎮民權路160巷2號"
    },
    {
      "id": 9742979964,
      "name": "鹿港鹽業文化館",
      "facilityType": "science",
      "facilityLabel": "🔬 博物館",
      "lat": 24.0531993,
      "lng": 120.4366538,
      "source": "OpenStreetMap",
      "updatedAt": "2026-06-12T21:04:23.768Z"
    },
    {
      "id": 12141739495,
      "name": "彰化縣旅遊服務中心",
      "facilityType": "visitor_center",
      "facilityLabel": "🛎 旅客中心",
      "lat": 24.058916,
      "lng": 120.434413,
      "source": "OpenStreetMap",
      "updatedAt": "2026-06-12T21:04:23.769Z"
    },
    {
      "id": 52073324,
      "name": "瑤林街(鹿港老街)",
      "facilityType": "tourist_attraction",
      "facilityLabel": "🧭 旅遊景點",
      "lat": 24.0558659,
      "lng": 120.4329705,
      "source": "OpenStreetMap",
      "updatedAt": "2026-06-12T21:04:23.769Z"
    },
    {
      "id": 191016589,
      "name": "臺灣玻璃館",
      "facilityType": "science",
      "facilityLabel": "🔬 博物館",
      "lat": 24.0684603,
      "lng": 120.3947776,
      "source": "OpenStreetMap",
      "updatedAt": "2026-06-12T21:04:23.770Z"
    },
    {
      "id": 221190489,
      "name": "鹿港龍山寺",
      "facilityType": "tourist_attraction",
      "facilityLabel": "🧭 旅遊景點",
      "lat": 24.0504544,
      "lng": 120.4354504,
      "source": "OpenStreetMap",
      "updatedAt": "2026-06-12T21:04:23.770Z",
      "address": "彰化縣鹿港鎮金門巷81號"
    },
    {
      "id": 221190719,
      "name": "鹿港天后宮",
      "facilityType": "tourist_attraction",
      "facilityLabel": "🧭 旅遊景點",
      "lat": 24.0593237,
      "lng": 120.4313937,
      "source": "OpenStreetMap",
      "updatedAt": "2026-06-12T21:04:23.771Z",
      "address": "彰化縣鹿港鎮中山路430號"
    },
    {
      "id": 259926167,
      "name": "鹿港文武廟",
      "facilityType": "tourist_attraction",
      "facilityLabel": "🧭 旅遊景點",
      "lat": 24.0487117,
      "lng": 120.438473,
      "source": "OpenStreetMap",
      "updatedAt": "2026-06-12T21:04:23.771Z"
    },
    {
      "id": 321580403,
      "name": "埔頭街(鹿港老街)",
      "facilityType": "tourist_attraction",
      "facilityLabel": "🧭 旅遊景點",
      "lat": 24.057044,
      "lng": 120.4319752,
      "source": "OpenStreetMap",
      "updatedAt": "2026-06-12T21:04:23.772Z"
    },
    {
      "id": 321580410,
      "name": "九曲巷",
      "facilityType": "tourist_attraction",
      "facilityLabel": "🧭 旅遊景點",
      "lat": 24.0541863,
      "lng": 120.4344689,
      "source": "OpenStreetMap",
      "updatedAt": "2026-06-12T21:04:23.772Z"
    },
    {
      "id": 322992910,
      "name": "鹿港民俗文物館",
      "facilityType": "culture",
      "facilityLabel": "🎨 藝文場館",
      "lat": 24.054172,
      "lng": 120.4361953,
      "source": "OpenStreetMap",
      "updatedAt": "2026-06-12T21:04:23.773Z"
    },
    {
      "id": 322993899,
      "name": "摸乳巷",
      "facilityType": "tourist_attraction",
      "facilityLabel": "🧭 旅遊景點",
      "lat": 24.0516819,
      "lng": 120.4325593,
      "source": "OpenStreetMap",
      "updatedAt": "2026-06-12T21:04:23.773Z"
    },
    {
      "id": 324250497,
      "name": "玻璃媽祖廟",
      "facilityType": "tourist_attraction",
      "facilityLabel": "🧭 旅遊景點",
      "lat": 24.0692346,
      "lng": 120.3946166,
      "source": "OpenStreetMap",
      "updatedAt": "2026-06-12T21:04:23.774Z",
      "address": "505彰化縣鹿港鎮鹿工南四路28號"
    },
    {
      "id": 327242500,
      "name": "意樓",
      "facilityType": "tourist_attraction",
      "facilityLabel": "🧭 旅遊景點",
      "lat": 24.0529391,
      "lng": 120.4354945,
      "source": "OpenStreetMap",
      "updatedAt": "2026-06-12T21:04:23.774Z"
    },
    {
      "id": 327242502,
      "name": "金門館",
      "facilityType": "tourist_attraction",
      "facilityLabel": "🧭 旅遊景點",
      "lat": 24.0501016,
      "lng": 120.4354501,
      "source": "OpenStreetMap",
      "updatedAt": "2026-06-12T21:04:23.775Z",
      "address": "彰化縣鹿港鎮金門街54號"
    },
    {
      "id": 327242506,
      "name": "日茂行",
      "facilityType": "tourist_attraction",
      "facilityLabel": "🧭 旅遊景點",
      "lat": 24.0587046,
      "lng": 120.4291841,
      "source": "OpenStreetMap",
      "updatedAt": "2026-06-12T21:04:23.775Z"
    },
    {
      "id": 561803804,
      "name": "台糖鹿港車站",
      "facilityType": "visitor_center",
      "facilityLabel": "🛎 旅客中心",
      "lat": 24.0505163,
      "lng": 120.4371133,
      "source": "OpenStreetMap",
      "updatedAt": "2026-06-12T21:04:23.776Z"
    },
    {
      "id": 722629573,
      "name": "鹿港北區遊客服務中心",
      "facilityType": "visitor_center",
      "facilityLabel": "🛎 旅客中心",
      "lat": 24.059408,
      "lng": 120.4340989,
      "source": "OpenStreetMap",
      "updatedAt": "2026-06-12T21:04:23.776Z",
      "address": "彰化縣鹿港鎮埔崙里13鄰復興路506號"
    },
    {
      "id": 754483876,
      "name": "簡單美味工坊 老街店",
      "facilityType": "tourist_attraction",
      "facilityLabel": "🧭 旅遊景點",
      "lat": 24.0578043,
      "lng": 120.4313377,
      "source": "OpenStreetMap",
      "updatedAt": "2026-06-12T21:04:23.777Z"
    },
    {
      "id": 8027155,
      "name": "新祖宮",
      "facilityType": "tourist_attraction",
      "facilityLabel": "🧭 旅遊景點",
      "lat": 24.0581558,
      "lng": 120.4313066,
      "source": "OpenStreetMap",
      "updatedAt": "2026-06-12T21:04:23.777Z",
      "address": "彰化縣鹿港鎮埔頭街96號"
    }
  ]
}
