{"city":"台南市","district":"北區","category":"medical","updatedAt":"2026-06-11T02:40:46.199Z","rev":1,"count":98,"items":[{"id":2619366840,"name":"康是美","lat":23.0167238,"lng":120.1938885,"address":"704臺南市北區文賢路1122巷9號","hasBabyChanging":false,"hasAccessible":false,"source":"OpenStreetMap","updatedAt":"2026-06-11T02:40:46.199Z","facilityType":"pharmacy","facilityLabel":"💊 藥妝","phone":"+886 6 358 4016","website":null,"wheelchair":false,"needsAddr":false},{"id":2833118443,"name":"北門診所","lat":22.9981291,"lng":120.2122316,"address":null,"hasBabyChanging":false,"hasAccessible":false,"source":"OpenStreetMap","updatedAt":"2026-06-11T02:40:46.199Z","facilityType":"clinic","facilityLabel":"🩺 診所","phone":null,"website":null,"wheelchair":false,"needsAddr":true},{"id":3498355084,"name":"九翌復健科診所","lat":23.0029213,"lng":120.2028669,"address":"704台南市北區公園南路358號","hasBabyChanging":false,"hasAccessible":false,"source":"OpenStreetMap","updatedAt":"2026-06-11T02:40:46.199Z","facilityType":"clinic","facilityLabel":"🦽 復健科","phone":"+886 6 222 5555","website":null,"wheelchair":false,"needsAddr":false},{"id":3498356924,"name":"和家安復健科診所","lat":23.0100543,"lng":120.195733,"address":"704台南市北區和緯路三段285號","hasBabyChanging":false,"hasAccessible":false,"source":"OpenStreetMap","updatedAt":"2026-06-11T02:40:46.199Z","facilityType":"clinic","facilityLabel":"🦽 復健科","phone":"+886 6 358 5608","website":null,"wheelchair":false,"needsAddr":false},{"id":3498357636,"name":"長欣復健科診所","lat":23.0038842,"lng":120.1995303,"address":"704台南市北區臨安路二段209號","hasBabyChanging":false,"hasAccessible":false,"source":"OpenStreetMap","updatedAt":"2026-06-11T02:40:46.199Z","facilityType":"clinic","facilityLabel":"🦽 復健科","phone":"+886 6 258 9625","website":null,"wheelchair":false,"needsAddr":false},{"id":3498386393,"name":"開元骨外科診所","lat":23.0088927,"lng":120.2232461,"address":null,"hasBabyChanging":false,"hasAccessible":false,"source":"OpenStreetMap","updatedAt":"2026-06-11T02:40:46.199Z","facilityType":"clinic","facilityLabel":"🩺 診所","phone":"+886 6 236 1566","website":null,"wheelchair":false,"needsAddr":true},{"id":3517267142,"name":"國泰中醫診所","lat":23.0157161,"lng":120.1934213,"address":null,"hasBabyChanging":false,"hasAccessible":false,"source":"OpenStreetMap","updatedAt":"2026-06-11T02:40:46.199Z","facilityType":"clinic","facilityLabel":"🩺 診所","phone":null,"website":null,"wheelchair":false,"needsAddr":true},{"id":3640162700,"name":"台安藥局","lat":23.0086716,"lng":120.222755,"address":null,"hasBabyChanging":false,"hasAccessible":false,"source":"OpenStreetMap","updatedAt":"2026-06-11T02:40:46.199Z","facilityType":"pharmacy","facilityLabel":"💊 藥局","phone":null,"website":null,"wheelchair":false,"needsAddr":true},{"id":3739976825,"name":"丁丁藥局","lat":23.008133,"lng":120.2071518,"address":"70448臺南市北區西門路四段100號","hasBabyChanging":false,"hasAccessible":false,"source":"OpenStreetMap","updatedAt":"2026-06-11T02:40:46.199Z","facilityType":"pharmacy","facilityLabel":"💊 藥局","phone":"+886-6 281 8566","website":"https://www.norbelbaby.com.tw/","wheelchair":false,"needsAddr":false},{"id":4225440692,"name":"芳德診所","lat":23.0027162,"lng":120.1946562,"address":null,"hasBabyChanging":false,"hasAccessible":false,"source":"OpenStreetMap","updatedAt":"2026-06-11T02:40:46.199Z","facilityType":"clinic","facilityLabel":"🩺 診所","phone":null,"website":null,"wheelchair":false,"needsAddr":true},{"id":4239287398,"name":"安田耳鼻喉科診所","lat":23.0033208,"lng":120.1981211,"address":null,"hasBabyChanging":false,"hasAccessible":false,"source":"OpenStreetMap","updatedAt":"2026-06-11T02:40:46.199Z","facilityType":"clinic","facilityLabel":"👂 耳鼻喉科","phone":null,"website":null,"wheelchair":false,"needsAddr":true},{"id":4239347791,"name":"臨安眼科診所","lat":23.0031553,"lng":120.1975792,"address":null,"hasBabyChanging":false,"hasAccessible":false,"source":"OpenStreetMap","updatedAt":"2026-06-11T02:40:46.199Z","facilityType":"clinic","facilityLabel":"🩺 診所","phone":null,"website":null,"wheelchair":false,"needsAddr":true},{"id":4239355290,"name":"許庭碩耳鼻喉科診所","lat":23.0042896,"lng":120.2011955,"address":null,"hasBabyChanging":false,"hasAccessible":false,"source":"OpenStreetMap","updatedAt":"2026-06-11T02:40:46.199Z","facilityType":"clinic","facilityLabel":"👂 耳鼻喉科","phone":null,"website":null,"wheelchair":false,"needsAddr":true},{"id":4550970494,"name":"王恭亮復健科診所","lat":23.0058562,"lng":120.2102124,"address":"臺南市北區公園路375號","hasBabyChanging":false,"hasAccessible":false,"source":"OpenStreetMap","updatedAt":"2026-06-11T02:40:46.199Z","facilityType":"clinic","facilityLabel":"🦽 復健科","phone":null,"website":null,"wheelchair":false,"needsAddr":false},{"id":4570579195,"name":"敦品中醫診所","lat":23.002299,"lng":120.2030553,"address":"700臺南市北區西門路三段77號","hasBabyChanging":false,"hasAccessible":false,"source":"OpenStreetMap","updatedAt":"2026-06-11T02:40:46.199Z","facilityType":"clinic","facilityLabel":"🩺 診所","phone":null,"website":null,"wheelchair":false,"needsAddr":false},{"id":4584703596,"name":"風典聯合門診","lat":23.0003816,"lng":120.2270774,"address":"臺南市北區小東路171號","hasBabyChanging":false,"hasAccessible":false,"source":"OpenStreetMap","updatedAt":"2026-06-11T02:40:46.199Z","facilityType":"clinic","facilityLabel":"🩺 診所","phone":"+886 6 275 2887","website":null,"wheelchair":false,"needsAddr":false},{"id":4588626192,"name":"台安藥局公園店","lat":23.0133357,"lng":120.2121525,"address":null,"hasBabyChanging":false,"hasAccessible":false,"source":"OpenStreetMap","updatedAt":"2026-06-11T02:40:46.199Z","facilityType":"pharmacy","facilityLabel":"💊 藥局","phone":null,"website":null,"wheelchair":false,"needsAddr":true},{"id":4591552618,"name":"傅耳鼻喉科診所","lat":23.0178003,"lng":120.1930409,"address":null,"hasBabyChanging":false,"hasAccessible":false,"source":"OpenStreetMap","updatedAt":"2026-06-11T02:40:46.199Z","facilityType":"clinic","facilityLabel":"👂 耳鼻喉科","phone":null,"website":null,"wheelchair":false,"needsAddr":true},{"id":4601358290,"name":"大新中醫藥器材行","lat":23.014066,"lng":120.2050953,"address":"70465臺南市北區文成一路106號","hasBabyChanging":false,"hasAccessible":false,"source":"OpenStreetMap","updatedAt":"2026-06-11T02:40:46.199Z","facilityType":"pharmacy","facilityLabel":"💊 藥局","phone":"+886 6 251 8846","website":"http://tahsin1984.blogspot.com/","wheelchair":false,"needsAddr":false},{"id":4776828838,"name":"安安婦幼中心","lat":23.0085287,"lng":120.2225589,"address":null,"hasBabyChanging":false,"hasAccessible":false,"source":"OpenStreetMap","updatedAt":"2026-06-11T02:40:46.199Z","facilityType":"clinic","facilityLabel":"🩺 診所","phone":null,"website":null,"wheelchair":false,"needsAddr":true},{"id":5105461964,"name":"大樹藥 西門藥局","lat":23.0113651,"lng":120.2083917,"address":"704臺南市北區西門路四段237號","hasBabyChanging":false,"hasAccessible":false,"source":"OpenStreetMap","updatedAt":"2026-06-11T02:40:46.199Z","facilityType":"pharmacy","facilityLabel":"💊 藥局","phone":null,"website":null,"wheelchair":false,"needsAddr":false},{"id":5269361958,"name":"文元診所","lat":23.0137063,"lng":120.200655,"address":"704台南市北區海安路三段688號","hasBabyChanging":false,"hasAccessible":false,"source":"OpenStreetMap","updatedAt":"2026-06-11T02:40:46.199Z","facilityType":"clinic","facilityLabel":"🩺 診所","phone":null,"website":null,"wheelchair":false,"needsAddr":false},{"id":5269361959,"name":"維新診所","lat":23.0125523,"lng":120.2007657,"address":"704台南市北區海安路三段600號","hasBabyChanging":false,"hasAccessible":false,"source":"OpenStreetMap","updatedAt":"2026-06-11T02:40:46.199Z","facilityType":"clinic","facilityLabel":"🩺 診所","phone":null,"website":null,"wheelchair":false,"needsAddr":false},{"id":5279071159,"name":"眾安藥局","lat":23.0141681,"lng":120.1938763,"address":"704台南市北區文賢路1034號","hasBabyChanging":false,"hasAccessible":false,"source":"OpenStreetMap","updatedAt":"2026-06-11T02:40:46.199Z","facilityType":"pharmacy","facilityLabel":"💊 藥局","phone":null,"website":null,"wheelchair":false,"needsAddr":false},{"id":5279071160,"name":"永興牙醫","lat":23.0137659,"lng":120.1936554,"address":"704台南市北區文賢路677號一樓","hasBabyChanging":false,"hasAccessible":false,"source":"OpenStreetMap","updatedAt":"2026-06-11T02:40:46.199Z","facilityType":"dentist","facilityLabel":"🦷 牙醫","phone":null,"website":null,"wheelchair":false,"needsAddr":false},{"id":5279071162,"name":"王界三小兒科","lat":23.0149037,"lng":120.1937887,"address":"704台南市北區文賢路1068號","hasBabyChanging":false,"hasAccessible":false,"source":"OpenStreetMap","updatedAt":"2026-06-11T02:40:46.199Z","facilityType":"clinic","facilityLabel":"👶 小兒科","phone":null,"website":null,"wheelchair":false,"needsAddr":false},{"id":5279071164,"name":"念平牙醫","lat":23.0147582,"lng":120.1935496,"address":"704台南市北區文賢路729號","hasBabyChanging":false,"hasAccessible":false,"source":"OpenStreetMap","updatedAt":"2026-06-11T02:40:46.199Z","facilityType":"dentist","facilityLabel":"🦷 牙醫","phone":null,"website":null,"wheelchair":false,"needsAddr":false},{"id":5434419299,"name":"陳興中家庭醫學科診所","lat":23.0139483,"lng":120.1912024,"address":"704台南市北區大港街94號","hasBabyChanging":false,"hasAccessible":false,"source":"OpenStreetMap","updatedAt":"2026-06-11T02:40:46.199Z","facilityType":"clinic","facilityLabel":"🩺 診所","phone":"+886-6-2801908","website":null,"wheelchair":false,"needsAddr":false},{"id":5553979684,"name":"府城動物醫院","lat":23.000781,"lng":120.1984704,"address":null,"hasBabyChanging":false,"hasAccessible":false,"source":"OpenStreetMap","updatedAt":"2026-06-11T02:40:46.199Z","facilityType":"vet","facilityLabel":"🐾 動物醫院","phone":null,"website":null,"wheelchair":false,"needsAddr":true},{"id":5611003215,"name":"屈臣氏","lat":23.0110425,"lng":120.2255802,"address":null,"hasBabyChanging":false,"hasAccessible":false,"source":"OpenStreetMap","updatedAt":"2026-06-11T02:40:46.199Z","facilityType":"pharmacy","facilityLabel":"💊 藥妝","phone":null,"website":null,"wheelchair":false,"needsAddr":true},{"id":5873184670,"name":"文賢內科診所","lat":23.0133167,"lng":120.193651,"address":"704臺南市北區文賢路629號","hasBabyChanging":false,"hasAccessible":false,"source":"OpenStreetMap","updatedAt":"2026-06-11T02:40:46.199Z","facilityType":"clinic","facilityLabel":"🩺 診所","phone":null,"website":null,"wheelchair":false,"needsAddr":false},{"id":6467517685,"name":"弘典內科診所","lat":22.9992285,"lng":120.2309089,"address":"臺南市北區小東路323號","hasBabyChanging":false,"hasAccessible":false,"source":"OpenStreetMap","updatedAt":"2026-06-11T02:40:46.199Z","facilityType":"clinic","facilityLabel":"🩺 診所","phone":null,"website":null,"wheelchair":false,"needsAddr":false},{"id":7668202487,"name":"得恩牙醫診所","lat":22.9999188,"lng":120.2016299,"address":null,"hasBabyChanging":false,"hasAccessible":false,"source":"OpenStreetMap","updatedAt":"2026-06-11T02:40:46.199Z","facilityType":"dentist","facilityLabel":"🦷 牙醫","phone":null,"website":null,"wheelchair":false,"needsAddr":true},{"id":11524917335,"name":"慈恩藥師藥局","lat":23.0096196,"lng":120.2231327,"address":null,"hasBabyChanging":false,"hasAccessible":false,"source":"OpenStreetMap","updatedAt":"2026-06-11T02:40:46.199Z","facilityType":"pharmacy","facilityLabel":"💊 藥局","phone":null,"website":null,"wheelchair":false,"needsAddr":true},{"id":11703740487,"name":"華成藥局","lat":23.0075532,"lng":120.2257355,"address":null,"hasBabyChanging":false,"hasAccessible":false,"source":"OpenStreetMap","updatedAt":"2026-06-11T02:40:46.199Z","facilityType":"pharmacy","facilityLabel":"💊 藥局","phone":null,"website":null,"wheelchair":false,"needsAddr":true},{"id":11911395312,"name":"維康牙醫","lat":23.0106249,"lng":120.2235198,"address":null,"hasBabyChanging":false,"hasAccessible":false,"source":"OpenStreetMap","updatedAt":"2026-06-11T02:40:46.199Z","facilityType":"dentist","facilityLabel":"🦷 牙醫","phone":null,"website":null,"wheelchair":false,"needsAddr":true},{"id":11911540201,"name":"一日玩美","lat":23.0105281,"lng":120.2243011,"address":null,"hasBabyChanging":false,"hasAccessible":false,"source":"OpenStreetMap","updatedAt":"2026-06-11T02:40:46.199Z","facilityType":"dentist","facilityLabel":"🦷 牙醫","phone":null,"website":null,"wheelchair":false,"needsAddr":true},{"id":11993608152,"name":"立民牙醫診所","lat":23.0080103,"lng":120.2206031,"address":null,"hasBabyChanging":false,"hasAccessible":false,"source":"OpenStreetMap","updatedAt":"2026-06-11T02:40:46.199Z","facilityType":"dentist","facilityLabel":"🦷 牙醫","phone":null,"website":null,"wheelchair":false,"needsAddr":true},{"id":12042838184,"name":"凱旋動物醫院","lat":23.0126955,"lng":120.2113936,"address":null,"hasBabyChanging":false,"hasAccessible":false,"source":"OpenStreetMap","updatedAt":"2026-06-11T02:40:46.199Z","facilityType":"vet","facilityLabel":"🐾 動物醫院","phone":null,"website":null,"wheelchair":false,"needsAddr":true},{"id":12042885204,"name":"一成牙醫","lat":23.0180655,"lng":120.2077077,"address":null,"hasBabyChanging":false,"hasAccessible":false,"source":"OpenStreetMap","updatedAt":"2026-06-11T02:40:46.199Z","facilityType":"dentist","facilityLabel":"🦷 牙醫","phone":null,"website":null,"wheelchair":false,"needsAddr":true},{"id":12047144808,"name":"新南海醫事務所","lat":22.9999916,"lng":120.2282939,"address":null,"hasBabyChanging":false,"hasAccessible":false,"source":"OpenStreetMap","updatedAt":"2026-06-11T02:40:46.199Z","facilityType":"clinic","facilityLabel":"🩺 診所","phone":null,"website":null,"wheelchair":false,"needsAddr":true},{"id":12067429323,"name":"健康藥局","lat":23.0085295,"lng":120.2205401,"address":null,"hasBabyChanging":false,"hasAccessible":false,"source":"OpenStreetMap","updatedAt":"2026-06-11T02:40:46.199Z","facilityType":"pharmacy","facilityLabel":"💊 藥局","phone":null,"website":null,"wheelchair":false,"needsAddr":true},{"id":12095069305,"name":"大道診所","lat":23.0127259,"lng":120.2167457,"address":null,"hasBabyChanging":false,"hasAccessible":false,"source":"OpenStreetMap","updatedAt":"2026-06-11T02:40:46.199Z","facilityType":"clinic","facilityLabel":"🩺 診所","phone":null,"website":null,"wheelchair":false,"needsAddr":true},{"id":12107573510,"name":"藥局","lat":23.0085454,"lng":120.2220219,"address":null,"hasBabyChanging":false,"hasAccessible":false,"source":"OpenStreetMap","updatedAt":"2026-06-11T02:40:46.199Z","facilityType":"pharmacy","facilityLabel":"💊 藥局","phone":null,"website":null,"wheelchair":false,"needsAddr":true},{"id":12135732286,"name":"新親親藥局","lat":23.0097615,"lng":120.2244307,"address":null,"hasBabyChanging":false,"hasAccessible":false,"source":"OpenStreetMap","updatedAt":"2026-06-11T02:40:46.199Z","facilityType":"pharmacy","facilityLabel":"💊 藥局","phone":null,"website":null,"wheelchair":false,"needsAddr":true},{"id":12135750314,"name":"廖泰政診所","lat":23.0095648,"lng":120.2241641,"address":null,"hasBabyChanging":false,"hasAccessible":false,"source":"OpenStreetMap","updatedAt":"2026-06-11T02:40:46.199Z","facilityType":"clinic","facilityLabel":"🩺 診所","phone":null,"website":null,"wheelchair":false,"needsAddr":true},{"id":12203470895,"name":"甜心動物醫院","lat":23.0016267,"lng":120.228728,"address":null,"hasBabyChanging":false,"hasAccessible":false,"source":"OpenStreetMap","updatedAt":"2026-06-11T02:40:46.199Z","facilityType":"vet","facilityLabel":"🐾 動物醫院","phone":null,"website":null,"wheelchair":false,"needsAddr":true},{"id":12207974582,"name":"大樹藥局","lat":23.014608,"lng":120.2131558,"address":null,"hasBabyChanging":false,"hasAccessible":false,"source":"OpenStreetMap","updatedAt":"2026-06-11T02:40:46.199Z","facilityType":"pharmacy","facilityLabel":"💊 藥局","phone":null,"website":null,"wheelchair":false,"needsAddr":true},{"id":12207984994,"name":"北安勤美皮膚科診所","lat":23.0182992,"lng":120.2080937,"address":null,"hasBabyChanging":false,"hasAccessible":false,"source":"OpenStreetMap","updatedAt":"2026-06-11T02:40:46.199Z","facilityType":"clinic","facilityLabel":"🩺 診所","phone":null,"website":null,"wheelchair":false,"needsAddr":true},{"id":12208001902,"name":"診所","lat":23.0182005,"lng":120.2082244,"address":null,"hasBabyChanging":false,"hasAccessible":false,"source":"OpenStreetMap","updatedAt":"2026-06-11T02:40:46.199Z","facilityType":"clinic","facilityLabel":"👂 耳鼻喉科","phone":null,"website":null,"wheelchair":false,"needsAddr":true},{"id":12314058600,"name":"牙醫診所","lat":22.9997062,"lng":120.2015889,"address":null,"hasBabyChanging":false,"hasAccessible":false,"source":"OpenStreetMap","updatedAt":"2026-06-11T02:40:46.199Z","facilityType":"dentist","facilityLabel":"🦷 牙醫","phone":null,"website":null,"wheelchair":false,"needsAddr":true},{"id":12385617636,"name":"王克生小兒科診所","lat":23.010207,"lng":120.224449,"address":null,"hasBabyChanging":false,"hasAccessible":false,"source":"OpenStreetMap","updatedAt":"2026-06-11T02:40:46.199Z","facilityType":"clinic","facilityLabel":"👶 小兒科","phone":null,"website":null,"wheelchair":false,"needsAddr":true},{"id":12385636398,"name":"開元診所","lat":23.0102307,"lng":120.2244825,"address":null,"hasBabyChanging":false,"hasAccessible":false,"source":"OpenStreetMap","updatedAt":"2026-06-11T02:40:46.199Z","facilityType":"clinic","facilityLabel":"🩺 診所","phone":null,"website":null,"wheelchair":false,"needsAddr":true},{"id":12530547638,"name":"診所","lat":23.0057444,"lng":120.2245188,"address":null,"hasBabyChanging":false,"hasAccessible":false,"source":"OpenStreetMap","updatedAt":"2026-06-11T02:40:46.199Z","facilityType":"clinic","facilityLabel":"🩺 診所","phone":null,"website":null,"wheelchair":false,"needsAddr":true},{"id":12540712886,"name":"藥局","lat":23.0150035,"lng":120.2131661,"address":null,"hasBabyChanging":false,"hasAccessible":false,"source":"OpenStreetMap","updatedAt":"2026-06-11T02:40:46.199Z","facilityType":"pharmacy","facilityLabel":"💊 藥局","phone":null,"website":null,"wheelchair":false,"needsAddr":true},{"id":12543138945,"name":"家林中醫診所","lat":23.0100643,"lng":120.1850777,"address":"704臺南市北區中華北路一段151號","hasBabyChanging":false,"hasAccessible":false,"source":"OpenStreetMap","updatedAt":"2026-06-11T02:40:46.199Z","facilityType":"clinic","facilityLabel":"🩺 診所","phone":null,"website":null,"wheelchair":false,"needsAddr":false},{"id":12594454065,"name":"診所","lat":23.0169394,"lng":120.207494,"address":null,"hasBabyChanging":false,"hasAccessible":false,"source":"OpenStreetMap","updatedAt":"2026-06-11T02:40:46.199Z","facilityType":"clinic","facilityLabel":"🩺 診所","phone":null,"website":null,"wheelchair":false,"needsAddr":true},{"id":12598043287,"name":"大樹藥局","lat":23.0113068,"lng":120.1940786,"address":null,"hasBabyChanging":false,"hasAccessible":false,"source":"OpenStreetMap","updatedAt":"2026-06-11T02:40:46.199Z","facilityType":"pharmacy","facilityLabel":"💊 藥局","phone":null,"website":null,"wheelchair":false,"needsAddr":true},{"id":12619992259,"name":"診所","lat":23.0064942,"lng":120.2174982,"address":null,"hasBabyChanging":false,"hasAccessible":false,"source":"OpenStreetMap","updatedAt":"2026-06-11T02:40:46.199Z","facilityType":"clinic","facilityLabel":"🩺 診所","phone":null,"website":null,"wheelchair":false,"needsAddr":true},{"id":12627823734,"name":"藥局","lat":23.0091764,"lng":120.2236339,"address":null,"hasBabyChanging":false,"hasAccessible":false,"source":"OpenStreetMap","updatedAt":"2026-06-11T02:40:46.199Z","facilityType":"pharmacy","facilityLabel":"💊 藥局","phone":null,"website":null,"wheelchair":false,"needsAddr":true},{"id":12627828725,"name":"診所","lat":23.0095671,"lng":120.2231038,"address":null,"hasBabyChanging":false,"hasAccessible":false,"source":"OpenStreetMap","updatedAt":"2026-06-11T02:40:46.199Z","facilityType":"clinic","facilityLabel":"🩺 診所","phone":null,"website":null,"wheelchair":false,"needsAddr":true},{"id":12649891848,"name":"藥局","lat":23.0070269,"lng":120.2196954,"address":null,"hasBabyChanging":false,"hasAccessible":false,"source":"OpenStreetMap","updatedAt":"2026-06-11T02:40:46.199Z","facilityType":"pharmacy","facilityLabel":"💊 藥局","phone":null,"website":null,"wheelchair":false,"needsAddr":true},{"id":12657824440,"name":"日藥本舖","lat":23.0089628,"lng":120.2232631,"address":null,"hasBabyChanging":false,"hasAccessible":false,"source":"OpenStreetMap","updatedAt":"2026-06-11T02:40:46.199Z","facilityType":"pharmacy","facilityLabel":"💊 藥局","phone":null,"website":null,"wheelchair":false,"needsAddr":true},{"id":12657870901,"name":"泰安診所","lat":23.0089789,"lng":120.2233127,"address":null,"hasBabyChanging":false,"hasAccessible":false,"source":"OpenStreetMap","updatedAt":"2026-06-11T02:40:46.199Z","facilityType":"clinic","facilityLabel":"🩺 診所","phone":null,"website":null,"wheelchair":false,"needsAddr":true},{"id":12657881430,"name":"華泰藥局","lat":23.0090258,"lng":120.2228799,"address":null,"hasBabyChanging":false,"hasAccessible":false,"source":"OpenStreetMap","updatedAt":"2026-06-11T02:40:46.199Z","facilityType":"pharmacy","facilityLabel":"💊 藥局","phone":null,"website":null,"wheelchair":false,"needsAddr":true},{"id":12666515145,"name":"仙展藥行","lat":23.0127585,"lng":120.2166503,"address":null,"hasBabyChanging":false,"hasAccessible":false,"source":"OpenStreetMap","updatedAt":"2026-06-11T02:40:46.199Z","facilityType":"pharmacy","facilityLabel":"💊 藥局","phone":null,"website":null,"wheelchair":false,"needsAddr":true},{"id":12715784422,"name":"全植美牙醫診所","lat":23.0064535,"lng":120.2214046,"address":null,"hasBabyChanging":false,"hasAccessible":false,"source":"OpenStreetMap","updatedAt":"2026-06-11T02:40:46.199Z","facilityType":"dentist","facilityLabel":"🦷 牙醫","phone":null,"website":null,"wheelchair":false,"needsAddr":true},{"id":12715824627,"name":"蕭尹瑩身心診所","lat":23.005937,"lng":120.2217986,"address":null,"hasBabyChanging":false,"hasAccessible":false,"source":"OpenStreetMap","updatedAt":"2026-06-11T02:40:46.199Z","facilityType":"clinic","facilityLabel":"🩺 診所","phone":null,"website":null,"wheelchair":false,"needsAddr":true},{"id":12715862779,"name":"成功動物醫院","lat":23.0072649,"lng":120.220879,"address":null,"hasBabyChanging":false,"hasAccessible":false,"source":"OpenStreetMap","updatedAt":"2026-06-11T02:40:46.199Z","facilityType":"vet","facilityLabel":"🐾 動物醫院","phone":null,"website":null,"wheelchair":false,"needsAddr":true},{"id":12715872251,"name":"診所","lat":23.0065492,"lng":120.2217876,"address":null,"hasBabyChanging":false,"hasAccessible":false,"source":"OpenStreetMap","updatedAt":"2026-06-11T02:40:46.199Z","facilityType":"clinic","facilityLabel":"🩺 診所","phone":null,"website":null,"wheelchair":false,"needsAddr":true},{"id":12715882203,"name":"牙醫診所","lat":23.0051617,"lng":120.2226617,"address":null,"hasBabyChanging":false,"hasAccessible":false,"source":"OpenStreetMap","updatedAt":"2026-06-11T02:40:46.199Z","facilityType":"dentist","facilityLabel":"🦷 牙醫","phone":null,"website":null,"wheelchair":false,"needsAddr":true},{"id":12721927688,"name":"全國動物醫院","lat":23.0121413,"lng":120.209188,"address":null,"hasBabyChanging":false,"hasAccessible":false,"source":"OpenStreetMap","updatedAt":"2026-06-11T02:40:46.199Z","facilityType":"vet","facilityLabel":"🐾 動物醫院","phone":null,"website":null,"wheelchair":false,"needsAddr":true},{"id":12732630556,"name":"藥局","lat":23.0125955,"lng":120.2048179,"address":null,"hasBabyChanging":false,"hasAccessible":false,"source":"OpenStreetMap","updatedAt":"2026-06-11T02:40:46.199Z","facilityType":"pharmacy","facilityLabel":"💊 藥局","phone":null,"website":null,"wheelchair":false,"needsAddr":true},{"id":12732746403,"name":"診所","lat":23.0016034,"lng":120.1978324,"address":null,"hasBabyChanging":false,"hasAccessible":false,"source":"OpenStreetMap","updatedAt":"2026-06-11T02:40:46.199Z","facilityType":"clinic","facilityLabel":"🩺 診所","phone":null,"website":null,"wheelchair":false,"needsAddr":true},{"id":12734045515,"name":"牙醫診所","lat":23.0107706,"lng":120.2252575,"address":null,"hasBabyChanging":false,"hasAccessible":false,"source":"OpenStreetMap","updatedAt":"2026-06-11T02:40:46.199Z","facilityType":"dentist","facilityLabel":"🦷 牙醫","phone":null,"website":null,"wheelchair":false,"needsAddr":true},{"id":12738254570,"name":"福民內科診所","lat":23.0048165,"lng":120.2189842,"address":null,"hasBabyChanging":false,"hasAccessible":false,"source":"OpenStreetMap","updatedAt":"2026-06-11T02:40:46.199Z","facilityType":"clinic","facilityLabel":"🩺 診所","phone":null,"website":null,"wheelchair":false,"needsAddr":true},{"id":12749246164,"name":"牙醫診所","lat":23.0071198,"lng":120.2200985,"address":null,"hasBabyChanging":false,"hasAccessible":false,"source":"OpenStreetMap","updatedAt":"2026-06-11T02:40:46.199Z","facilityType":"dentist","facilityLabel":"🦷 牙醫","phone":null,"website":null,"wheelchair":false,"needsAddr":true},{"id":12753452658,"name":"明山藥局","lat":23.0133277,"lng":120.2145793,"address":null,"hasBabyChanging":false,"hasAccessible":false,"source":"OpenStreetMap","updatedAt":"2026-06-11T02:40:46.199Z","facilityType":"pharmacy","facilityLabel":"💊 藥局","phone":null,"website":null,"wheelchair":false,"needsAddr":true},{"id":12756551291,"name":"藥局","lat":23.0039693,"lng":120.218704,"address":null,"hasBabyChanging":false,"hasAccessible":false,"source":"OpenStreetMap","updatedAt":"2026-06-11T02:40:46.199Z","facilityType":"pharmacy","facilityLabel":"💊 藥局","phone":null,"website":null,"wheelchair":false,"needsAddr":true},{"id":12856587211,"name":"重維輔具義肢","lat":23.0053956,"lng":120.2189962,"address":null,"hasBabyChanging":false,"hasAccessible":true,"source":"OpenStreetMap","updatedAt":"2026-06-11T02:40:46.199Z","facilityType":"clinic","facilityLabel":"🩺 診所","phone":null,"website":null,"wheelchair":true,"needsAddr":true},{"id":12856641304,"name":"欣平藥局","lat":23.0048264,"lng":120.2187812,"address":null,"hasBabyChanging":false,"hasAccessible":false,"source":"OpenStreetMap","updatedAt":"2026-06-11T02:40:46.199Z","facilityType":"pharmacy","facilityLabel":"💊 藥局","phone":null,"website":null,"wheelchair":false,"needsAddr":true},{"id":13072256315,"name":"陳建宏骨科診所","lat":22.9991385,"lng":120.2327353,"address":null,"hasBabyChanging":false,"hasAccessible":false,"source":"OpenStreetMap","updatedAt":"2026-06-11T02:40:46.199Z","facilityType":"clinic","facilityLabel":"🩺 診所","phone":null,"website":null,"wheelchair":false,"needsAddr":true},{"id":13525576774,"name":"藥局","lat":23.0129152,"lng":120.2201235,"address":null,"hasBabyChanging":false,"hasAccessible":false,"source":"OpenStreetMap","updatedAt":"2026-06-11T02:40:46.199Z","facilityType":"pharmacy","facilityLabel":"💊 藥局","phone":null,"website":null,"wheelchair":false,"needsAddr":true},{"id":13547472300,"name":"開慈牙醫診所","lat":23.0097813,"lng":120.2244687,"address":null,"hasBabyChanging":false,"hasAccessible":false,"source":"OpenStreetMap","updatedAt":"2026-06-11T02:40:46.199Z","facilityType":"dentist","facilityLabel":"🦷 牙醫","phone":null,"website":null,"wheelchair":false,"needsAddr":true},{"id":13571579020,"name":"診所","lat":23.0197766,"lng":120.206187,"address":null,"hasBabyChanging":false,"hasAccessible":false,"source":"OpenStreetMap","updatedAt":"2026-06-11T02:40:46.199Z","facilityType":"clinic","facilityLabel":"🩺 診所","phone":null,"website":null,"wheelchair":false,"needsAddr":true},{"id":13673489529,"name":"宏州西藥局","lat":23.0072719,"lng":120.2195716,"address":null,"hasBabyChanging":false,"hasAccessible":false,"source":"OpenStreetMap","updatedAt":"2026-06-11T02:40:46.199Z","facilityType":"pharmacy","facilityLabel":"💊 藥局","phone":null,"website":null,"wheelchair":false,"needsAddr":true},{"id":13673528276,"name":"開元牙醫診所","lat":23.0057476,"lng":120.2187137,"address":null,"hasBabyChanging":false,"hasAccessible":false,"source":"OpenStreetMap","updatedAt":"2026-06-11T02:40:46.199Z","facilityType":"dentist","facilityLabel":"🦷 牙醫","phone":null,"website":null,"wheelchair":false,"needsAddr":true},{"id":13673530531,"name":"技群物理治療所","lat":23.0058706,"lng":120.2186819,"address":null,"hasBabyChanging":false,"hasAccessible":false,"source":"OpenStreetMap","updatedAt":"2026-06-11T02:40:46.199Z","facilityType":"clinic","facilityLabel":"🩺 診所","phone":null,"website":null,"wheelchair":false,"needsAddr":true},{"id":13687696534,"name":"一方藥局","lat":23.0114897,"lng":120.2238818,"address":null,"hasBabyChanging":false,"hasAccessible":false,"source":"OpenStreetMap","updatedAt":"2026-06-11T02:40:46.199Z","facilityType":"pharmacy","facilityLabel":"💊 藥局","phone":null,"website":null,"wheelchair":false,"needsAddr":true},{"id":13880249322,"name":"牙醫診所","lat":23.0140695,"lng":120.2183284,"address":null,"hasBabyChanging":false,"hasAccessible":false,"source":"OpenStreetMap","updatedAt":"2026-06-11T02:40:46.199Z","facilityType":"dentist","facilityLabel":"🦷 牙醫","phone":null,"website":null,"wheelchair":false,"needsAddr":true},{"id":158821416,"name":"啄木鳥藥局","lat":23.012315,"lng":120.2075416,"address":"704臺南市北區和緯路二段176號","hasBabyChanging":false,"hasAccessible":false,"source":"OpenStreetMap","updatedAt":"2026-06-11T02:40:46.199Z","facilityType":"pharmacy","facilityLabel":"💊 藥局","phone":null,"website":null,"wheelchair":false,"needsAddr":false},{"id":159926467,"name":"奇美醫院永康院區","lat":23.0199602,"lng":120.2215919,"address":"臺南市永康區中華路901號","hasBabyChanging":false,"hasAccessible":false,"source":"OpenStreetMap","updatedAt":"2026-06-11T02:40:46.199Z","facilityType":"hospital","facilityLabel":"🏥 醫院","phone":"+886 06 2822577","website":null,"wheelchair":false,"needsAddr":false},{"id":252918835,"name":"診所","lat":22.9980865,"lng":120.2086459,"address":"臺南市","hasBabyChanging":false,"hasAccessible":false,"source":"OpenStreetMap","updatedAt":"2026-06-11T02:40:46.199Z","facilityType":"clinic","facilityLabel":"🩺 診所","phone":null,"website":null,"wheelchair":false,"needsAddr":false},{"id":280175714,"name":"開元寺慈愛醫院","lat":23.0106669,"lng":120.2225195,"address":"704台南市北區北園街89之1號","hasBabyChanging":false,"hasAccessible":false,"source":"OpenStreetMap","updatedAt":"2026-06-11T02:40:46.199Z","facilityType":"hospital","facilityLabel":"🏥 醫院","phone":null,"website":null,"wheelchair":false,"needsAddr":false},{"id":497986979,"name":"康是美","lat":23.0124588,"lng":120.2066809,"address":"704臺南市北區和緯路二段238號","hasBabyChanging":false,"hasAccessible":true,"source":"OpenStreetMap","updatedAt":"2026-06-11T02:40:46.199Z","facilityType":"pharmacy","facilityLabel":"💊 藥妝","phone":"+886 6 251 9076","website":null,"wheelchair":true,"needsAddr":false},{"id":561150011,"name":"台安藥局","lat":23.0017592,"lng":120.1960324,"address":"臺南市","hasBabyChanging":false,"hasAccessible":false,"source":"OpenStreetMap","updatedAt":"2026-06-11T02:40:46.199Z","facilityType":"pharmacy","facilityLabel":"💊 藥局","phone":null,"website":null,"wheelchair":false,"needsAddr":false},{"id":572229860,"name":"北區衛生所","lat":23.0000565,"lng":120.2111101,"address":null,"hasBabyChanging":false,"hasAccessible":false,"source":"OpenStreetMap","updatedAt":"2026-06-11T02:40:46.199Z","facilityType":"health_center","facilityLabel":"🏥 衛生所","phone":null,"website":null,"wheelchair":false,"needsAddr":true},{"id":20360909,"name":"成大醫院","lat":23.0020264,"lng":120.2196051,"address":"臺南市北區仁愛里12鄰勝利路138號","hasBabyChanging":false,"hasAccessible":false,"source":"OpenStreetMap","updatedAt":"2026-06-11T02:40:46.199Z","facilityType":"hospital","facilityLabel":"🏥 醫院","phone":null,"website":"http://www.hosp.ncku.edu.tw/","wheelchair":false,"needsAddr":false}]}