{"city":"台南市","district":"善化區","category":"medical","updatedAt":"2026-06-11T02:40:46.199Z","rev":1,"count":12,"items":[{"id":3747619872,"name":"屈臣氏","lat":23.1307418,"lng":120.2940393,"address":"741台南市善化區中正路440號","hasBabyChanging":false,"hasAccessible":false,"source":"OpenStreetMap","updatedAt":"2026-06-11T02:40:46.199Z","facilityType":"pharmacy","facilityLabel":"💊 藥妝","phone":"+886 6 583-2784","website":"https://www.watsons.com.tw/","wheelchair":false,"needsAddr":false},{"id":4670536139,"name":"羅吉眼科","lat":23.1292901,"lng":120.293895,"address":"台南市善化區中正路441號","hasBabyChanging":false,"hasAccessible":false,"source":"OpenStreetMap","updatedAt":"2026-06-11T02:40:46.199Z","facilityType":"clinic","facilityLabel":"🩺 診所","phone":null,"website":null,"wheelchair":false,"needsAddr":false},{"id":5609406335,"name":"資生大藥局","lat":23.1333216,"lng":120.3052214,"address":null,"hasBabyChanging":false,"hasAccessible":false,"source":"OpenStreetMap","updatedAt":"2026-06-11T02:40:46.199Z","facilityType":"pharmacy","facilityLabel":"💊 藥局","phone":null,"website":null,"wheelchair":false,"needsAddr":true},{"id":6127623026,"name":"康是美","lat":23.1316401,"lng":120.2939908,"address":null,"hasBabyChanging":false,"hasAccessible":false,"source":"OpenStreetMap","updatedAt":"2026-06-11T02:40:46.199Z","facilityType":"pharmacy","facilityLabel":"💊 藥妝","phone":null,"website":null,"wheelchair":false,"needsAddr":true},{"id":6533220121,"name":"宏科醫院","lat":23.1276524,"lng":120.286898,"address":null,"hasBabyChanging":false,"hasAccessible":false,"source":"OpenStreetMap","updatedAt":"2026-06-11T02:40:46.199Z","facilityType":"hospital","facilityLabel":"🏥 醫院","phone":null,"website":null,"wheelchair":false,"needsAddr":true},{"id":6533220161,"name":"德昌藥局","lat":23.1329532,"lng":120.3031991,"address":null,"hasBabyChanging":false,"hasAccessible":false,"source":"OpenStreetMap","updatedAt":"2026-06-11T02:40:46.199Z","facilityType":"pharmacy","facilityLabel":"💊 藥局","phone":null,"website":null,"wheelchair":false,"needsAddr":true},{"id":6533238290,"name":"遠傳牙醫","lat":23.1298897,"lng":120.2982303,"address":null,"hasBabyChanging":false,"hasAccessible":false,"source":"OpenStreetMap","updatedAt":"2026-06-11T02:40:46.199Z","facilityType":"dentist","facilityLabel":"🦷 牙醫","phone":null,"website":null,"wheelchair":false,"needsAddr":true},{"id":6533238307,"name":"遠東聯盟牙醫","lat":23.1303857,"lng":120.296687,"address":null,"hasBabyChanging":false,"hasAccessible":false,"source":"OpenStreetMap","updatedAt":"2026-06-11T02:40:46.199Z","facilityType":"dentist","facilityLabel":"🦷 牙醫","phone":null,"website":null,"wheelchair":false,"needsAddr":true},{"id":6927533747,"name":"善化區衛生所","lat":23.1328113,"lng":120.2999657,"address":null,"hasBabyChanging":false,"hasAccessible":false,"source":"OpenStreetMap","updatedAt":"2026-06-11T02:40:46.199Z","facilityType":"health_center","facilityLabel":"🏥 衛生所","phone":null,"website":null,"wheelchair":false,"needsAddr":true},{"id":6927533765,"name":"大樹藥局","lat":23.1321417,"lng":120.3032354,"address":null,"hasBabyChanging":false,"hasAccessible":false,"source":"OpenStreetMap","updatedAt":"2026-06-11T02:40:46.199Z","facilityType":"pharmacy","facilityLabel":"💊 藥局","phone":null,"website":"https://www.greattree.com.tw","wheelchair":false,"needsAddr":true},{"id":6952040854,"name":"啄木鳥藥局","lat":23.1325486,"lng":120.3005719,"address":null,"hasBabyChanging":false,"hasAccessible":false,"source":"OpenStreetMap","updatedAt":"2026-06-11T02:40:46.199Z","facilityType":"pharmacy","facilityLabel":"💊 藥局","phone":null,"website":null,"wheelchair":false,"needsAddr":true},{"id":179245760,"name":"流浪動物保護之家","lat":23.1488917,"lng":120.3313763,"address":null,"hasBabyChanging":false,"hasAccessible":false,"source":"OpenStreetMap","updatedAt":"2026-06-11T02:40:46.199Z","facilityType":"vet","facilityLabel":"🐾 動物醫院","phone":null,"website":null,"wheelchair":false,"needsAddr":true}]}