{"city":"台南市","district":"歸仁區","category":"medical","updatedAt":"2026-06-11T02:40:46.199Z","rev":1,"count":7,"items":[{"id":4353340842,"name":"屈臣氏","lat":22.9664025,"lng":120.2957579,"address":"臺南市歸仁區中山路一段579;581號","hasBabyChanging":false,"hasAccessible":false,"source":"OpenStreetMap","updatedAt":"2026-06-11T02:40:46.199Z","facilityType":"pharmacy","facilityLabel":"💊 藥妝","phone":null,"website":null,"wheelchair":false,"needsAddr":false},{"id":5406430338,"name":"德昌藥局","lat":22.9667562,"lng":120.2960289,"address":"711臺南市歸仁區中山路一段516號","hasBabyChanging":false,"hasAccessible":false,"source":"OpenStreetMap","updatedAt":"2026-06-11T02:40:46.199Z","facilityType":"pharmacy","facilityLabel":"💊 藥局","phone":null,"website":null,"wheelchair":false,"needsAddr":false},{"id":5535172926,"name":"安麗兒藥局","lat":22.9667967,"lng":120.2923055,"address":"中山路二段","hasBabyChanging":false,"hasAccessible":false,"source":"OpenStreetMap","updatedAt":"2026-06-11T02:40:46.199Z","facilityType":"pharmacy","facilityLabel":"💊 藥局","phone":null,"website":null,"wheelchair":false,"needsAddr":false},{"id":5636990723,"name":"康是美","lat":22.9681506,"lng":120.2878626,"address":"臺南市歸仁區民權北路35號","hasBabyChanging":false,"hasAccessible":false,"source":"OpenStreetMap","updatedAt":"2026-06-11T02:40:46.199Z","facilityType":"pharmacy","facilityLabel":"💊 藥妝","phone":null,"website":null,"wheelchair":false,"needsAddr":false},{"id":9184283413,"name":"丁丁藥局","lat":22.9675345,"lng":120.2861249,"address":"711012台南市歸仁區中山路三段73號","hasBabyChanging":false,"hasAccessible":false,"source":"OpenStreetMap","updatedAt":"2026-06-11T02:40:46.199Z","facilityType":"pharmacy","facilityLabel":"💊 藥局","phone":null,"website":"https://www.norbelbaby.com.tw/TinTin/","wheelchair":false,"needsAddr":false},{"id":10116210756,"name":"康是美","lat":22.9664015,"lng":120.296083,"address":"臺南市歸仁區中山路一段575號","hasBabyChanging":false,"hasAccessible":false,"source":"OpenStreetMap","updatedAt":"2026-06-11T02:40:46.199Z","facilityType":"pharmacy","facilityLabel":"💊 藥妝","phone":null,"website":null,"wheelchair":false,"needsAddr":false},{"id":1364904160,"name":"寶雅","lat":22.9675873,"lng":120.2846393,"address":"臺南市歸仁區中山路三段133號","hasBabyChanging":false,"hasAccessible":false,"source":"OpenStreetMap","updatedAt":"2026-06-11T02:40:46.199Z","facilityType":"pharmacy","facilityLabel":"💊 藥局","phone":null,"website":null,"wheelchair":false,"needsAddr":false}]}