{"city":"南投縣","category":"family","updatedAt":"2026-06-16T15:54:24.202Z","rev":24,"count":591,"items":[{"id":2206678585,"name":"猴探井遊憩區","lat":23.9089886,"lng":120.6320826,"address":null,"hasBabyChanging":false,"hasAccessible":false,"source":"OpenStreetMap","updatedAt":"2026-06-16T15:54:24.202Z","facilityType":"scenic_area","facilityLabel":"🏞 風景區","phone":null,"website":null,"wheelchair":false,"paid":null,"needsAddr":true},{"id":2664396054,"name":"台灣麻糬主題館觀光工廠","lat":23.9215667,"lng":120.6689167,"address":null,"hasBabyChanging":false,"hasAccessible":false,"source":"OpenStreetMap","updatedAt":"2026-06-16T15:54:24.202Z","facilityType":"factory","facilityLabel":"🏭 觀光工廠","phone":null,"website":null,"wheelchair":false,"paid":null,"needsAddr":true},{"id":4585160570,"name":"南投縣政府文化局演藝廳","lat":23.9082385,"lng":120.6819045,"address":null,"hasBabyChanging":false,"hasAccessible":false,"source":"OpenStreetMap","updatedAt":"2026-06-16T15:54:24.202Z","facilityType":"culture","facilityLabel":"🎨 藝文場館","phone":null,"website":null,"wheelchair":false,"paid":null,"needsAddr":true},{"id":4601060445,"name":"牛角坑休閒農場","lat":23.9435928,"lng":120.7253733,"address":null,"hasBabyChanging":false,"hasAccessible":false,"source":"OpenStreetMap","updatedAt":"2026-06-16T15:54:24.202Z","facilityType":"farm","facilityLabel":"🌾 農場","phone":null,"website":null,"wheelchair":false,"paid":null,"needsAddr":true},{"id":5436454623,"name":"老樟母女樹","lat":23.9463941,"lng":120.6356771,"address":null,"hasBabyChanging":false,"hasAccessible":false,"source":"OpenStreetMap","updatedAt":"2026-06-16T15:54:24.202Z","facilityType":"tourist_attraction","facilityLabel":"🧭 旅遊景點","phone":null,"website":null,"wheelchair":false,"paid":null,"needsAddr":true},{"id":5436454921,"name":"虎山39號防空洞","lat":23.9550356,"lng":120.6921507,"address":"南投縣南投市環山路31號","hasBabyChanging":false,"hasAccessible":false,"source":"OpenStreetMap","updatedAt":"2026-06-16T15:54:24.202Z","facilityType":"tourist_attraction","facilityLabel":"🧭 旅遊景點","phone":null,"website":null,"wheelchair":false,"paid":null,"needsAddr":false},{"id":5436478521,"name":"橫山賞鷹平台","lat":23.8963186,"lng":120.63315,"address":null,"hasBabyChanging":false,"hasAccessible":false,"source":"OpenStreetMap","updatedAt":"2026-06-16T15:54:24.202Z","facilityType":"tourist_attraction","facilityLabel":"🧭 旅遊景點","phone":null,"website":null,"wheelchair":false,"paid":null,"needsAddr":true},{"id":5436478522,"name":"虎山登山道入口","lat":23.9591282,"lng":120.6887723,"address":null,"hasBabyChanging":false,"hasAccessible":false,"source":"OpenStreetMap","updatedAt":"2026-06-16T15:54:24.202Z","facilityType":"tourist_attraction","facilityLabel":"🧭 旅遊景點","phone":null,"website":null,"wheelchair":false,"paid":null,"needsAddr":true},{"id":5447298322,"name":"銅梁火龍表演地點","lat":23.9181811,"lng":120.6935639,"address":null,"hasBabyChanging":false,"hasAccessible":false,"source":"OpenStreetMap","updatedAt":"2026-06-16T15:54:24.202Z","facilityType":"tourist_attraction","facilityLabel":"🧭 旅遊景點","phone":null,"website":null,"wheelchair":false,"paid":null,"needsAddr":true},{"id":5457370040,"name":"南投沙雕園區","lat":23.9301941,"lng":120.67983,"address":null,"hasBabyChanging":false,"hasAccessible":false,"source":"OpenStreetMap","updatedAt":"2026-06-16T15:54:24.202Z","facilityType":"theme_park","facilityLabel":"🎡 遊樂場","phone":null,"website":"sandsculpture.okgo.tw","wheelchair":false,"paid":true,"needsAddr":true},{"id":6249825391,"name":"貓蘿西家族(簡餐/紀念品/歷史建築)","lat":23.9107527,"lng":120.6842804,"address":null,"hasBabyChanging":false,"hasAccessible":false,"source":"OpenStreetMap","updatedAt":"2026-06-16T15:54:24.202Z","facilityType":"tourist_attraction","facilityLabel":"🧭 旅遊景點","phone":null,"website":null,"wheelchair":false,"paid":null,"needsAddr":true},{"id":11230628002,"name":"天空之橋","lat":23.9085825,"lng":120.6316495,"address":null,"hasBabyChanging":false,"hasAccessible":false,"source":"OpenStreetMap","updatedAt":"2026-06-16T15:54:24.202Z","facilityType":"tourist_attraction","facilityLabel":"🧭 旅遊景點","phone":null,"website":null,"wheelchair":false,"paid":null,"needsAddr":true},{"id":233598767,"name":"國史館臺灣文獻館","lat":23.936548600000002,"lng":120.69998545,"address":"54043南投縣南投市光明一路254號","hasBabyChanging":false,"hasAccessible":false,"source":"OpenStreetMap","updatedAt":"2026-06-16T15:54:24.202Z","facilityType":"science","facilityLabel":"🔬 博物館","phone":null,"website":"https://www.th.gov.tw/","wheelchair":false,"paid":null,"needsAddr":false},{"id":257937739,"name":"微熱山丘南投三合院","lat":23.9333752,"lng":120.6384942,"address":null,"hasBabyChanging":false,"hasAccessible":false,"source":"OpenStreetMap","updatedAt":"2026-06-16T15:54:24.202Z","facilityType":"tourist_attraction","facilityLabel":"🧭 旅遊景點","phone":null,"website":null,"wheelchair":false,"paid":null,"needsAddr":true},{"id":283054062,"name":"光華公園(兒童公園)","lat":23.949190950000002,"lng":120.6937011,"address":null,"hasBabyChanging":false,"hasAccessible":false,"source":"OpenStreetMap","updatedAt":"2026-06-16T15:54:24.202Z","facilityType":"park","facilityLabel":"🌳 小型公園","phone":null,"website":null,"wheelchair":false,"paid":null,"needsAddr":true},{"id":293842558,"name":"中山公園","lat":23.9110101,"lng":120.68776220000001,"address":null,"hasBabyChanging":false,"hasAccessible":false,"source":"OpenStreetMap","updatedAt":"2026-06-16T15:54:24.202Z","facilityType":"park","facilityLabel":"🌳 中型公園","phone":null,"website":null,"wheelchair":false,"paid":null,"needsAddr":true},{"id":307401620,"name":"虎山公園","lat":23.95011135,"lng":120.6985095,"address":null,"hasBabyChanging":false,"hasAccessible":false,"source":"OpenStreetMap","updatedAt":"2026-06-16T15:54:24.202Z","facilityType":"park","facilityLabel":"🌳 大型公園","phone":null,"website":null,"wheelchair":false,"paid":null,"needsAddr":true},{"id":307401720,"name":"虎山藝術館","lat":23.94997875,"lng":120.69847335,"address":null,"hasBabyChanging":false,"hasAccessible":true,"source":"OpenStreetMap","updatedAt":"2026-06-16T15:54:24.202Z","facilityType":"science","facilityLabel":"🔬 博物館","phone":null,"website":null,"wheelchair":true,"paid":null,"needsAddr":true},{"id":335704190,"name":"三和公園","lat":23.9023954,"lng":120.6877999,"address":null,"hasBabyChanging":false,"hasAccessible":false,"source":"OpenStreetMap","updatedAt":"2026-06-16T15:54:24.202Z","facilityType":"park","facilityLabel":"🌳 小型公園","phone":null,"website":null,"wheelchair":false,"paid":null,"needsAddr":true},{"id":388794044,"name":"921地震公園","lat":23.92543705,"lng":120.6875187,"address":null,"hasBabyChanging":false,"hasAccessible":false,"source":"OpenStreetMap","updatedAt":"2026-06-16T15:54:24.202Z","facilityType":"park","facilityLabel":"🌳 中型公園","phone":null,"website":null,"wheelchair":false,"paid":null,"needsAddr":true},{"id":422242296,"name":"仁壽公園","lat":23.910091350000002,"lng":120.68485305,"address":null,"hasBabyChanging":false,"hasAccessible":false,"source":"OpenStreetMap","updatedAt":"2026-06-16T15:54:24.202Z","facilityType":"park","facilityLabel":"🌳 小型公園","phone":null,"website":null,"wheelchair":false,"paid":null,"needsAddr":true},{"id":465101485,"name":"南投觀光酒廠","lat":23.9225994,"lng":120.7040097,"address":"南投縣南投市東山路82號","hasBabyChanging":false,"hasAccessible":false,"source":"OpenStreetMap","updatedAt":"2026-06-16T15:54:24.202Z","facilityType":"tourist_attraction","facilityLabel":"🧭 旅遊景點","phone":"+886 49 223 4171","website":"https://event.ttl.com.tw/nt/","wheelchair":false,"paid":null,"needsAddr":false},{"id":468282555,"name":"光明公園","lat":23.9400398,"lng":120.70022555,"address":null,"hasBabyChanging":false,"hasAccessible":false,"source":"OpenStreetMap","updatedAt":"2026-06-16T15:54:24.202Z","facilityType":"park","facilityLabel":"🌳 小型公園","phone":null,"website":null,"wheelchair":false,"paid":null,"needsAddr":true},{"id":468282557,"name":"中興新村921重建紀念公園","lat":23.9571646,"lng":120.68782655000001,"address":null,"hasBabyChanging":false,"hasAccessible":false,"source":"OpenStreetMap","updatedAt":"2026-06-16T15:54:24.202Z","facilityType":"park","facilityLabel":"🌳 中型公園","phone":null,"website":null,"wheelchair":false,"paid":null,"needsAddr":true},{"id":468282558,"name":"省政府資料館前遊憩廣場","lat":23.956333700000002,"lng":120.6870268,"address":null,"hasBabyChanging":false,"hasAccessible":false,"source":"OpenStreetMap","updatedAt":"2026-06-16T15:54:24.202Z","facilityType":"park","facilityLabel":"🌳 中型公園","phone":null,"website":null,"wheelchair":false,"paid":null,"needsAddr":true},{"id":468282563,"name":"向上公園","lat":23.95053765,"lng":120.6885688,"address":null,"hasBabyChanging":false,"hasAccessible":false,"source":"OpenStreetMap","updatedAt":"2026-06-16T15:54:24.202Z","facilityType":"park","facilityLabel":"🌳 小型公園","phone":null,"website":null,"wheelchair":false,"paid":null,"needsAddr":true},{"id":625770119,"name":"富貴公園","lat":23.90352015,"lng":120.67706430000001,"address":null,"hasBabyChanging":false,"hasAccessible":false,"source":"OpenStreetMap","updatedAt":"2026-06-16T15:54:24.202Z","facilityType":"park","facilityLabel":"🌳 小型公園","phone":null,"website":null,"wheelchair":false,"paid":null,"needsAddr":true},{"id":666019840,"name":"長春公園","lat":23.9462873,"lng":120.6992338,"address":null,"hasBabyChanging":false,"hasAccessible":false,"source":"OpenStreetMap","updatedAt":"2026-06-16T15:54:24.202Z","facilityType":"park","facilityLabel":"🌳 小型公園","phone":null,"website":null,"wheelchair":false,"paid":null,"needsAddr":true},{"id":707996630,"name":"中興特區公園","lat":23.9516371,"lng":120.6883934,"address":null,"hasBabyChanging":false,"hasAccessible":false,"source":"OpenStreetMap","updatedAt":"2026-06-16T15:54:24.202Z","facilityType":"park","facilityLabel":"🌳 小型公園","phone":null,"website":null,"wheelchair":false,"paid":null,"needsAddr":true},{"id":759948977,"name":"樟樹園","lat":23.9297359,"lng":120.66737165,"address":"南投縣南投市南崗三路39號","hasBabyChanging":false,"hasAccessible":false,"source":"OpenStreetMap","updatedAt":"2026-06-16T15:54:24.202Z","facilityType":"park","facilityLabel":"🌳 小型公園","phone":null,"website":null,"wheelchair":false,"paid":null,"needsAddr":false},{"id":759949222,"name":"成功公園","lat":23.9288101,"lng":120.6693143,"address":null,"hasBabyChanging":false,"hasAccessible":false,"source":"OpenStreetMap","updatedAt":"2026-06-16T15:54:24.202Z","facilityType":"park","facilityLabel":"🌳 小型公園","phone":null,"website":null,"wheelchair":false,"paid":null,"needsAddr":true},{"id":759951545,"name":"新興老人公園","lat":23.9217819,"lng":120.66632440000001,"address":null,"hasBabyChanging":false,"hasAccessible":false,"source":"OpenStreetMap","updatedAt":"2026-06-16T15:54:24.202Z","facilityType":"park","facilityLabel":"🌳 小型公園","phone":null,"website":null,"wheelchair":false,"paid":null,"needsAddr":true},{"id":759951973,"name":"新興公園","lat":23.93189325,"lng":120.67024315,"address":null,"hasBabyChanging":false,"hasAccessible":false,"source":"OpenStreetMap","updatedAt":"2026-06-16T15:54:24.202Z","facilityType":"park","facilityLabel":"🌳 小型公園","phone":null,"website":null,"wheelchair":false,"paid":null,"needsAddr":true},{"id":760573069,"name":"平山公園","lat":23.91898405,"lng":120.67419315000001,"address":null,"hasBabyChanging":false,"hasAccessible":false,"source":"OpenStreetMap","updatedAt":"2026-06-16T15:54:24.202Z","facilityType":"park","facilityLabel":"🌳 小型公園","phone":null,"website":null,"wheelchair":false,"paid":null,"needsAddr":true},{"id":760574591,"name":"南崗公園","lat":23.91749485,"lng":120.67464535,"address":null,"hasBabyChanging":false,"hasAccessible":false,"source":"OpenStreetMap","updatedAt":"2026-06-16T15:54:24.202Z","facilityType":"park","facilityLabel":"🌳 小型公園","phone":null,"website":null,"wheelchair":false,"paid":null,"needsAddr":true},{"id":760578757,"name":"長青公園","lat":23.90929705,"lng":120.68228055,"address":null,"hasBabyChanging":false,"hasAccessible":false,"source":"OpenStreetMap","updatedAt":"2026-06-16T15:54:24.202Z","facilityType":"park","facilityLabel":"🌳 小型公園","phone":null,"website":null,"wheelchair":false,"paid":null,"needsAddr":true},{"id":760666555,"name":"平和公園","lat":23.908407750000002,"lng":120.69023155,"address":null,"hasBabyChanging":false,"hasAccessible":false,"source":"OpenStreetMap","updatedAt":"2026-06-16T15:54:24.202Z","facilityType":"park","facilityLabel":"🌳 小型公園","phone":null,"website":null,"wheelchair":false,"paid":null,"needsAddr":true},{"id":999355476,"name":"同源公園","lat":23.920467950000003,"lng":120.666099,"address":null,"hasBabyChanging":false,"hasAccessible":false,"source":"OpenStreetMap","updatedAt":"2026-06-16T15:54:24.202Z","facilityType":"park","facilityLabel":"🌳 小型公園","phone":null,"website":null,"wheelchair":false,"paid":null,"needsAddr":true},{"id":1063794100,"name":"九九峰動物樂園","lat":23.96059885,"lng":120.70502934999999,"address":"南投縣草屯鎮富頂路一段726巷101號","hasBabyChanging":false,"hasAccessible":false,"source":"OpenStreetMap","updatedAt":"2026-06-16T15:54:24.202Z","facilityType":"zoo","facilityLabel":"🦁 動物園","phone":"+886 4 9256 5107","website":null,"wheelchair":false,"paid":null,"needsAddr":false},{"id":1101875192,"name":"方舟植物園","lat":23.9438565,"lng":120.70028985,"address":null,"hasBabyChanging":false,"hasAccessible":false,"source":"OpenStreetMap","updatedAt":"2026-06-16T15:54:24.202Z","facilityType":"park","facilityLabel":"🌳 中型公園","phone":null,"website":null,"wheelchair":false,"paid":null,"needsAddr":true},{"id":1136364697,"name":"微熱山丘廠辦與觀光工廠工地","lat":23.89096615,"lng":120.6655084,"address":null,"hasBabyChanging":false,"hasAccessible":false,"source":"OpenStreetMap","updatedAt":"2026-06-16T15:54:24.202Z","facilityType":"factory","facilityLabel":"🏭 觀光工廠","phone":null,"website":null,"wheelchair":false,"paid":null,"needsAddr":true},{"id":1136372097,"name":"南投休閒農場","lat":23.8953935,"lng":120.67711045,"address":null,"hasBabyChanging":false,"hasAccessible":false,"source":"OpenStreetMap","updatedAt":"2026-06-16T15:54:24.202Z","facilityType":"farm","facilityLabel":"🌾 農場","phone":null,"website":null,"wheelchair":false,"paid":null,"needsAddr":true},{"id":2895107530,"name":"彩蝶瀑布","lat":23.9933136,"lng":121.047351,"address":null,"hasBabyChanging":false,"hasAccessible":false,"source":"OpenStreetMap","updatedAt":"2026-06-16T15:54:24.202Z","facilityType":"tourist_attraction","facilityLabel":"🧭 旅遊景點","phone":null,"website":null,"wheelchair":false,"paid":null,"needsAddr":true},{"id":2903039766,"name":"水上平台","lat":23.9319629,"lng":120.9150584,"address":null,"hasBabyChanging":false,"hasAccessible":false,"source":"OpenStreetMap","updatedAt":"2026-06-16T15:54:24.202Z","facilityType":"tourist_attraction","facilityLabel":"🧭 旅遊景點","phone":null,"website":null,"wheelchair":false,"paid":null,"needsAddr":true},{"id":2903039767,"name":"水上瀑布","lat":23.932918,"lng":120.9147132,"address":null,"hasBabyChanging":false,"hasAccessible":false,"source":"OpenStreetMap","updatedAt":"2026-06-16T15:54:24.202Z","facilityType":"tourist_attraction","facilityLabel":"🧭 旅遊景點","phone":null,"website":null,"wheelchair":false,"paid":null,"needsAddr":true},{"id":2927195011,"name":"紙教堂見學園區","lat":23.942278,"lng":120.9275194,"address":"545南投縣埔里鎮桃米巷52-12號","hasBabyChanging":false,"hasAccessible":false,"source":"OpenStreetMap","updatedAt":"2026-06-16T15:54:24.202Z","facilityType":"tourist_attraction","facilityLabel":"🧭 旅遊景點","phone":"+886 49 2917087","website":"http://paperdome.homeland.org.tw/","wheelchair":false,"paid":null,"needsAddr":false},{"id":2960521930,"name":"感受地震搖船","lat":23.9416993,"lng":120.9272479,"address":null,"hasBabyChanging":false,"hasAccessible":false,"source":"OpenStreetMap","updatedAt":"2026-06-16T15:54:24.202Z","facilityType":"tourist_attraction","facilityLabel":"🧭 旅遊景點","phone":null,"website":null,"wheelchair":false,"paid":null,"needsAddr":true},{"id":2960531105,"name":"愛與互助雕塑","lat":23.9415068,"lng":120.9274567,"address":null,"hasBabyChanging":false,"hasAccessible":false,"source":"OpenStreetMap","updatedAt":"2026-06-16T15:54:24.202Z","facilityType":"tourist_attraction","facilityLabel":"🧭 旅遊景點","phone":null,"website":null,"wheelchair":false,"paid":null,"needsAddr":true},{"id":2965498270,"name":"平安鈴","lat":23.9414711,"lng":120.9272066,"address":null,"hasBabyChanging":false,"hasAccessible":false,"source":"OpenStreetMap","updatedAt":"2026-06-16T15:54:24.202Z","facilityType":"tourist_attraction","facilityLabel":"🧭 旅遊景點","phone":null,"website":null,"wheelchair":false,"paid":null,"needsAddr":true},{"id":3166216706,"name":"敲敲木工房","lat":23.9749077,"lng":120.9572275,"address":"545南投縣埔里鎮大同街37號","hasBabyChanging":false,"hasAccessible":false,"source":"OpenStreetMap","updatedAt":"2026-06-16T15:54:24.202Z","facilityType":"diy","facilityLabel":"🧶 DIY手作","phone":"+886-49-2917803","website":"https://www.kokomu.com/","wheelchair":false,"paid":null,"needsAddr":false},{"id":3643544053,"name":"聽瀑營地","lat":23.9303642,"lng":121.0153045,"address":"南投縣埔里鎮麒麟里武界路水頭段1005-51號","hasBabyChanging":false,"hasAccessible":false,"source":"OpenStreetMap","updatedAt":"2026-06-16T15:54:24.202Z","facilityType":"spot","facilityLabel":"📍 親子景點","phone":"+886 931 337 713","website":"http://funpuli.emmm.tw","wheelchair":false,"paid":null,"needsAddr":false},{"id":3643544793,"name":"中坑瀑布生態區","lat":23.9212702,"lng":121.0102273,"address":null,"hasBabyChanging":false,"hasAccessible":false,"source":"OpenStreetMap","updatedAt":"2026-06-16T15:54:24.202Z","facilityType":"tourist_attraction","facilityLabel":"🧭 旅遊景點","phone":null,"website":null,"wheelchair":false,"paid":null,"needsAddr":true},{"id":3678468961,"name":"玉門關瀑布","lat":23.9639232,"lng":120.8890413,"address":null,"hasBabyChanging":false,"hasAccessible":false,"source":"OpenStreetMap","updatedAt":"2026-06-16T15:54:24.202Z","facilityType":"tourist_attraction","facilityLabel":"🧭 旅遊景點","phone":null,"website":null,"wheelchair":false,"paid":null,"needsAddr":true},{"id":4155356590,"name":"埔里市景色","lat":23.9663848,"lng":120.9896994,"address":null,"hasBabyChanging":false,"hasAccessible":false,"source":"OpenStreetMap","updatedAt":"2026-06-16T15:54:24.202Z","facilityType":"tourist_attraction","facilityLabel":"🧭 旅遊景點","phone":null,"website":null,"wheelchair":false,"paid":null,"needsAddr":true},{"id":4178268506,"name":"赤崁","lat":23.9915,"lng":120.9344,"address":null,"hasBabyChanging":false,"hasAccessible":false,"source":"OpenStreetMap","updatedAt":"2026-06-16T15:54:24.202Z","facilityType":"tourist_attraction","facilityLabel":"🧭 旅遊景點","phone":null,"website":null,"wheelchair":false,"paid":null,"needsAddr":true},{"id":4317959035,"name":"廣興紙寮","lat":23.9755914,"lng":120.9386423,"address":"545南投縣埔里鎮鐵山路310號","hasBabyChanging":false,"hasAccessible":false,"source":"OpenStreetMap","updatedAt":"2026-06-16T15:54:24.202Z","facilityType":"tourist_attraction","facilityLabel":"🧭 旅遊景點","phone":"+886-49-291-3037","website":null,"wheelchair":false,"paid":null,"needsAddr":false},{"id":4839345621,"name":"觀音瀑布","lat":23.9896327,"lng":121.0359204,"address":null,"hasBabyChanging":false,"hasAccessible":false,"source":"OpenStreetMap","updatedAt":"2026-06-16T15:54:24.202Z","facilityType":"tourist_attraction","facilityLabel":"🧭 旅遊景點","phone":null,"website":null,"wheelchair":false,"paid":null,"needsAddr":true},{"id":6054253370,"name":"龍南漆器博物館","lat":23.9678361,"lng":120.9656426,"address":null,"hasBabyChanging":false,"hasAccessible":false,"source":"OpenStreetMap","updatedAt":"2026-06-16T15:54:24.202Z","facilityType":"science","facilityLabel":"🔬 博物館","phone":null,"website":null,"wheelchair":false,"paid":null,"needsAddr":true},{"id":6266977587,"name":"妮娜巧克力夢想城堡","lat":23.9438814,"lng":120.9297947,"address":"南投縣埔里鎮桃米路32號","hasBabyChanging":false,"hasAccessible":false,"source":"OpenStreetMap","updatedAt":"2026-06-16T15:54:24.202Z","facilityType":"tourist_attraction","facilityLabel":"🧭 旅遊景點","phone":"+886 49 2919528","website":null,"wheelchair":false,"paid":null,"needsAddr":false},{"id":6401692528,"name":"能高圳瀑布","lat":24.0263363,"lng":120.9777528,"address":null,"hasBabyChanging":false,"hasAccessible":false,"source":"OpenStreetMap","updatedAt":"2026-06-16T15:54:24.202Z","facilityType":"tourist_attraction","facilityLabel":"🧭 旅遊景點","phone":null,"website":null,"wheelchair":false,"paid":null,"needsAddr":true},{"id":8170142355,"name":"飛行傘報到處","lat":23.966883,"lng":120.9893659,"address":null,"hasBabyChanging":false,"hasAccessible":false,"source":"OpenStreetMap","updatedAt":"2026-06-16T15:54:24.202Z","facilityType":"tourist_attraction","facilityLabel":"🧭 旅遊景點","phone":null,"website":null,"wheelchair":false,"paid":null,"needsAddr":true},{"id":9260874866,"name":"To me 桃米生態露營區","lat":23.94399,"lng":120.9032938,"address":"南投縣埔里鎮種瓜路66-1號","hasBabyChanging":false,"hasAccessible":false,"source":"OpenStreetMap","updatedAt":"2026-06-16T15:54:24.202Z","facilityType":"spot","facilityLabel":"📍 親子景點","phone":null,"website":"https://www.facebook.com/tomecampsite/","wheelchair":false,"paid":null,"needsAddr":false},{"id":9420464254,"name":"玉門關","lat":23.963989,"lng":120.8910292,"address":null,"hasBabyChanging":false,"hasAccessible":false,"source":"OpenStreetMap","updatedAt":"2026-06-16T15:54:24.202Z","facilityType":"tourist_attraction","facilityLabel":"🧭 旅遊景點","phone":null,"website":null,"wheelchair":false,"paid":null,"needsAddr":true},{"id":10292754001,"name":"觀雲坪","lat":24.0284307,"lng":120.9827167,"address":null,"hasBabyChanging":false,"hasAccessible":false,"source":"OpenStreetMap","updatedAt":"2026-06-16T15:54:24.202Z","facilityType":"tourist_attraction","facilityLabel":"🧭 旅遊景點","phone":null,"website":null,"wheelchair":false,"paid":null,"needsAddr":true},{"id":10679888915,"name":"樂活森林農場","lat":23.935822,"lng":120.9300484,"address":null,"hasBabyChanging":false,"hasAccessible":false,"source":"OpenStreetMap","updatedAt":"2026-06-16T15:54:24.202Z","facilityType":"farm","facilityLabel":"🌾 農場","phone":null,"website":"https://www.lohaforest.com/","wheelchair":false,"paid":null,"needsAddr":true},{"id":10740469506,"name":"鐵橋","lat":23.9312102,"lng":120.9149343,"address":null,"hasBabyChanging":false,"hasAccessible":false,"source":"OpenStreetMap","updatedAt":"2026-06-16T15:54:24.202Z","facilityType":"tourist_attraction","facilityLabel":"🧭 旅遊景點","phone":null,"website":null,"wheelchair":false,"paid":null,"needsAddr":true},{"id":10740479905,"name":"澀水森林步道0k+300","lat":23.9282795,"lng":120.9144363,"address":null,"hasBabyChanging":false,"hasAccessible":false,"source":"OpenStreetMap","updatedAt":"2026-06-16T15:54:24.202Z","facilityType":"tourist_attraction","facilityLabel":"🧭 旅遊景點","phone":null,"website":null,"wheelchair":false,"paid":null,"needsAddr":true},{"id":10740492506,"name":"澀水五號橋","lat":23.9316298,"lng":120.9149967,"address":null,"hasBabyChanging":false,"hasAccessible":false,"source":"OpenStreetMap","updatedAt":"2026-06-16T15:54:24.202Z","facilityType":"tourist_attraction","facilityLabel":"🧭 旅遊景點","phone":null,"website":null,"wheelchair":false,"paid":null,"needsAddr":true},{"id":10740503207,"name":"澀水森林步道1k+100","lat":23.9323769,"lng":120.9159544,"address":null,"hasBabyChanging":false,"hasAccessible":false,"source":"OpenStreetMap","updatedAt":"2026-06-16T15:54:24.202Z","facilityType":"tourist_attraction","facilityLabel":"🧭 旅遊景點","phone":null,"website":null,"wheelchair":false,"paid":null,"needsAddr":true},{"id":10740543806,"name":"澀水森林步道1k+700","lat":23.9283911,"lng":120.9174825,"address":null,"hasBabyChanging":false,"hasAccessible":false,"source":"OpenStreetMap","updatedAt":"2026-06-16T15:54:24.202Z","facilityType":"tourist_attraction","facilityLabel":"🧭 旅遊景點","phone":null,"website":null,"wheelchair":false,"paid":null,"needsAddr":true},{"id":11738293023,"name":"觀景平台","lat":23.9636342,"lng":120.9891848,"address":null,"hasBabyChanging":false,"hasAccessible":false,"source":"OpenStreetMap","updatedAt":"2026-06-16T15:54:24.202Z","facilityType":"tourist_attraction","facilityLabel":"🧭 旅遊景點","phone":null,"website":null,"wheelchair":false,"paid":null,"needsAddr":true},{"id":287893827,"name":"木雕分館","lat":24.01083575,"lng":120.94507045,"address":"54544南投縣埔里鎮中台路8號","hasBabyChanging":false,"hasAccessible":false,"source":"OpenStreetMap","updatedAt":"2026-06-16T15:54:24.202Z","facilityType":"science","facilityLabel":"🔬 博物館","phone":"+886 49 2932-999","website":"http://www.ctwm.org.tw/","wheelchair":false,"paid":null,"needsAddr":false},{"id":292419013,"name":"木生昆蟲博物館","lat":23.96511325,"lng":120.9457074,"address":"南投縣埔里鎮南村路6之2號","hasBabyChanging":false,"hasAccessible":false,"source":"OpenStreetMap","updatedAt":"2026-06-16T15:54:24.202Z","facilityType":"science","facilityLabel":"🔬 博物館","phone":null,"website":"http://www.insect.com.tw","wheelchair":false,"paid":null,"needsAddr":false},{"id":292423361,"name":"茅埔坑生態公園","lat":23.942472600000002,"lng":120.93720945,"address":null,"hasBabyChanging":false,"hasAccessible":false,"source":"OpenStreetMap","updatedAt":"2026-06-16T15:54:24.202Z","facilityType":"park","facilityLabel":"🌳 小型公園","phone":null,"website":null,"wheelchair":false,"paid":null,"needsAddr":true},{"id":292495804,"name":"草湳農場露營區","lat":23.948364050000002,"lng":120.9155576,"address":null,"hasBabyChanging":false,"hasAccessible":false,"source":"OpenStreetMap","updatedAt":"2026-06-16T15:54:24.202Z","facilityType":"farm","facilityLabel":"🌾 農場","phone":null,"website":null,"wheelchair":false,"paid":null,"needsAddr":true},{"id":292497466,"name":"桃米921紀念館","lat":23.9428768,"lng":120.93130185,"address":null,"hasBabyChanging":false,"hasAccessible":false,"source":"OpenStreetMap","updatedAt":"2026-06-16T15:54:24.202Z","facilityType":"culture","facilityLabel":"🎨 藝文場館","phone":null,"website":null,"wheelchair":false,"paid":null,"needsAddr":true},{"id":292498063,"name":"元華露營區","lat":23.9395398,"lng":120.94013415,"address":"545南投縣埔里鎮桃米里桃米巷9-2號","hasBabyChanging":false,"hasAccessible":false,"source":"OpenStreetMap","updatedAt":"2026-06-16T15:54:24.202Z","facilityType":"spot","facilityLabel":"📍 親子景點","phone":"+886 049 299 1782","website":null,"wheelchair":false,"paid":null,"needsAddr":false},{"id":292499786,"name":"顏氏牧場","lat":23.9326207,"lng":120.90638695,"address":"南投縣埔里鎮水上巷28號","hasBabyChanging":false,"hasAccessible":false,"source":"OpenStreetMap","updatedAt":"2026-06-16T15:54:24.202Z","facilityType":"farm","facilityLabel":"🌾 農場","phone":"+886 49 291 2041","website":"http://yenpasture.com/pasture1/","wheelchair":false,"paid":null,"needsAddr":false},{"id":292574933,"name":"仁愛公園","lat":23.96786715,"lng":120.96436095,"address":null,"hasBabyChanging":false,"hasAccessible":false,"source":"OpenStreetMap","updatedAt":"2026-06-16T15:54:24.202Z","facilityType":"park","facilityLabel":"🌳 小型公園","phone":null,"website":null,"wheelchair":false,"paid":null,"needsAddr":true},{"id":292986752,"name":"桃米源射箭場","lat":23.942901499999998,"lng":120.92889835,"address":"南投縣埔里鎮桃米路33-1號","hasBabyChanging":false,"hasAccessible":false,"source":"OpenStreetMap","updatedAt":"2026-06-16T15:54:24.202Z","facilityType":"tourist_attraction","facilityLabel":"🧭 旅遊景點","phone":"+886 49 291 5648","website":null,"wheelchair":false,"paid":null,"needsAddr":false},{"id":292991214,"name":"桃米愛玩客營地","lat":23.94060735,"lng":120.9259571,"address":null,"hasBabyChanging":false,"hasAccessible":false,"source":"OpenStreetMap","updatedAt":"2026-06-16T15:54:24.202Z","facilityType":"spot","facilityLabel":"📍 親子景點","phone":null,"website":null,"wheelchair":false,"paid":null,"needsAddr":true},{"id":443325490,"name":"普台公園","lat":24.0057283,"lng":120.9448199,"address":null,"hasBabyChanging":false,"hasAccessible":false,"source":"OpenStreetMap","updatedAt":"2026-06-16T15:54:24.202Z","facilityType":"park","facilityLabel":"🌳 中型公園","phone":null,"website":null,"wheelchair":false,"paid":null,"needsAddr":true},{"id":474137949,"name":"普台禪寺","lat":24.007962900000003,"lng":120.946382,"address":null,"hasBabyChanging":false,"hasAccessible":false,"source":"OpenStreetMap","updatedAt":"2026-06-16T15:54:24.202Z","facilityType":"park","facilityLabel":"🌳 中型公園","phone":null,"website":null,"wheelchair":false,"paid":null,"needsAddr":true},{"id":475612698,"name":"牛耳藝術渡假村","lat":23.9647023,"lng":120.9421826,"address":"南投縣埔里鎮中山路四段1號","hasBabyChanging":false,"hasAccessible":false,"source":"OpenStreetMap","updatedAt":"2026-06-16T15:54:24.202Z","facilityType":"theme_park","facilityLabel":"🎡 遊樂場","phone":"+886 49 291 2248","website":null,"wheelchair":false,"paid":null,"needsAddr":false},{"id":559125619,"name":"中心碑公園","lat":23.973658999999998,"lng":120.98006849999999,"address":null,"hasBabyChanging":false,"hasAccessible":false,"source":"OpenStreetMap","updatedAt":"2026-06-16T15:54:24.202Z","facilityType":"park","facilityLabel":"🌳 小型公園","phone":null,"website":null,"wheelchair":false,"paid":null,"needsAddr":true},{"id":560464727,"name":"長壽公園","lat":23.96806935,"lng":120.97332715,"address":null,"hasBabyChanging":false,"hasAccessible":false,"source":"OpenStreetMap","updatedAt":"2026-06-16T15:54:24.202Z","facilityType":"park","facilityLabel":"🌳 小型公園","phone":null,"website":null,"wheelchair":false,"paid":null,"needsAddr":true},{"id":561926946,"name":"行政綠園","lat":23.951063400000002,"lng":120.93061975,"address":null,"hasBabyChanging":false,"hasAccessible":false,"source":"OpenStreetMap","updatedAt":"2026-06-16T15:54:24.202Z","facilityType":"park","facilityLabel":"🌳 中型公園","phone":null,"website":null,"wheelchair":false,"paid":null,"needsAddr":true},{"id":561926947,"name":"行政大樓前草坪","lat":23.95111485,"lng":120.93134935,"address":null,"hasBabyChanging":false,"hasAccessible":false,"source":"OpenStreetMap","updatedAt":"2026-06-16T15:54:24.202Z","facilityType":"park","facilityLabel":"🌳 小型公園","phone":null,"website":null,"wheelchair":false,"paid":null,"needsAddr":true},{"id":563968756,"name":"泰安公園","lat":23.96711615,"lng":120.9757626,"address":null,"hasBabyChanging":false,"hasAccessible":false,"source":"OpenStreetMap","updatedAt":"2026-06-16T15:54:24.202Z","facilityType":"park","facilityLabel":"🌳 小型公園","phone":null,"website":null,"wheelchair":false,"paid":null,"needsAddr":true},{"id":589259480,"name":"藝文中心休憩園區","lat":23.97069545,"lng":120.97136345,"address":null,"hasBabyChanging":false,"hasAccessible":false,"source":"OpenStreetMap","updatedAt":"2026-06-16T15:54:24.202Z","facilityType":"park","facilityLabel":"🌳 中型公園","phone":null,"website":null,"wheelchair":false,"paid":null,"needsAddr":true},{"id":628700398,"name":"親水公園","lat":23.9433298,"lng":120.93288749999999,"address":null,"hasBabyChanging":false,"hasAccessible":false,"source":"OpenStreetMap","updatedAt":"2026-06-16T15:54:24.202Z","facilityType":"water","facilityLabel":"💧 戲水親水","phone":null,"website":null,"wheelchair":false,"paid":null,"needsAddr":true},{"id":677007982,"name":"楓香公園","lat":23.976040349999998,"lng":120.99157704999999,"address":null,"hasBabyChanging":false,"hasAccessible":false,"source":"OpenStreetMap","updatedAt":"2026-06-16T15:54:24.202Z","facilityType":"park","facilityLabel":"🌳 小型公園","phone":null,"website":null,"wheelchair":false,"paid":null,"needsAddr":true},{"id":725230511,"name":"魚市場夜市","lat":23.9623956,"lng":120.9677413,"address":"南投縣埔里鎮南盛街88號","hasBabyChanging":false,"hasAccessible":false,"source":"OpenStreetMap","updatedAt":"2026-06-16T15:54:24.202Z","facilityType":"tourist_attraction","facilityLabel":"🧭 旅遊景點","phone":null,"website":null,"wheelchair":false,"paid":null,"needsAddr":false},{"id":817987692,"name":"小埔社火車懷舊公園","lat":24.024552550000003,"lng":120.95265215,"address":null,"hasBabyChanging":false,"hasAccessible":false,"source":"OpenStreetMap","updatedAt":"2026-06-16T15:54:24.202Z","facilityType":"park","facilityLabel":"🌳 小型公園","phone":null,"website":null,"wheelchair":false,"paid":null,"needsAddr":true},{"id":858413960,"name":"九二一環保公園","lat":24.011094,"lng":120.96532930000001,"address":null,"hasBabyChanging":false,"hasAccessible":false,"source":"OpenStreetMap","updatedAt":"2026-06-16T15:54:24.202Z","facilityType":"park","facilityLabel":"🌳 中型公園","phone":null,"website":null,"wheelchair":false,"paid":null,"needsAddr":true},{"id":858413968,"name":"福興溫泉區親子共榮公園","lat":24.01180205,"lng":120.9663656,"address":null,"hasBabyChanging":false,"hasAccessible":false,"source":"OpenStreetMap","updatedAt":"2026-06-16T15:54:24.202Z","facilityType":"park","facilityLabel":"🌳 中型公園","phone":null,"website":null,"wheelchair":false,"paid":null,"needsAddr":true},{"id":938726153,"name":"埔里遊客中心","lat":23.96961095,"lng":120.92995325,"address":null,"hasBabyChanging":false,"hasAccessible":false,"source":"OpenStreetMap","updatedAt":"2026-06-16T15:54:24.202Z","facilityType":"visitor_center","facilityLabel":"🛎 旅客中心","phone":null,"website":null,"wheelchair":false,"paid":null,"needsAddr":true},{"id":961525418,"name":"青青農場親子露營區","lat":24.0066643,"lng":120.9731841,"address":null,"hasBabyChanging":false,"hasAccessible":false,"source":"OpenStreetMap","updatedAt":"2026-06-16T15:54:24.202Z","facilityType":"farm","facilityLabel":"🌾 農場","phone":null,"website":null,"wheelchair":false,"paid":null,"needsAddr":true},{"id":961525430,"name":"埔里福興溫泉區遊客中心","lat":24.0096961,"lng":120.96682229999999,"address":null,"hasBabyChanging":false,"hasAccessible":false,"source":"OpenStreetMap","updatedAt":"2026-06-16T15:54:24.202Z","facilityType":"visitor_center","facilityLabel":"🛎 旅客中心","phone":null,"website":null,"wheelchair":false,"paid":null,"needsAddr":true},{"id":962099321,"name":"大馬璘遺址文化園區","lat":23.96857965,"lng":120.94494315,"address":null,"hasBabyChanging":false,"hasAccessible":false,"source":"OpenStreetMap","updatedAt":"2026-06-16T15:54:24.202Z","facilityType":"park","facilityLabel":"🌳 中型公園","phone":null,"website":null,"wheelchair":false,"paid":null,"needsAddr":true},{"id":1051415689,"name":"彩虹莊園","lat":23.94063225,"lng":120.9563752,"address":"545南投縣埔里鎮下湳巷20-1號","hasBabyChanging":false,"hasAccessible":false,"source":"OpenStreetMap","updatedAt":"2026-06-16T15:54:24.202Z","facilityType":"farm","facilityLabel":"🌾 農場","phone":null,"website":null,"wheelchair":false,"paid":null,"needsAddr":false},{"id":1232708336,"name":"北安公園","lat":23.97200295,"lng":120.97352925,"address":null,"hasBabyChanging":false,"hasAccessible":false,"source":"OpenStreetMap","updatedAt":"2026-06-16T15:54:24.202Z","facilityType":"park","facilityLabel":"🌳 小型公園","phone":null,"website":null,"wheelchair":false,"paid":null,"needsAddr":true},{"id":1232712365,"name":"兒童公園預定地26","lat":23.96366995,"lng":120.97615195,"address":null,"hasBabyChanging":false,"hasAccessible":false,"source":"OpenStreetMap","updatedAt":"2026-06-16T15:54:24.202Z","facilityType":"park","facilityLabel":"🌳 小型公園","phone":null,"website":null,"wheelchair":false,"paid":null,"needsAddr":true},{"id":1365009281,"name":"中區戶外探索教育中心","lat":23.9476187,"lng":120.9276421,"address":null,"hasBabyChanging":false,"hasAccessible":false,"source":"OpenStreetMap","updatedAt":"2026-06-16T15:54:24.202Z","facilityType":"park","facilityLabel":"🌳 小型公園","phone":null,"website":null,"wheelchair":false,"paid":null,"needsAddr":true},{"id":1444688956,"name":"謝緯紀念營地","lat":23.961426799999998,"lng":121.0007795,"address":"南投縣埔里鎮鯉魚路25號","hasBabyChanging":false,"hasAccessible":false,"source":"OpenStreetMap","updatedAt":"2026-06-16T15:54:24.202Z","facilityType":"spot","facilityLabel":"📍 親子景點","phone":null,"website":"http://www.facebook.com/xieweijinianyingde","wheelchair":false,"paid":null,"needsAddr":false},{"id":1444688960,"name":"緣溪行森林營地","lat":23.973735,"lng":120.99405075,"address":"南投縣埔里鎮乾溪景觀橋545號","hasBabyChanging":false,"hasAccessible":false,"source":"OpenStreetMap","updatedAt":"2026-06-16T15:54:24.202Z","facilityType":"spot","facilityLabel":"📍 親子景點","phone":"+886 49 2900389","website":"https://yccfc.com.tw/","wheelchair":false,"paid":null,"needsAddr":false},{"id":1444729412,"name":"楓樺台一渡假村","lat":23.9786642,"lng":121.00519825,"address":"南投縣埔里鎮中山路一段176號","hasBabyChanging":false,"hasAccessible":false,"source":"OpenStreetMap","updatedAt":"2026-06-16T15:54:24.202Z","facilityType":"tourist_attraction","facilityLabel":"🧭 旅遊景點","phone":"+886 49 299 7848","website":"https://www.taii.com.tw/","wheelchair":false,"paid":null,"needsAddr":false},{"id":8051531,"name":"埔里鎮運動公園","lat":23.9704656,"lng":120.97040045,"address":null,"hasBabyChanging":false,"hasAccessible":false,"source":"OpenStreetMap","updatedAt":"2026-06-16T15:54:24.202Z","facilityType":"park","facilityLabel":"🌳 中型公園","phone":null,"website":null,"wheelchair":false,"paid":null,"needsAddr":true},{"id":1918160399,"name":"寶島時代村","lat":23.9881165,"lng":120.6859801,"address":null,"hasBabyChanging":false,"hasAccessible":false,"source":"OpenStreetMap","updatedAt":"2026-06-16T15:54:24.202Z","facilityType":"tourist_attraction","facilityLabel":"🧭 旅遊景點","phone":null,"website":"https://twtimes.tw/site/index.html","wheelchair":false,"paid":null,"needsAddr":true},{"id":1918160405,"name":"草屯十九龍柱","lat":23.9681216,"lng":120.6940637,"address":null,"hasBabyChanging":false,"hasAccessible":false,"source":"OpenStreetMap","updatedAt":"2026-06-16T15:54:24.202Z","facilityType":"tourist_attraction","facilityLabel":"🧭 旅遊景點","phone":null,"website":null,"wheelchair":false,"paid":null,"needsAddr":true},{"id":1918160408,"name":"草鞋墩人文觀光夜市","lat":23.9884037,"lng":120.6870563,"address":null,"hasBabyChanging":false,"hasAccessible":false,"source":"OpenStreetMap","updatedAt":"2026-06-16T15:54:24.202Z","facilityType":"tourist_attraction","facilityLabel":"🧭 旅遊景點","phone":null,"website":"https://safood.tw/caoxiedun","wheelchair":false,"paid":null,"needsAddr":true},{"id":4628173729,"name":"毓繡美術館","lat":23.992882,"lng":120.7670853,"address":"54245南投縣草屯鎮平林里健行路150巷26號","hasBabyChanging":false,"hasAccessible":false,"source":"OpenStreetMap","updatedAt":"2026-06-16T15:54:24.202Z","facilityType":"culture","facilityLabel":"🎨 藝文場館","phone":"+886 49 257 2999","website":"https://www.yu-hsiu.org/","wheelchair":false,"paid":null,"needsAddr":false},{"id":5384986722,"name":"蔡氏釀酒","lat":23.9722814,"lng":120.6528163,"address":null,"hasBabyChanging":false,"hasAccessible":false,"source":"OpenStreetMap","updatedAt":"2026-06-16T15:54:24.202Z","facilityType":"science","facilityLabel":"🔬 博物館","phone":null,"website":null,"wheelchair":false,"paid":null,"needsAddr":true},{"id":5436373821,"name":"九九峰自然保留區","lat":24.006621,"lng":120.774973,"address":"中心巷","hasBabyChanging":false,"hasAccessible":false,"source":"OpenStreetMap","updatedAt":"2026-06-16T15:54:24.202Z","facilityType":"tourist_attraction","facilityLabel":"🧭 旅遊景點","phone":null,"website":null,"wheelchair":false,"paid":null,"needsAddr":false},{"id":9978940072,"name":"北勢湳荷花池","lat":23.9966785,"lng":120.7187579,"address":null,"hasBabyChanging":false,"hasAccessible":false,"source":"OpenStreetMap","updatedAt":"2026-06-16T15:54:24.202Z","facilityType":"tourist_attraction","facilityLabel":"🧭 旅遊景點","phone":null,"website":null,"wheelchair":false,"paid":null,"needsAddr":true},{"id":9985196091,"name":"草屯水車公園","lat":23.9827569,"lng":120.6901374,"address":null,"hasBabyChanging":false,"hasAccessible":false,"source":"OpenStreetMap","updatedAt":"2026-06-16T15:54:24.202Z","facilityType":"tourist_attraction","facilityLabel":"🧭 旅遊景點","phone":null,"website":null,"wheelchair":false,"paid":null,"needsAddr":true},{"id":13703787165,"name":"鱸鰻潭隧道西口","lat":23.9865799,"lng":120.7988018,"address":null,"hasBabyChanging":false,"hasAccessible":false,"source":"OpenStreetMap","updatedAt":"2026-06-16T15:54:24.202Z","facilityType":"tourist_attraction","facilityLabel":"🧭 旅遊景點","phone":null,"website":null,"wheelchair":false,"paid":null,"needsAddr":true},{"id":198710558,"name":"工藝設計館","lat":23.979162000000002,"lng":120.6918106,"address":null,"hasBabyChanging":false,"hasAccessible":false,"source":"OpenStreetMap","updatedAt":"2026-06-16T15:54:24.202Z","facilityType":"science","facilityLabel":"🔬 博物館","phone":null,"website":null,"wheelchair":false,"paid":null,"needsAddr":true},{"id":468282565,"name":"九九峰生態藝術園區","lat":23.99351985,"lng":120.7676126,"address":null,"hasBabyChanging":false,"hasAccessible":false,"source":"OpenStreetMap","updatedAt":"2026-06-16T15:54:24.202Z","facilityType":"park","facilityLabel":"🌳 大型公園","phone":null,"website":null,"wheelchair":false,"paid":null,"needsAddr":true},{"id":926268030,"name":"鳥嘴潭人工湖","lat":24.00047645,"lng":120.72840295,"address":null,"hasBabyChanging":false,"hasAccessible":false,"source":"OpenStreetMap","updatedAt":"2026-06-16T15:54:24.202Z","facilityType":"park","facilityLabel":"🌳 巨大公園","phone":null,"website":"https://web.wra.gov.tw/niaozueitan/","wheelchair":false,"paid":null,"needsAddr":true},{"id":936192379,"name":"草屯鎮碧峰里戰鬥機戰車展示園區","lat":23.97190685,"lng":120.64849775,"address":"碧峰里","hasBabyChanging":false,"hasAccessible":false,"source":"OpenStreetMap","updatedAt":"2026-06-16T15:54:24.202Z","facilityType":"park","facilityLabel":"🌳 小型公園","phone":null,"website":null,"wheelchair":false,"paid":null,"needsAddr":false},{"id":1005297528,"name":"科學館","lat":23.9803803,"lng":120.69575535,"address":null,"hasBabyChanging":false,"hasAccessible":false,"source":"OpenStreetMap","updatedAt":"2026-06-16T15:54:24.202Z","facilityType":"science","facilityLabel":"🔬 博物館","phone":null,"website":null,"wheelchair":false,"paid":null,"needsAddr":true},{"id":1006654673,"name":"雙十吊橋","lat":23.984299749999998,"lng":120.78093630000001,"address":null,"hasBabyChanging":false,"hasAccessible":false,"source":"OpenStreetMap","updatedAt":"2026-06-16T15:54:24.202Z","facilityType":"tourist_attraction","facilityLabel":"🧭 旅遊景點","phone":null,"website":null,"wheelchair":false,"paid":null,"needsAddr":true},{"id":1007661275,"name":"下雙冬三石公園","lat":23.9799678,"lng":120.78173079999999,"address":null,"hasBabyChanging":false,"hasAccessible":false,"source":"OpenStreetMap","updatedAt":"2026-06-16T15:54:24.202Z","facilityType":"park","facilityLabel":"🌳 小型公園","phone":null,"website":null,"wheelchair":false,"paid":null,"needsAddr":true},{"id":1008329665,"name":"福德廟公園","lat":23.984474849999998,"lng":120.79326309999999,"address":null,"hasBabyChanging":false,"hasAccessible":false,"source":"OpenStreetMap","updatedAt":"2026-06-16T15:54:24.202Z","facilityType":"park","facilityLabel":"🌳 小型公園","phone":null,"website":null,"wheelchair":false,"paid":null,"needsAddr":true},{"id":1063794100,"name":"九九峰動物樂園","lat":23.96059885,"lng":120.70502934999999,"address":"南投縣草屯鎮富頂路一段726巷101號","hasBabyChanging":false,"hasAccessible":false,"source":"OpenStreetMap","updatedAt":"2026-06-16T15:54:24.202Z","facilityType":"zoo","facilityLabel":"🦁 動物園","phone":"+886 4 9256 5107","website":null,"wheelchair":false,"paid":null,"needsAddr":false},{"id":1064224487,"name":"草屯寵物公園","lat":23.978680349999998,"lng":120.69194350000001,"address":null,"hasBabyChanging":false,"hasAccessible":false,"source":"OpenStreetMap","updatedAt":"2026-06-16T15:54:24.202Z","facilityType":"park","facilityLabel":"🌳 小型公園","phone":null,"website":null,"wheelchair":false,"paid":null,"needsAddr":true},{"id":1074684439,"name":"虎山親水公園","lat":23.969662149999998,"lng":120.68484720000001,"address":null,"hasBabyChanging":false,"hasAccessible":false,"source":"OpenStreetMap","updatedAt":"2026-06-16T15:54:24.202Z","facilityType":"water","facilityLabel":"💧 戲水親水","phone":null,"website":null,"wheelchair":false,"paid":null,"needsAddr":true},{"id":1195576934,"name":"隧道上方公園(暫名)","lat":23.9926805,"lng":120.7459698,"address":null,"hasBabyChanging":false,"hasAccessible":false,"source":"OpenStreetMap","updatedAt":"2026-06-16T15:54:24.202Z","facilityType":"park","facilityLabel":"🌳 小型公園","phone":null,"website":null,"wheelchair":false,"paid":null,"needsAddr":true},{"id":2668650,"name":"中山公園","lat":23.980915850000002,"lng":120.6889137,"address":null,"hasBabyChanging":false,"hasAccessible":false,"source":"OpenStreetMap","updatedAt":"2026-06-16T15:54:24.202Z","facilityType":"park","facilityLabel":"🌳 中型公園","phone":null,"website":null,"wheelchair":false,"paid":null,"needsAddr":true},{"id":7007698,"name":"九九峰自然保留區","lat":24.02254305,"lng":120.78565904999999,"address":null,"hasBabyChanging":false,"hasAccessible":false,"source":"OpenStreetMap","updatedAt":"2026-06-16T15:54:24.202Z","facilityType":"spot","facilityLabel":"📍 親子景點","phone":null,"website":"https://conservation.forest.gov.tw/0000127","wheelchair":false,"paid":null,"needsAddr":true},{"id":1615661967,"name":"千年紅檜","lat":23.6177408,"lng":120.8043765,"address":null,"hasBabyChanging":false,"hasAccessible":false,"source":"OpenStreetMap","updatedAt":"2026-06-16T15:54:24.202Z","facilityType":"tourist_attraction","facilityLabel":"🧭 旅遊景點","phone":null,"website":null,"wheelchair":false,"paid":null,"needsAddr":true},{"id":1615661968,"name":"天地眼步道登山口","lat":23.6172513,"lng":120.8052269,"address":null,"hasBabyChanging":false,"hasAccessible":false,"source":"OpenStreetMap","updatedAt":"2026-06-16T15:54:24.202Z","facilityType":"tourist_attraction","facilityLabel":"🧭 旅遊景點","phone":null,"website":null,"wheelchair":false,"paid":null,"needsAddr":true},{"id":1615661975,"name":"松瀧岩瀑布","lat":23.6191718,"lng":120.8023653,"address":null,"hasBabyChanging":false,"hasAccessible":false,"source":"OpenStreetMap","updatedAt":"2026-06-16T15:54:24.202Z","facilityType":"tourist_attraction","facilityLabel":"🧭 旅遊景點","phone":null,"website":null,"wheelchair":false,"paid":null,"needsAddr":true},{"id":3062359694,"name":"梨璧石","lat":23.7943483,"lng":120.7468401,"address":null,"hasBabyChanging":false,"hasAccessible":false,"source":"OpenStreetMap","updatedAt":"2026-06-16T15:54:24.202Z","facilityType":"tourist_attraction","facilityLabel":"🧭 旅遊景點","phone":null,"website":null,"wheelchair":false,"paid":null,"needsAddr":true},{"id":3062359696,"name":"觀音石","lat":23.7926376,"lng":120.7480963,"address":null,"hasBabyChanging":false,"hasAccessible":false,"source":"OpenStreetMap","updatedAt":"2026-06-16T15:54:24.202Z","facilityType":"tourist_attraction","facilityLabel":"🧭 旅遊景點","phone":null,"website":null,"wheelchair":false,"paid":null,"needsAddr":true},{"id":3452156583,"name":"燕庵","lat":23.6352356,"lng":120.7970502,"address":null,"hasBabyChanging":false,"hasAccessible":false,"source":"OpenStreetMap","updatedAt":"2026-06-16T15:54:24.202Z","facilityType":"tourist_attraction","facilityLabel":"🧭 旅遊景點","phone":null,"website":null,"wheelchair":false,"paid":null,"needsAddr":true},{"id":3504213052,"name":"太極瀑布","lat":23.6619431,"lng":120.7305325,"address":null,"hasBabyChanging":false,"hasAccessible":false,"source":"OpenStreetMap","updatedAt":"2026-06-16T15:54:24.202Z","facilityType":"tourist_attraction","facilityLabel":"🧭 旅遊景點","phone":null,"website":null,"wheelchair":false,"paid":null,"needsAddr":true},{"id":3504213404,"name":"青龍瀑布","lat":23.6374583,"lng":120.7847548,"address":null,"hasBabyChanging":false,"hasAccessible":false,"source":"OpenStreetMap","updatedAt":"2026-06-16T15:54:24.202Z","facilityType":"tourist_attraction","facilityLabel":"🧭 旅遊景點","phone":null,"website":null,"wheelchair":false,"paid":null,"needsAddr":true},{"id":4505707896,"name":"竹內露營區","lat":23.6820219,"lng":120.7252849,"address":"頂林路","hasBabyChanging":false,"hasAccessible":false,"source":"OpenStreetMap","updatedAt":"2026-06-16T15:54:24.202Z","facilityType":"spot","facilityLabel":"📍 親子景點","phone":null,"website":null,"wheelchair":false,"paid":null,"needsAddr":false},{"id":4693014061,"name":"青龍二瀑","lat":23.6362535,"lng":120.78291,"address":null,"hasBabyChanging":false,"hasAccessible":false,"source":"OpenStreetMap","updatedAt":"2026-06-16T15:54:24.202Z","facilityType":"spot","facilityLabel":"📍 親子景點","phone":null,"website":null,"wheelchair":false,"paid":null,"needsAddr":true},{"id":4788354021,"name":"天梯","lat":23.6633641,"lng":120.7346111,"address":null,"hasBabyChanging":false,"hasAccessible":false,"source":"OpenStreetMap","updatedAt":"2026-06-16T15:54:24.202Z","facilityType":"tourist_attraction","facilityLabel":"🧭 旅遊景點","phone":null,"website":null,"wheelchair":false,"paid":null,"needsAddr":true},{"id":5300338097,"name":"神采奕奕露營區","lat":23.7015831,"lng":120.7164761,"address":"557南投縣竹山鎮竹寮巷19-15號","hasBabyChanging":false,"hasAccessible":false,"source":"OpenStreetMap","updatedAt":"2026-06-16T15:54:24.202Z","facilityType":"spot","facilityLabel":"📍 親子景點","phone":"+886 931 993 095","website":"https://www.facebook.com/神采奕奕露營區-1187176038032546/","wheelchair":false,"paid":null,"needsAddr":false},{"id":5384778122,"name":"傘","lat":23.7674101,"lng":120.7047845,"address":null,"hasBabyChanging":false,"hasAccessible":false,"source":"OpenStreetMap","updatedAt":"2026-06-16T15:54:24.202Z","facilityType":"science","facilityLabel":"🔬 博物館","phone":null,"website":null,"wheelchair":false,"paid":null,"needsAddr":true},{"id":5436588421,"name":"竹山文化園區","lat":23.748149,"lng":120.6799108,"address":null,"hasBabyChanging":false,"hasAccessible":false,"source":"OpenStreetMap","updatedAt":"2026-06-16T15:54:24.202Z","facilityType":"tourist_attraction","facilityLabel":"🧭 旅遊景點","phone":null,"website":null,"wheelchair":false,"paid":null,"needsAddr":true},{"id":5436614721,"name":"軟鞍八卦茶園","lat":23.6629467,"lng":120.7433712,"address":null,"hasBabyChanging":false,"hasAccessible":false,"source":"OpenStreetMap","updatedAt":"2026-06-16T15:54:24.202Z","facilityType":"tourist_attraction","facilityLabel":"🧭 旅遊景點","phone":null,"website":null,"wheelchair":false,"paid":null,"needsAddr":true},{"id":5436614722,"name":"桶頭吊橋","lat":23.6458204,"lng":120.6589951,"address":null,"hasBabyChanging":false,"hasAccessible":false,"source":"OpenStreetMap","updatedAt":"2026-06-16T15:54:24.202Z","facilityType":"tourist_attraction","facilityLabel":"🧭 旅遊景點","phone":null,"website":null,"wheelchair":false,"paid":null,"needsAddr":true},{"id":5998281612,"name":"竹山遊客中心","lat":23.7545918,"lng":120.6775383,"address":"557南投縣竹山鎮集山路三段1220號","hasBabyChanging":false,"hasAccessible":false,"source":"OpenStreetMap","updatedAt":"2026-06-16T15:54:24.202Z","facilityType":"visitor_center","facilityLabel":"🛎 旅客中心","phone":"+886 4 9265 7668","website":null,"wheelchair":false,"paid":null,"needsAddr":false},{"id":6111113837,"name":"向欣谷","lat":23.6394733,"lng":120.78628,"address":null,"hasBabyChanging":false,"hasAccessible":false,"source":"OpenStreetMap","updatedAt":"2026-06-16T15:54:24.202Z","facilityType":"tourist_attraction","facilityLabel":"🧭 旅遊景點","phone":null,"website":null,"wheelchair":false,"paid":null,"needsAddr":true},{"id":6111349101,"name":"青龍瀑布","lat":23.6377837,"lng":120.7837878,"address":null,"hasBabyChanging":false,"hasAccessible":false,"source":"OpenStreetMap","updatedAt":"2026-06-16T15:54:24.202Z","facilityType":"tourist_attraction","facilityLabel":"🧭 旅遊景點","phone":null,"website":null,"wheelchair":false,"paid":null,"needsAddr":true},{"id":6111670176,"name":"欣悅台","lat":23.6382995,"lng":120.7865764,"address":null,"hasBabyChanging":false,"hasAccessible":false,"source":"OpenStreetMap","updatedAt":"2026-06-16T15:54:24.202Z","facilityType":"tourist_attraction","facilityLabel":"🧭 旅遊景點","phone":null,"website":null,"wheelchair":false,"paid":null,"needsAddr":true},{"id":6113224307,"name":"仙人台","lat":23.6324016,"lng":120.7945324,"address":null,"hasBabyChanging":false,"hasAccessible":false,"source":"OpenStreetMap","updatedAt":"2026-06-16T15:54:24.202Z","facilityType":"tourist_attraction","facilityLabel":"🧭 旅遊景點","phone":null,"website":null,"wheelchair":false,"paid":null,"needsAddr":true},{"id":6113437088,"name":"龍鱗瀑布","lat":23.635492,"lng":120.796916,"address":null,"hasBabyChanging":false,"hasAccessible":false,"source":"OpenStreetMap","updatedAt":"2026-06-16T15:54:24.202Z","facilityType":"tourist_attraction","facilityLabel":"🧭 旅遊景點","phone":null,"website":null,"wheelchair":false,"paid":null,"needsAddr":true},{"id":6120237772,"name":"崩坍","lat":23.6097426,"lng":120.795241,"address":null,"hasBabyChanging":false,"hasAccessible":false,"source":"OpenStreetMap","updatedAt":"2026-06-16T15:54:24.202Z","facilityType":"tourist_attraction","facilityLabel":"🧭 旅遊景點","phone":null,"website":null,"wheelchair":false,"paid":null,"needsAddr":true},{"id":6228696013,"name":"下坪自行車道","lat":23.7666737,"lng":120.6825598,"address":null,"hasBabyChanging":false,"hasAccessible":false,"source":"OpenStreetMap","updatedAt":"2026-06-16T15:54:24.202Z","facilityType":"tourist_attraction","facilityLabel":"🧭 旅遊景點","phone":null,"website":null,"wheelchair":false,"paid":null,"needsAddr":true},{"id":6255850659,"name":"瑞龍瀑布","lat":23.6605444,"lng":120.6947715,"address":null,"hasBabyChanging":false,"hasAccessible":false,"source":"OpenStreetMap","updatedAt":"2026-06-16T15:54:24.202Z","facilityType":"tourist_attraction","facilityLabel":"🧭 旅遊景點","phone":null,"website":null,"wheelchair":false,"paid":null,"needsAddr":true},{"id":6313592350,"name":"青龍瀑布","lat":23.661976,"lng":120.7342332,"address":null,"hasBabyChanging":false,"hasAccessible":false,"source":"OpenStreetMap","updatedAt":"2026-06-16T15:54:24.202Z","facilityType":"tourist_attraction","facilityLabel":"🧭 旅遊景點","phone":null,"website":null,"wheelchair":false,"paid":null,"needsAddr":true},{"id":6313592372,"name":"太極峡谷","lat":23.6612299,"lng":120.7355398,"address":null,"hasBabyChanging":false,"hasAccessible":false,"source":"OpenStreetMap","updatedAt":"2026-06-16T15:54:24.202Z","facilityType":"tourist_attraction","facilityLabel":"🧭 旅遊景點","phone":null,"website":null,"wheelchair":false,"paid":null,"needsAddr":true},{"id":7841997485,"name":"雲嶺之丘","lat":23.6270889,"lng":120.7108836,"address":null,"hasBabyChanging":false,"hasAccessible":false,"source":"OpenStreetMap","updatedAt":"2026-06-16T15:54:24.202Z","facilityType":"tourist_attraction","facilityLabel":"🧭 旅遊景點","phone":null,"website":null,"wheelchair":false,"paid":null,"needsAddr":true},{"id":8401443169,"name":"木屐寮生態園區","lat":23.7836834,"lng":120.7060746,"address":null,"hasBabyChanging":false,"hasAccessible":false,"source":"OpenStreetMap","updatedAt":"2026-06-16T15:54:24.202Z","facilityType":"tourist_attraction","facilityLabel":"🧭 旅遊景點","phone":null,"website":null,"wheelchair":false,"paid":null,"needsAddr":true},{"id":9429838217,"name":"花卉中心展示館","lat":23.6274227,"lng":120.798176,"address":null,"hasBabyChanging":false,"hasAccessible":false,"source":"OpenStreetMap","updatedAt":"2026-06-16T15:54:24.202Z","facilityType":"tourist_attraction","facilityLabel":"🧭 旅遊景點","phone":null,"website":null,"wheelchair":false,"paid":null,"needsAddr":true},{"id":9429898717,"name":"天地眼","lat":23.6176169,"lng":120.8047019,"address":null,"hasBabyChanging":false,"hasAccessible":false,"source":"OpenStreetMap","updatedAt":"2026-06-16T15:54:24.202Z","facilityType":"tourist_attraction","facilityLabel":"🧭 旅遊景點","phone":null,"website":null,"wheelchair":false,"paid":null,"needsAddr":true},{"id":9429983021,"name":"杉林溪巨木（擎天台）","lat":23.625159,"lng":120.8003764,"address":null,"hasBabyChanging":false,"hasAccessible":false,"source":"OpenStreetMap","updatedAt":"2026-06-16T15:54:24.202Z","facilityType":"tourist_attraction","facilityLabel":"🧭 旅遊景點","phone":null,"website":null,"wheelchair":false,"paid":null,"needsAddr":true},{"id":10553763858,"name":"竹山老街資訊站","lat":23.7553659,"lng":120.6834338,"address":"557南投縣竹山鎮橫街41號","hasBabyChanging":false,"hasAccessible":false,"source":"OpenStreetMap","updatedAt":"2026-06-16T15:54:24.202Z","facilityType":"visitor_center","facilityLabel":"🛎 旅客中心","phone":"+886 4 9265 6982","website":null,"wheelchair":false,"paid":null,"needsAddr":false},{"id":10574825995,"name":"郁文創藝工作室","lat":23.7530575,"lng":120.6771499,"address":"557南投縣竹山鎮建國二路22號","hasBabyChanging":false,"hasAccessible":false,"source":"OpenStreetMap","updatedAt":"2026-06-16T15:54:24.202Z","facilityType":"culture","facilityLabel":"🎨 藝文場館","phone":null,"website":null,"wheelchair":false,"paid":null,"needsAddr":false},{"id":10613184005,"name":"銀杏湖","lat":23.6395229,"lng":120.7901616,"address":null,"hasBabyChanging":false,"hasAccessible":false,"source":"OpenStreetMap","updatedAt":"2026-06-16T15:54:24.202Z","facilityType":"tourist_attraction","facilityLabel":"🧭 旅遊景點","phone":null,"website":null,"wheelchair":false,"paid":null,"needsAddr":true},{"id":10613215205,"name":"88吊橋","lat":23.638147,"lng":120.7862243,"address":null,"hasBabyChanging":false,"hasAccessible":false,"source":"OpenStreetMap","updatedAt":"2026-06-16T15:54:24.202Z","facilityType":"tourist_attraction","facilityLabel":"🧭 旅遊景點","phone":null,"website":null,"wheelchair":false,"paid":null,"needsAddr":true},{"id":10613244006,"name":"蛇（蛇.行.富.貴）","lat":23.6373884,"lng":120.7834136,"address":null,"hasBabyChanging":false,"hasAccessible":false,"source":"OpenStreetMap","updatedAt":"2026-06-16T15:54:24.202Z","facilityType":"tourist_attraction","facilityLabel":"🧭 旅遊景點","phone":null,"website":null,"wheelchair":false,"paid":null,"needsAddr":true},{"id":10613299905,"name":"福亭","lat":23.6377889,"lng":120.7860028,"address":null,"hasBabyChanging":false,"hasAccessible":false,"source":"OpenStreetMap","updatedAt":"2026-06-16T15:54:24.202Z","facilityType":"tourist_attraction","facilityLabel":"🧭 旅遊景點","phone":null,"website":null,"wheelchair":false,"paid":null,"needsAddr":true},{"id":10613299906,"name":"馬（馬.上.成.功）","lat":23.6377091,"lng":120.7860588,"address":null,"hasBabyChanging":false,"hasAccessible":false,"source":"OpenStreetMap","updatedAt":"2026-06-16T15:54:24.202Z","facilityType":"tourist_attraction","facilityLabel":"🧭 旅遊景點","phone":null,"website":null,"wheelchair":false,"paid":null,"needsAddr":true},{"id":10613347305,"name":"龍","lat":23.6342324,"lng":120.7878933,"address":null,"hasBabyChanging":false,"hasAccessible":false,"source":"OpenStreetMap","updatedAt":"2026-06-16T15:54:24.202Z","facilityType":"tourist_attraction","facilityLabel":"🧭 旅遊景點","phone":null,"website":null,"wheelchair":false,"paid":null,"needsAddr":true},{"id":10613386705,"name":"豬（豬.事.順.利）","lat":23.6354247,"lng":120.7916698,"address":null,"hasBabyChanging":false,"hasAccessible":false,"source":"OpenStreetMap","updatedAt":"2026-06-16T15:54:24.202Z","facilityType":"tourist_attraction","facilityLabel":"🧭 旅遊景點","phone":null,"website":null,"wheelchair":false,"paid":null,"needsAddr":true},{"id":10613539205,"name":"雞（贏.得.先.雞）","lat":23.6368822,"lng":120.796682,"address":null,"hasBabyChanging":false,"hasAccessible":false,"source":"OpenStreetMap","updatedAt":"2026-06-16T15:54:24.202Z","facilityType":"tourist_attraction","facilityLabel":"🧭 旅遊景點","phone":null,"website":null,"wheelchair":false,"paid":null,"needsAddr":true},{"id":10613548106,"name":"豁然台","lat":23.6358767,"lng":120.7962384,"address":null,"hasBabyChanging":false,"hasAccessible":false,"source":"OpenStreetMap","updatedAt":"2026-06-16T15:54:24.202Z","facilityType":"tourist_attraction","facilityLabel":"🧭 旅遊景點","phone":null,"website":null,"wheelchair":false,"paid":null,"needsAddr":true},{"id":10613573005,"name":"猴（升.官.豐.猴）","lat":23.63581,"lng":120.7949751,"address":null,"hasBabyChanging":false,"hasAccessible":false,"source":"OpenStreetMap","updatedAt":"2026-06-16T15:54:24.202Z","facilityType":"tourist_attraction","facilityLabel":"🧭 旅遊景點","phone":null,"website":null,"wheelchair":false,"paid":null,"needsAddr":true},{"id":10613625705,"name":"狗（）","lat":23.635149,"lng":120.7965407,"address":null,"hasBabyChanging":false,"hasAccessible":false,"source":"OpenStreetMap","updatedAt":"2026-06-16T15:54:24.202Z","facilityType":"tourist_attraction","facilityLabel":"🧭 旅遊景點","phone":null,"website":null,"wheelchair":false,"paid":null,"needsAddr":true},{"id":10617145205,"name":"兔（愛.樂.活.兔）","lat":23.6318595,"lng":120.7925562,"address":null,"hasBabyChanging":false,"hasAccessible":false,"source":"OpenStreetMap","updatedAt":"2026-06-16T15:54:24.202Z","facilityType":"tourist_attraction","facilityLabel":"🧭 旅遊景點","phone":null,"website":null,"wheelchair":false,"paid":null,"needsAddr":true},{"id":10617230105,"name":"合流台","lat":23.6263699,"lng":120.7996099,"address":null,"hasBabyChanging":false,"hasAccessible":false,"source":"OpenStreetMap","updatedAt":"2026-06-16T15:54:24.202Z","facilityType":"tourist_attraction","facilityLabel":"🧭 旅遊景點","phone":null,"website":null,"wheelchair":false,"paid":null,"needsAddr":true},{"id":10617239406,"name":"牛（牛.市.大.發）","lat":23.6232182,"lng":120.8014292,"address":null,"hasBabyChanging":false,"hasAccessible":false,"source":"OpenStreetMap","updatedAt":"2026-06-16T15:54:24.202Z","facilityType":"tourist_attraction","facilityLabel":"🧭 旅遊景點","phone":null,"website":null,"wheelchair":false,"paid":null,"needsAddr":true},{"id":10617290905,"name":"松瀧部落","lat":23.6202404,"lng":120.8019837,"address":null,"hasBabyChanging":false,"hasAccessible":false,"source":"OpenStreetMap","updatedAt":"2026-06-16T15:54:24.202Z","facilityType":"tourist_attraction","facilityLabel":"🧭 旅遊景點","phone":null,"website":null,"wheelchair":false,"paid":null,"needsAddr":true},{"id":10617333005,"name":"鼠（花.鼠.來.寶）進亭","lat":23.617844,"lng":120.8039904,"address":null,"hasBabyChanging":false,"hasAccessible":false,"source":"OpenStreetMap","updatedAt":"2026-06-16T15:54:24.202Z","facilityType":"tourist_attraction","facilityLabel":"🧭 旅遊景點","phone":null,"website":null,"wheelchair":false,"paid":null,"needsAddr":true},{"id":10628037305,"name":"靈龜台（石龜飲露）","lat":23.6386551,"lng":120.7864149,"address":null,"hasBabyChanging":false,"hasAccessible":false,"source":"OpenStreetMap","updatedAt":"2026-06-16T15:54:24.202Z","facilityType":"tourist_attraction","facilityLabel":"🧭 旅遊景點","phone":null,"website":null,"wheelchair":false,"paid":null,"needsAddr":true},{"id":11162482605,"name":"五元二角","lat":23.6239182,"lng":120.7135806,"address":null,"hasBabyChanging":false,"hasAccessible":false,"source":"OpenStreetMap","updatedAt":"2026-06-16T15:54:24.202Z","facilityType":"tourist_attraction","facilityLabel":"🧭 旅遊景點","phone":null,"website":null,"wheelchair":false,"paid":null,"needsAddr":true},{"id":11236724046,"name":"近水台","lat":23.6182215,"lng":120.8033309,"address":null,"hasBabyChanging":false,"hasAccessible":false,"source":"OpenStreetMap","updatedAt":"2026-06-16T15:54:24.202Z","facilityType":"tourist_attraction","facilityLabel":"🧭 旅遊景點","phone":null,"website":null,"wheelchair":false,"paid":null,"needsAddr":true},{"id":258131381,"name":"車籠埔斷層保存園區","lat":23.7944237,"lng":120.71142710000001,"address":null,"hasBabyChanging":false,"hasAccessible":false,"source":"OpenStreetMap","updatedAt":"2026-06-16T15:54:24.202Z","facilityType":"science","facilityLabel":"🔬 博物館","phone":null,"website":null,"wheelchair":false,"paid":null,"needsAddr":true},{"id":259858018,"name":"藥花園","lat":23.628515,"lng":120.79879145000001,"address":null,"hasBabyChanging":false,"hasAccessible":false,"source":"OpenStreetMap","updatedAt":"2026-06-16T15:54:24.202Z","facilityType":"park","facilityLabel":"🌳 小型公園","phone":null,"website":null,"wheelchair":false,"paid":null,"needsAddr":true},{"id":302013243,"name":"水車公園","lat":23.8090662,"lng":120.7424917,"address":null,"hasBabyChanging":false,"hasAccessible":false,"source":"OpenStreetMap","updatedAt":"2026-06-16T15:54:24.202Z","facilityType":"park","facilityLabel":"🌳 小型公園","phone":null,"website":null,"wheelchair":false,"paid":null,"needsAddr":true},{"id":324529203,"name":"南岸沉砂池公園","lat":23.81690895,"lng":120.75237435,"address":null,"hasBabyChanging":false,"hasAccessible":false,"source":"OpenStreetMap","updatedAt":"2026-06-16T15:54:24.202Z","facilityType":"park","facilityLabel":"🌳 大型公園","phone":null,"website":null,"wheelchair":false,"paid":null,"needsAddr":true},{"id":336643422,"name":"國立台灣大學下坪熱帶植物園","lat":23.77476055,"lng":120.6715224,"address":"557南投縣竹山鎮枋坪巷21-8號","hasBabyChanging":false,"hasAccessible":false,"source":"OpenStreetMap","updatedAt":"2026-06-16T15:54:24.202Z","facilityType":"park","facilityLabel":"🌳 大型公園","phone":"+886 4 9264 5762","website":null,"wheelchair":false,"paid":null,"needsAddr":false},{"id":371368620,"name":"文四運動公園","lat":23.75567805,"lng":120.68968004999999,"address":null,"hasBabyChanging":false,"hasAccessible":false,"source":"OpenStreetMap","updatedAt":"2026-06-16T15:54:24.202Z","facilityType":"park","facilityLabel":"🌳 中型公園","phone":null,"website":null,"wheelchair":false,"paid":null,"needsAddr":true},{"id":607091106,"name":"杉林溪自然教育中心","lat":23.6351538,"lng":120.78939285,"address":null,"hasBabyChanging":false,"hasAccessible":false,"source":"OpenStreetMap","updatedAt":"2026-06-16T15:54:24.202Z","facilityType":"eco_center","facilityLabel":"🌱 生態館","phone":null,"website":null,"wheelchair":false,"paid":null,"needsAddr":true},{"id":626681818,"name":"竹山文化園區","lat":23.74741285,"lng":120.67993735,"address":"557南投縣竹山鎮建國路742號","hasBabyChanging":false,"hasAccessible":false,"source":"OpenStreetMap","updatedAt":"2026-06-16T15:54:24.202Z","facilityType":"park","facilityLabel":"🌳 中型公園","phone":null,"website":null,"wheelchair":false,"paid":null,"needsAddr":false},{"id":626758915,"name":"包公後悟道","lat":23.75383275,"lng":120.685734,"address":null,"hasBabyChanging":false,"hasAccessible":false,"source":"OpenStreetMap","updatedAt":"2026-06-16T15:54:24.202Z","facilityType":"park","facilityLabel":"🌳 小型公園","phone":null,"website":null,"wheelchair":false,"paid":null,"needsAddr":true},{"id":626769146,"name":"木屐寮生態園區","lat":23.78371665,"lng":120.7074652,"address":null,"hasBabyChanging":false,"hasAccessible":false,"source":"OpenStreetMap","updatedAt":"2026-06-16T15:54:24.202Z","facilityType":"park","facilityLabel":"🌳 超大型公園","phone":null,"website":null,"wheelchair":false,"paid":null,"needsAddr":true},{"id":626772493,"name":"照鏡台地震公園","lat":23.77042075,"lng":120.70766800000001,"address":null,"hasBabyChanging":false,"hasAccessible":false,"source":"OpenStreetMap","updatedAt":"2026-06-16T15:54:24.202Z","facilityType":"park","facilityLabel":"🌳 小型公園","phone":null,"website":null,"wheelchair":false,"paid":null,"needsAddr":true},{"id":642089256,"name":"前岸公園","lat":23.751438999999998,"lng":120.6831243,"address":null,"hasBabyChanging":false,"hasAccessible":false,"source":"OpenStreetMap","updatedAt":"2026-06-16T15:54:24.202Z","facilityType":"park","facilityLabel":"🌳 小型公園","phone":null,"website":null,"wheelchair":false,"paid":null,"needsAddr":true},{"id":744071919,"name":"杉林溪森林生態渡假園區","lat":23.631549399999997,"lng":120.79804655000001,"address":"南投縣竹山鎮大鞍里溪山路6號","hasBabyChanging":false,"hasAccessible":false,"source":"OpenStreetMap","updatedAt":"2026-06-16T15:54:24.202Z","facilityType":"theme_park","facilityLabel":"🎡 遊樂場","phone":"+886 049 261 1217","website":"https://goto307.com.tw","wheelchair":false,"paid":null,"needsAddr":false},{"id":746296429,"name":"竹山鎮盈樟農場 牛母坪露營區","lat":23.70029945,"lng":120.64561125,"address":"南投縣竹山鎮鯉魚里鯉行路152號","hasBabyChanging":false,"hasAccessible":false,"source":"OpenStreetMap","updatedAt":"2026-06-16T15:54:24.202Z","facilityType":"farm","facilityLabel":"🌾 農場","phone":"+886 933 651 978","website":"http://www.lugu.com.tw/yingjhang/","wheelchair":false,"paid":null,"needsAddr":false},{"id":1065532460,"name":"M48A3戰車公園","lat":23.778630200000002,"lng":120.69800275,"address":null,"hasBabyChanging":false,"hasAccessible":false,"source":"OpenStreetMap","updatedAt":"2026-06-16T15:54:24.202Z","facilityType":"park","facilityLabel":"🌳 小型公園","phone":null,"website":null,"wheelchair":false,"paid":null,"needsAddr":true},{"id":1083115218,"name":"母愛公園","lat":23.7566257,"lng":120.6822755,"address":null,"hasBabyChanging":false,"hasAccessible":false,"source":"OpenStreetMap","updatedAt":"2026-06-16T15:54:24.202Z","facilityType":"park","facilityLabel":"🌳 小型公園","phone":null,"website":null,"wheelchair":false,"paid":null,"needsAddr":true},{"id":1127141406,"name":"直覺畫美術館.咖啡","lat":23.7509826,"lng":120.6840512,"address":"557南投縣竹山鎮大智路630號","hasBabyChanging":false,"hasAccessible":false,"source":"OpenStreetMap","updatedAt":"2026-06-16T15:54:24.202Z","facilityType":"culture","facilityLabel":"🎨 藝文場館","phone":"+886 4 9263 0078","website":null,"wheelchair":false,"paid":null,"needsAddr":false},{"id":1419319706,"name":"竹夢親子公園","lat":23.7528913,"lng":120.68731410000001,"address":null,"hasBabyChanging":false,"hasAccessible":false,"source":"OpenStreetMap","updatedAt":"2026-06-16T15:54:24.202Z","facilityType":"park","facilityLabel":"🌳 中型公園","phone":null,"website":null,"wheelchair":false,"paid":null,"needsAddr":true},{"id":1419319715,"name":"南投縣竹山區親子館","lat":23.751338150000002,"lng":120.680304,"address":"557南投縣竹山鎮鯉南路19-18號","hasBabyChanging":false,"hasAccessible":false,"source":"OpenStreetMap","updatedAt":"2026-06-16T15:54:24.202Z","facilityType":"spot","facilityLabel":"📍 親子景點","phone":"+886 4 9263 0180","website":null,"wheelchair":false,"paid":null,"needsAddr":false},{"id":7022756,"name":"雲林湖本八色鳥野生動物重要棲息環境","lat":23.734568250000002,"lng":120.6319546,"address":null,"hasBabyChanging":false,"hasAccessible":false,"source":"OpenStreetMap","updatedAt":"2026-06-16T15:54:24.202Z","facilityType":"spot","facilityLabel":"📍 親子景點","phone":null,"website":"https://conservation.forest.gov.tw/0000183","wheelchair":false,"paid":null,"needsAddr":true},{"id":14207294,"name":"竹山公園","lat":23.758529799999998,"lng":120.67070720000001,"address":null,"hasBabyChanging":false,"hasAccessible":false,"source":"OpenStreetMap","updatedAt":"2026-06-16T15:54:24.202Z","facilityType":"park","facilityLabel":"🌳 中型公園","phone":null,"website":null,"wheelchair":false,"paid":null,"needsAddr":true},{"id":2962633123,"name":"集集攔河堰水資源館","lat":23.8208877,"lng":120.7650092,"address":null,"hasBabyChanging":false,"hasAccessible":false,"source":"OpenStreetMap","updatedAt":"2026-06-16T15:54:24.202Z","facilityType":"science","facilityLabel":"🔬 博物館","phone":null,"website":null,"wheelchair":false,"paid":null,"needsAddr":true},{"id":3256380644,"name":"集集山蕉歷史文化館","lat":23.8286557,"lng":120.7994486,"address":"552南投縣集集鎮民生東路70號","hasBabyChanging":false,"hasAccessible":false,"source":"OpenStreetMap","updatedAt":"2026-06-16T15:54:24.202Z","facilityType":"science","facilityLabel":"🔬 博物館","phone":"+886492764562","website":"http://jijibanana.com","wheelchair":false,"paid":false,"needsAddr":false},{"id":3333416822,"name":"微風山居民宿","lat":23.8289772,"lng":120.7864021,"address":null,"hasBabyChanging":false,"hasAccessible":false,"source":"OpenStreetMap","updatedAt":"2026-06-16T15:54:24.202Z","facilityType":"mall","facilityLabel":"🛍 商場","phone":null,"website":null,"wheelchair":false,"paid":null,"needsAddr":true},{"id":3355427008,"name":"集集鐵道行旅","lat":23.8269808,"lng":120.7814529,"address":null,"hasBabyChanging":false,"hasAccessible":false,"source":"OpenStreetMap","updatedAt":"2026-06-16T15:54:24.202Z","facilityType":"spot","facilityLabel":"📍 親子景點","phone":null,"website":null,"wheelchair":false,"paid":null,"needsAddr":true},{"id":3880463774,"name":"添興窯陶藝村","lat":23.8329045,"lng":120.755432,"address":null,"hasBabyChanging":false,"hasAccessible":false,"source":"OpenStreetMap","updatedAt":"2026-06-16T15:54:24.202Z","facilityType":"diy","facilityLabel":"🧶 DIY手作","phone":null,"website":null,"wheelchair":false,"paid":null,"needsAddr":true},{"id":3995131153,"name":"十三目仔窯看火車","lat":23.8274914,"lng":120.7712348,"address":null,"hasBabyChanging":false,"hasAccessible":false,"source":"OpenStreetMap","updatedAt":"2026-06-16T15:54:24.202Z","facilityType":"tourist_attraction","facilityLabel":"🧭 旅遊景點","phone":null,"website":null,"wheelchair":false,"paid":null,"needsAddr":true},{"id":5436383322,"name":"開闢鴻荒石碣","lat":23.8200427,"lng":120.7633904,"address":null,"hasBabyChanging":false,"hasAccessible":false,"source":"OpenStreetMap","updatedAt":"2026-06-16T15:54:24.202Z","facilityType":"tourist_attraction","facilityLabel":"🧭 旅遊景點","phone":null,"website":null,"wheelchair":false,"paid":null,"needsAddr":true},{"id":6040701525,"name":"化及蠻貊","lat":23.8263526,"lng":120.8073253,"address":null,"hasBabyChanging":false,"hasAccessible":false,"source":"OpenStreetMap","updatedAt":"2026-06-16T15:54:24.202Z","facilityType":"tourist_attraction","facilityLabel":"🧭 旅遊景點","phone":null,"website":null,"wheelchair":false,"paid":null,"needsAddr":true},{"id":10925738607,"name":"集集綠色隧道","lat":23.8309582,"lng":120.7580869,"address":"南投縣集集區楓林巷","hasBabyChanging":false,"hasAccessible":false,"source":"OpenStreetMap","updatedAt":"2026-06-16T15:54:24.202Z","facilityType":"tourist_attraction","facilityLabel":"🧭 旅遊景點","phone":null,"website":null,"wheelchair":false,"paid":null,"needsAddr":false},{"id":197013976,"name":"遊客服務站","lat":23.82693,"lng":120.79992655000001,"address":null,"hasBabyChanging":false,"hasAccessible":false,"source":"OpenStreetMap","updatedAt":"2026-06-16T15:54:24.202Z","facilityType":"visitor_center","facilityLabel":"🛎 旅客中心","phone":null,"website":null,"wheelchair":false,"paid":null,"needsAddr":true},{"id":197014232,"name":"三角公園","lat":23.827814349999997,"lng":120.79790015,"address":null,"hasBabyChanging":false,"hasAccessible":false,"source":"OpenStreetMap","updatedAt":"2026-06-16T15:54:24.202Z","facilityType":"park","facilityLabel":"🌳 小型公園","phone":null,"website":null,"wheelchair":false,"paid":null,"needsAddr":true},{"id":197020660,"name":"軍史公園","lat":23.827155349999998,"lng":120.79542565,"address":null,"hasBabyChanging":false,"hasAccessible":false,"source":"OpenStreetMap","updatedAt":"2026-06-16T15:54:24.202Z","facilityType":"park","facilityLabel":"🌳 小型公園","phone":null,"website":null,"wheelchair":false,"paid":null,"needsAddr":true},{"id":197021857,"name":"集集車站","lat":23.826470800000003,"lng":120.78486085,"address":null,"hasBabyChanging":false,"hasAccessible":false,"source":"OpenStreetMap","updatedAt":"2026-06-16T15:54:24.202Z","facilityType":"tourist_attraction","facilityLabel":"🧭 旅遊景點","phone":null,"website":null,"wheelchair":false,"paid":null,"needsAddr":true},{"id":309412651,"name":"DeJiJi親水童年園區","lat":23.8330055,"lng":120.78630815,"address":null,"hasBabyChanging":false,"hasAccessible":false,"source":"OpenStreetMap","updatedAt":"2026-06-16T15:54:24.202Z","facilityType":"water","facilityLabel":"💧 戲水親水","phone":null,"website":null,"wheelchair":false,"paid":null,"needsAddr":true},{"id":319347051,"name":"火車頭集集鐵道故事館","lat":23.82684805,"lng":120.78544405,"address":null,"hasBabyChanging":false,"hasAccessible":false,"source":"OpenStreetMap","updatedAt":"2026-06-16T15:54:24.202Z","facilityType":"science","facilityLabel":"🔬 博物館","phone":null,"website":null,"wheelchair":false,"paid":null,"needsAddr":true},{"id":327897928,"name":"假日廣場","lat":23.82947565,"lng":120.7837106,"address":null,"hasBabyChanging":false,"hasAccessible":false,"source":"OpenStreetMap","updatedAt":"2026-06-16T15:54:24.202Z","facilityType":"park","facilityLabel":"🌳 小型公園","phone":null,"website":null,"wheelchair":false,"paid":null,"needsAddr":true},{"id":530890026,"name":"集元果觀光工廠","lat":23.82504635,"lng":120.81462225,"address":null,"hasBabyChanging":false,"hasAccessible":false,"source":"OpenStreetMap","updatedAt":"2026-06-16T15:54:24.202Z","facilityType":"factory","facilityLabel":"🏭 觀光工廠","phone":null,"website":null,"wheelchair":false,"paid":null,"needsAddr":true},{"id":530720229,"name":"生態教育園區","lat":23.82689225,"lng":120.8013799,"address":null,"hasBabyChanging":false,"hasAccessible":false,"source":"OpenStreetMap","updatedAt":"2026-06-16T15:54:24.202Z","facilityType":"park","facilityLabel":"🌳 中型公園","phone":null,"website":null,"wheelchair":false,"paid":null,"needsAddr":true},{"id":550194770,"name":"田寮公園","lat":23.83248775,"lng":120.75196245000001,"address":null,"hasBabyChanging":false,"hasAccessible":false,"source":"OpenStreetMap","updatedAt":"2026-06-16T15:54:24.202Z","facilityType":"park","facilityLabel":"🌳 小型公園","phone":null,"website":null,"wheelchair":false,"paid":null,"needsAddr":true},{"id":568380037,"name":"左手香故事館園區","lat":23.82768705,"lng":120.7714161,"address":null,"hasBabyChanging":false,"hasAccessible":false,"source":"OpenStreetMap","updatedAt":"2026-06-16T15:54:24.202Z","facilityType":"tourist_attraction","facilityLabel":"🧭 旅遊景點","phone":null,"website":null,"wheelchair":false,"paid":null,"needsAddr":true},{"id":1004995596,"name":"漿子牙手作館","lat":23.82608165,"lng":120.78656795,"address":null,"hasBabyChanging":false,"hasAccessible":false,"source":"OpenStreetMap","updatedAt":"2026-06-16T15:54:24.202Z","facilityType":"diy","facilityLabel":"🧶 DIY手作","phone":null,"website":null,"wheelchair":false,"paid":null,"needsAddr":true},{"id":4443051,"name":"保育教育館","lat":23.8279572,"lng":120.8003102,"address":"552南投縣集集鎮民生東路1號","hasBabyChanging":false,"hasAccessible":false,"source":"OpenStreetMap","updatedAt":"2026-06-16T15:54:24.202Z","facilityType":"science","facilityLabel":"🔬 博物館","phone":"+886 49 276 1331","website":"http://eep.tesri.gov.tw","wheelchair":false,"paid":null,"needsAddr":false},{"id":3502454575,"name":"921 斜塔","lat":23.8333626,"lng":120.7101728,"address":null,"hasBabyChanging":false,"hasAccessible":false,"source":"OpenStreetMap","updatedAt":"2026-06-16T15:54:24.202Z","facilityType":"tourist_attraction","facilityLabel":"🧭 旅遊景點","phone":null,"website":null,"wheelchair":false,"paid":null,"needsAddr":true},{"id":4712130563,"name":"松柏嶺遊客中心","lat":23.8339034,"lng":120.6361194,"address":null,"hasBabyChanging":false,"hasAccessible":false,"source":"OpenStreetMap","updatedAt":"2026-06-16T15:54:24.202Z","facilityType":"visitor_center","facilityLabel":"🛎 旅客中心","phone":null,"website":null,"wheelchair":false,"paid":null,"needsAddr":true},{"id":5301820634,"name":"南投豬樂園","lat":23.8544811,"lng":120.6968037,"address":"551南投縣名間鄉彰南路256號","hasBabyChanging":false,"hasAccessible":false,"source":"OpenStreetMap","updatedAt":"2026-06-16T15:54:24.202Z","facilityType":"tourist_attraction","facilityLabel":"🧭 旅遊景點","phone":"+886-49-273 4305#163","website":"https://www.facebook.com/PIG.LULU.Paradise/","wheelchair":false,"paid":null,"needsAddr":false},{"id":5435950724,"name":"茶香步道","lat":23.8408455,"lng":120.6274054,"address":null,"hasBabyChanging":false,"hasAccessible":false,"source":"OpenStreetMap","updatedAt":"2026-06-16T15:54:24.202Z","facilityType":"tourist_attraction","facilityLabel":"🧭 旅遊景點","phone":null,"website":null,"wheelchair":false,"paid":null,"needsAddr":true},{"id":5436382922,"name":"集集綠色隧道西口","lat":23.8352217,"lng":120.7229629,"address":null,"hasBabyChanging":false,"hasAccessible":false,"source":"OpenStreetMap","updatedAt":"2026-06-16T15:54:24.202Z","facilityType":"tourist_attraction","facilityLabel":"🧭 旅遊景點","phone":null,"website":null,"wheelchair":false,"paid":null,"needsAddr":true},{"id":5713197469,"name":"長青牧場","lat":23.8509569,"lng":120.6850498,"address":"551南投縣名間鄉大廈巷1之3號","hasBabyChanging":false,"hasAccessible":false,"source":"OpenStreetMap","updatedAt":"2026-06-16T15:54:24.202Z","facilityType":"farm","facilityLabel":"🌾 農場","phone":"+886 939 727 568","website":"https://www.facebook.com/長青牧場-192506834116686/","wheelchair":false,"paid":null,"needsAddr":false},{"id":7215508883,"name":"坑內休閒農場","lat":23.856483,"lng":120.7280141,"address":null,"hasBabyChanging":false,"hasAccessible":false,"source":"OpenStreetMap","updatedAt":"2026-06-16T15:54:24.202Z","facilityType":"farm","facilityLabel":"🌾 農場","phone":null,"website":null,"wheelchair":false,"paid":null,"needsAddr":true},{"id":526642582,"name":"921斜塔休憩區","lat":23.83311925,"lng":120.71065265,"address":null,"hasBabyChanging":false,"hasAccessible":false,"source":"OpenStreetMap","updatedAt":"2026-06-16T15:54:24.202Z","facilityType":"tourist_attraction","facilityLabel":"🧭 旅遊景點","phone":null,"website":null,"wheelchair":false,"paid":null,"needsAddr":true},{"id":659046197,"name":"受天宮小公園","lat":23.833755,"lng":120.63354545,"address":null,"hasBabyChanging":false,"hasAccessible":false,"source":"OpenStreetMap","updatedAt":"2026-06-16T15:54:24.202Z","facilityType":"park","facilityLabel":"🌳 小型公園","phone":null,"website":null,"wheelchair":false,"paid":null,"needsAddr":true},{"id":659234868,"name":"柏茶亭","lat":23.8419974,"lng":120.6261342,"address":null,"hasBabyChanging":false,"hasAccessible":false,"source":"OpenStreetMap","updatedAt":"2026-06-16T15:54:24.202Z","facilityType":"park","facilityLabel":"🌳 小型公園","phone":null,"website":null,"wheelchair":false,"paid":null,"needsAddr":true},{"id":676211337,"name":"田中森林公園登山步道(北線)","lat":23.8504813,"lng":120.61575975,"address":null,"hasBabyChanging":false,"hasAccessible":false,"source":"OpenStreetMap","updatedAt":"2026-06-16T15:54:24.202Z","facilityType":"park","facilityLabel":"🌳 小型公園","phone":null,"website":null,"wheelchair":false,"paid":null,"needsAddr":true},{"id":703411148,"name":"九二一斜塔紀念公園","lat":23.83266445,"lng":120.71025825,"address":null,"hasBabyChanging":false,"hasAccessible":false,"source":"OpenStreetMap","updatedAt":"2026-06-16T15:54:24.202Z","facilityType":"park","facilityLabel":"🌳 小型公園","phone":null,"website":null,"wheelchair":false,"paid":null,"needsAddr":true},{"id":748909469,"name":"河堤旁","lat":23.83685415,"lng":120.70099859999999,"address":null,"hasBabyChanging":false,"hasAccessible":false,"source":"OpenStreetMap","updatedAt":"2026-06-16T15:54:24.202Z","facilityType":"park","facilityLabel":"🌳 小型公園","phone":null,"website":null,"wheelchair":false,"paid":null,"needsAddr":true},{"id":977352085,"name":"七星陣地公園-瑤光","lat":23.8309686,"lng":120.63839630000001,"address":null,"hasBabyChanging":false,"hasAccessible":false,"source":"OpenStreetMap","updatedAt":"2026-06-16T15:54:24.202Z","facilityType":"park","facilityLabel":"🌳 小型公園","phone":null,"website":null,"wheelchair":false,"paid":null,"needsAddr":true},{"id":1013976628,"name":"名間親子生態園區","lat":23.85583575,"lng":120.6965645,"address":null,"hasBabyChanging":false,"hasAccessible":false,"source":"OpenStreetMap","updatedAt":"2026-06-16T15:54:24.202Z","facilityType":"park","facilityLabel":"🌳 中型公園","phone":null,"website":null,"wheelchair":false,"paid":null,"needsAddr":true},{"id":1196904796,"name":"七星陣地公園 天樞","lat":23.8221543,"lng":120.6415819,"address":null,"hasBabyChanging":false,"hasAccessible":false,"source":"OpenStreetMap","updatedAt":"2026-06-16T15:54:24.202Z","facilityType":"park","facilityLabel":"🌳 小型公園","phone":null,"website":null,"wheelchair":false,"paid":null,"needsAddr":true},{"id":1196904800,"name":"七星陣地公園-玉衡","lat":23.8256156,"lng":120.6398489,"address":null,"hasBabyChanging":false,"hasAccessible":false,"source":"OpenStreetMap","updatedAt":"2026-06-16T15:54:24.202Z","facilityType":"park","facilityLabel":"🌳 小型公園","phone":null,"website":null,"wheelchair":false,"paid":null,"needsAddr":true},{"id":1196904801,"name":"七星陣地公園-24砲台","lat":23.82716725,"lng":120.6408612,"address":null,"hasBabyChanging":false,"hasAccessible":false,"source":"OpenStreetMap","updatedAt":"2026-06-16T15:54:24.202Z","facilityType":"tourist_attraction","facilityLabel":"🧭 旅遊景點","phone":null,"website":null,"wheelchair":false,"paid":null,"needsAddr":true},{"id":1196904803,"name":"七星陣地公園-25砲台","lat":23.829952,"lng":120.6398318,"address":null,"hasBabyChanging":false,"hasAccessible":false,"source":"OpenStreetMap","updatedAt":"2026-06-16T15:54:24.202Z","facilityType":"tourist_attraction","facilityLabel":"🧭 旅遊景點","phone":null,"website":null,"wheelchair":false,"paid":null,"needsAddr":true},{"id":1615675728,"name":"中華電信板鹿谷服務中心","lat":23.7488519,"lng":120.7526293,"address":null,"hasBabyChanging":false,"hasAccessible":false,"source":"OpenStreetMap","updatedAt":"2026-06-16T15:54:24.202Z","facilityType":"visitor_center","facilityLabel":"🛎 旅客中心","phone":null,"website":null,"wheelchair":false,"paid":null,"needsAddr":true},{"id":2955964823,"name":"鳳凰谷鳥園","lat":23.7291312,"lng":120.79198,"address":null,"hasBabyChanging":false,"hasAccessible":false,"source":"OpenStreetMap","updatedAt":"2026-06-16T15:54:24.202Z","facilityType":"zoo","facilityLabel":"🦁 動物園","phone":null,"website":null,"wheelchair":false,"paid":null,"needsAddr":true},{"id":3609887637,"name":"小半天瀑布","lat":23.7090826,"lng":120.7506974,"address":null,"hasBabyChanging":false,"hasAccessible":false,"source":"OpenStreetMap","updatedAt":"2026-06-16T15:54:24.202Z","facilityType":"tourist_attraction","facilityLabel":"🧭 旅遊景點","phone":null,"website":null,"wheelchair":false,"paid":null,"needsAddr":true},{"id":3609951934,"name":"德興瀑布","lat":23.6951589,"lng":120.7560197,"address":null,"hasBabyChanging":false,"hasAccessible":false,"source":"OpenStreetMap","updatedAt":"2026-06-16T15:54:24.202Z","facilityType":"tourist_attraction","facilityLabel":"🧭 旅遊景點","phone":null,"website":null,"wheelchair":false,"paid":null,"needsAddr":true},{"id":3610734004,"name":"孟宗竹林古戰場","lat":23.7166832,"lng":120.7720662,"address":null,"hasBabyChanging":false,"hasAccessible":false,"source":"OpenStreetMap","updatedAt":"2026-06-16T15:54:24.202Z","facilityType":"tourist_attraction","facilityLabel":"🧭 旅遊景點","phone":null,"website":null,"wheelchair":false,"paid":null,"needsAddr":true},{"id":4360437724,"name":"巨石","lat":23.6585081,"lng":120.7958161,"address":null,"hasBabyChanging":false,"hasAccessible":false,"source":"OpenStreetMap","updatedAt":"2026-06-16T15:54:24.202Z","facilityType":"tourist_attraction","facilityLabel":"🧭 旅遊景點","phone":null,"website":null,"wheelchair":false,"paid":null,"needsAddr":true},{"id":4654975564,"name":"鳳凰谷瀑布","lat":23.7328339,"lng":120.8007345,"address":null,"hasBabyChanging":false,"hasAccessible":false,"source":"OpenStreetMap","updatedAt":"2026-06-16T15:54:24.202Z","facilityType":"tourist_attraction","facilityLabel":"🧭 旅遊景點","phone":null,"website":null,"wheelchair":false,"paid":null,"needsAddr":true},{"id":6979925123,"name":"一陽露營區","lat":23.6912611,"lng":120.773448,"address":null,"hasBabyChanging":false,"hasAccessible":false,"source":"OpenStreetMap","updatedAt":"2026-06-16T15:54:24.202Z","facilityType":"spot","facilityLabel":"📍 親子景點","phone":null,"website":null,"wheelchair":false,"paid":null,"needsAddr":true},{"id":8399260552,"name":"萬年亨衢","lat":23.7262648,"lng":120.7963384,"address":null,"hasBabyChanging":false,"hasAccessible":false,"source":"OpenStreetMap","updatedAt":"2026-06-16T15:54:24.202Z","facilityType":"tourist_attraction","facilityLabel":"🧭 旅遊景點","phone":null,"website":null,"wheelchair":false,"paid":null,"needsAddr":true},{"id":10628267305,"name":"相思台","lat":23.6598887,"lng":120.7795411,"address":null,"hasBabyChanging":false,"hasAccessible":false,"source":"OpenStreetMap","updatedAt":"2026-06-16T15:54:24.202Z","facilityType":"tourist_attraction","facilityLabel":"🧭 旅遊景點","phone":null,"website":null,"wheelchair":false,"paid":null,"needsAddr":true},{"id":291946187,"name":"麒麟潭東湖露營區","lat":23.7538936,"lng":120.77319929999999,"address":null,"hasBabyChanging":false,"hasAccessible":false,"source":"OpenStreetMap","updatedAt":"2026-06-16T15:54:24.202Z","facilityType":"spot","facilityLabel":"📍 親子景點","phone":null,"website":null,"wheelchair":false,"paid":null,"needsAddr":true},{"id":291946188,"name":"麒麟潭波斯園營地","lat":23.753751700000002,"lng":120.77220945,"address":null,"hasBabyChanging":false,"hasAccessible":false,"source":"OpenStreetMap","updatedAt":"2026-06-16T15:54:24.202Z","facilityType":"spot","facilityLabel":"📍 親子景點","phone":null,"website":null,"wheelchair":false,"paid":null,"needsAddr":true},{"id":291948461,"name":"大水堀遊客服務中心","lat":23.7535978,"lng":120.7717934,"address":null,"hasBabyChanging":false,"hasAccessible":false,"source":"OpenStreetMap","updatedAt":"2026-06-16T15:54:24.202Z","facilityType":"visitor_center","facilityLabel":"🛎 旅客中心","phone":null,"website":null,"wheelchair":false,"paid":null,"needsAddr":true},{"id":292008818,"name":"麒麟潭湖畔營地","lat":23.75330775,"lng":120.7708365,"address":null,"hasBabyChanging":false,"hasAccessible":false,"source":"OpenStreetMap","updatedAt":"2026-06-16T15:54:24.202Z","facilityType":"spot","facilityLabel":"📍 親子景點","phone":null,"website":null,"wheelchair":false,"paid":null,"needsAddr":true},{"id":355472700,"name":"武岫竹炭窯文化園區","lat":23.71889125,"lng":120.76156705,"address":null,"hasBabyChanging":false,"hasAccessible":false,"source":"OpenStreetMap","updatedAt":"2026-06-16T15:54:24.202Z","facilityType":"tourist_attraction","facilityLabel":"🧭 旅遊景點","phone":null,"website":null,"wheelchair":false,"paid":null,"needsAddr":true},{"id":355473269,"name":"小半天旅遊服務中心、竹林村集會所","lat":23.72578365,"lng":120.7577815,"address":"南投縣鹿谷鄉光復路174-7號","hasBabyChanging":false,"hasAccessible":false,"source":"OpenStreetMap","updatedAt":"2026-06-16T15:54:24.202Z","facilityType":"visitor_center","facilityLabel":"🛎 旅客中心","phone":null,"website":null,"wheelchair":false,"paid":null,"needsAddr":false},{"id":355473270,"name":"石馬公園","lat":23.725967,"lng":120.758618,"address":null,"hasBabyChanging":false,"hasAccessible":false,"source":"OpenStreetMap","updatedAt":"2026-06-16T15:54:24.202Z","facilityType":"park","facilityLabel":"🌳 小型公園","phone":null,"website":null,"wheelchair":false,"paid":null,"needsAddr":true},{"id":376654357,"name":"溪頭妖怪村","lat":23.6740846,"lng":120.79644825,"address":null,"hasBabyChanging":false,"hasAccessible":false,"source":"OpenStreetMap","updatedAt":"2026-06-16T15:54:24.202Z","facilityType":"theme_park","facilityLabel":"🎡 遊樂場","phone":null,"website":null,"wheelchair":false,"paid":null,"needsAddr":true},{"id":376654369,"name":"溪頭露營區","lat":23.678195449999997,"lng":120.79806805,"address":null,"hasBabyChanging":false,"hasAccessible":false,"source":"OpenStreetMap","updatedAt":"2026-06-16T15:54:24.202Z","facilityType":"spot","facilityLabel":"📍 親子景點","phone":null,"website":null,"wheelchair":false,"paid":null,"needsAddr":true},{"id":528009820,"name":"神木廣場","lat":23.6607801,"lng":120.7983691,"address":null,"hasBabyChanging":false,"hasAccessible":true,"source":"OpenStreetMap","updatedAt":"2026-06-16T15:54:24.202Z","facilityType":"park","facilityLabel":"🌳 小型公園","phone":null,"website":null,"wheelchair":true,"paid":null,"needsAddr":true},{"id":528013137,"name":"森林探索區","lat":23.6677922,"lng":120.7890702,"address":null,"hasBabyChanging":false,"hasAccessible":false,"source":"OpenStreetMap","updatedAt":"2026-06-16T15:54:24.202Z","facilityType":"park","facilityLabel":"🌳 中型公園","phone":null,"website":null,"wheelchair":false,"paid":null,"needsAddr":true},{"id":528621341,"name":"土石流教學園區","lat":23.6649221,"lng":120.78643124999999,"address":null,"hasBabyChanging":false,"hasAccessible":false,"source":"OpenStreetMap","updatedAt":"2026-06-16T15:54:24.202Z","facilityType":"park","facilityLabel":"🌳 大型公園","phone":null,"website":null,"wheelchair":false,"paid":null,"needsAddr":true},{"id":528625708,"name":"A區","lat":23.67824865,"lng":120.7977125,"address":null,"hasBabyChanging":false,"hasAccessible":false,"source":"OpenStreetMap","updatedAt":"2026-06-16T15:54:24.202Z","facilityType":"spot","facilityLabel":"📍 親子景點","phone":null,"website":null,"wheelchair":false,"paid":null,"needsAddr":true},{"id":528625710,"name":"B區","lat":23.6780762,"lng":120.79800485,"address":null,"hasBabyChanging":false,"hasAccessible":false,"source":"OpenStreetMap","updatedAt":"2026-06-16T15:54:24.202Z","facilityType":"spot","facilityLabel":"📍 親子景點","phone":null,"website":null,"wheelchair":false,"paid":null,"needsAddr":true},{"id":528625713,"name":"C區","lat":23.67793085,"lng":120.798575,"address":null,"hasBabyChanging":false,"hasAccessible":false,"source":"OpenStreetMap","updatedAt":"2026-06-16T15:54:24.202Z","facilityType":"spot","facilityLabel":"📍 親子景點","phone":null,"website":null,"wheelchair":false,"paid":null,"needsAddr":true},{"id":528634222,"name":"世界爺標本區","lat":23.66963645,"lng":120.7955504,"address":null,"hasBabyChanging":false,"hasAccessible":false,"source":"OpenStreetMap","updatedAt":"2026-06-16T15:54:24.202Z","facilityType":"park","facilityLabel":"🌳 小型公園","phone":null,"website":null,"wheelchair":false,"paid":null,"needsAddr":true},{"id":557191607,"name":"鹿谷遊客中心","lat":23.73948425,"lng":120.75959639999999,"address":null,"hasBabyChanging":false,"hasAccessible":false,"source":"OpenStreetMap","updatedAt":"2026-06-16T15:54:24.202Z","facilityType":"visitor_center","facilityLabel":"🛎 旅客中心","phone":null,"website":null,"wheelchair":false,"paid":null,"needsAddr":true},{"id":625185269,"name":"台大實驗林管處鳳凰自然教育園區","lat":23.729962049999997,"lng":120.78835285,"address":null,"hasBabyChanging":false,"hasAccessible":false,"source":"OpenStreetMap","updatedAt":"2026-06-16T15:54:24.202Z","facilityType":"visitor_center","facilityLabel":"🛎 旅客中心","phone":null,"website":null,"wheelchair":false,"paid":null,"needsAddr":true},{"id":625185270,"name":"台大鳳凰自然教育園區","lat":23.729993200000003,"lng":120.78703465,"address":"南投縣鹿谷鄉1-18號","hasBabyChanging":false,"hasAccessible":false,"source":"OpenStreetMap","updatedAt":"2026-06-16T15:54:24.202Z","facilityType":"visitor_center","facilityLabel":"🛎 旅客中心","phone":null,"website":null,"wheelchair":false,"paid":null,"needsAddr":false},{"id":625185280,"name":"松鶴園","lat":23.7286876,"lng":120.79486415,"address":"南投縣鹿谷鄉1-58號","hasBabyChanging":false,"hasAccessible":false,"source":"OpenStreetMap","updatedAt":"2026-06-16T15:54:24.202Z","facilityType":"science","facilityLabel":"🔬 博物館","phone":null,"website":null,"wheelchair":false,"paid":null,"needsAddr":false},{"id":682361087,"name":"國立科博館鳳凰谷鳥園生態園區","lat":23.7297377,"lng":120.7963384,"address":null,"hasBabyChanging":false,"hasAccessible":false,"source":"OpenStreetMap","updatedAt":"2026-06-16T15:54:24.202Z","facilityType":"science","facilityLabel":"🔬 博物館","phone":null,"website":null,"wheelchair":false,"paid":null,"needsAddr":true},{"id":872340095,"name":"益品美術館","lat":23.7288917,"lng":120.7742574,"address":null,"hasBabyChanging":false,"hasAccessible":false,"source":"OpenStreetMap","updatedAt":"2026-06-16T15:54:24.202Z","facilityType":"culture","facilityLabel":"🎨 藝文場館","phone":null,"website":null,"wheelchair":false,"paid":true,"needsAddr":true},{"id":1007347610,"name":"杉珍溪頭小半天旅遊中心","lat":23.7374466,"lng":120.75980665,"address":"558南投縣鹿谷鄉中正一路299號","hasBabyChanging":false,"hasAccessible":false,"source":"OpenStreetMap","updatedAt":"2026-06-16T15:54:24.202Z","facilityType":"visitor_center","facilityLabel":"🛎 旅客中心","phone":"+886492755753","website":"https://lugucto.3j.idv.tw/","wheelchair":false,"paid":null,"needsAddr":false},{"id":1200971725,"name":"賞鳥平台","lat":23.660288299999998,"lng":120.7987479,"address":null,"hasBabyChanging":false,"hasAccessible":false,"source":"OpenStreetMap","updatedAt":"2026-06-16T15:54:24.202Z","facilityType":"tourist_attraction","facilityLabel":"🧭 旅遊景點","phone":null,"website":null,"wheelchair":false,"paid":null,"needsAddr":true},{"id":7106044,"name":"溪頭自然教育園區","lat":23.673307700000002,"lng":120.79886865,"address":"南投縣鹿谷鄉森林巷9號","hasBabyChanging":false,"hasAccessible":false,"source":"OpenStreetMap","updatedAt":"2026-06-16T15:54:24.202Z","facilityType":"tourist_attraction","facilityLabel":"🧭 旅遊景點","phone":null,"website":"https://www.exfo.ntu.edu.tw/sitou/","wheelchair":false,"paid":null,"needsAddr":false},{"id":4381725366,"name":"龍鳳瀑布空中步道","lat":23.942764,"lng":120.817202,"address":null,"hasBabyChanging":false,"hasAccessible":false,"source":"OpenStreetMap","updatedAt":"2026-06-16T15:54:24.202Z","facilityType":"tourist_attraction","facilityLabel":"🧭 旅遊景點","phone":null,"website":null,"wheelchair":false,"paid":null,"needsAddr":true},{"id":4536041616,"name":"陳水合生命花園","lat":23.8685105,"lng":120.7456766,"address":"南投縣中寮鄉梨子巷13號","hasBabyChanging":false,"hasAccessible":false,"source":"OpenStreetMap","updatedAt":"2026-06-16T15:54:24.202Z","facilityType":"science","facilityLabel":"🔬 博物館","phone":"+886 49 269 2577","website":null,"wheelchair":false,"paid":null,"needsAddr":false},{"id":5436502722,"name":"龍眼灶","lat":23.9431128,"lng":120.772122,"address":null,"hasBabyChanging":false,"hasAccessible":false,"source":"OpenStreetMap","updatedAt":"2026-06-16T15:54:24.202Z","facilityType":"tourist_attraction","facilityLabel":"🧭 旅遊景點","phone":null,"website":null,"wheelchair":false,"paid":null,"needsAddr":true},{"id":5436537721,"name":"棋盤石風景區","lat":23.9002404,"lng":120.8000264,"address":null,"hasBabyChanging":false,"hasAccessible":false,"source":"OpenStreetMap","updatedAt":"2026-06-16T15:54:24.202Z","facilityType":"scenic_area","facilityLabel":"🏞 風景區","phone":null,"website":null,"wheelchair":false,"paid":null,"needsAddr":true},{"id":7263940221,"name":"棋盤石","lat":23.9009764,"lng":120.7994258,"address":null,"hasBabyChanging":false,"hasAccessible":false,"source":"OpenStreetMap","updatedAt":"2026-06-16T15:54:24.202Z","facilityType":"tourist_attraction","facilityLabel":"🧭 旅遊景點","phone":null,"website":null,"wheelchair":false,"paid":null,"needsAddr":true},{"id":7265444726,"name":"中寮鄉旅客服務中心","lat":23.9435069,"lng":120.7849114,"address":null,"hasBabyChanging":false,"hasAccessible":false,"source":"OpenStreetMap","updatedAt":"2026-06-16T15:54:24.202Z","facilityType":"visitor_center","facilityLabel":"🛎 旅客中心","phone":null,"website":null,"wheelchair":false,"paid":null,"needsAddr":true},{"id":7289010798,"name":"龍瀑布","lat":23.9426205,"lng":120.8168326,"address":null,"hasBabyChanging":false,"hasAccessible":false,"source":"OpenStreetMap","updatedAt":"2026-06-16T15:54:24.202Z","facilityType":"tourist_attraction","facilityLabel":"🧭 旅遊景點","phone":null,"website":null,"wheelchair":false,"paid":null,"needsAddr":true},{"id":9112852451,"name":"雙金龍","lat":23.8852583,"lng":120.8066639,"address":null,"hasBabyChanging":false,"hasAccessible":false,"source":"OpenStreetMap","updatedAt":"2026-06-16T15:54:24.202Z","facilityType":"tourist_attraction","facilityLabel":"🧭 旅遊景點","phone":null,"website":null,"wheelchair":false,"paid":null,"needsAddr":true},{"id":11217046690,"name":"鳳瀑布","lat":23.9411259,"lng":120.8169359,"address":null,"hasBabyChanging":false,"hasAccessible":false,"source":"OpenStreetMap","updatedAt":"2026-06-16T15:54:24.202Z","facilityType":"tourist_attraction","facilityLabel":"🧭 旅遊景點","phone":null,"website":null,"wheelchair":false,"paid":null,"needsAddr":true},{"id":11696466268,"name":"天鷹嶺觀景臺","lat":23.9170635,"lng":120.8137274,"address":null,"hasBabyChanging":false,"hasAccessible":false,"source":"OpenStreetMap","updatedAt":"2026-06-16T15:54:24.202Z","facilityType":"tourist_attraction","facilityLabel":"🧭 旅遊景點","phone":null,"website":null,"wheelchair":false,"paid":null,"needsAddr":true},{"id":422581729,"name":"福盛山休閒農場","lat":23.9005628,"lng":120.8485611,"address":null,"hasBabyChanging":false,"hasAccessible":false,"source":"OpenStreetMap","updatedAt":"2026-06-16T15:54:24.202Z","facilityType":"farm","facilityLabel":"🌾 農場","phone":null,"website":null,"wheelchair":false,"paid":null,"needsAddr":true},{"id":533105323,"name":"龍岩河濱公園","lat":23.9377463,"lng":120.7627838,"address":null,"hasBabyChanging":false,"hasAccessible":false,"source":"OpenStreetMap","updatedAt":"2026-06-16T15:54:24.202Z","facilityType":"park","facilityLabel":"🌳 小型公園","phone":null,"website":null,"wheelchair":false,"paid":null,"needsAddr":true},{"id":778461484,"name":"龍眼林聚落植物園","lat":23.94037555,"lng":120.78002795,"address":null,"hasBabyChanging":false,"hasAccessible":false,"source":"OpenStreetMap","updatedAt":"2026-06-16T15:54:24.202Z","facilityType":"tourist_attraction","facilityLabel":"🧭 旅遊景點","phone":null,"website":null,"wheelchair":false,"paid":null,"needsAddr":true},{"id":957930343,"name":"日月潭水社遊客中心","lat":23.866474,"lng":120.9110263,"address":null,"hasBabyChanging":false,"hasAccessible":false,"source":"OpenStreetMap","updatedAt":"2026-06-16T15:54:24.202Z","facilityType":"visitor_center","facilityLabel":"🛎 旅客中心","phone":null,"website":null,"wheelchair":false,"paid":null,"needsAddr":true},{"id":957984680,"name":"蝴蝶園","lat":23.85145,"lng":120.93746,"address":null,"hasBabyChanging":false,"hasAccessible":false,"source":"OpenStreetMap","updatedAt":"2026-06-16T15:54:24.202Z","facilityType":"tourist_attraction","facilityLabel":"🧭 旅遊景點","phone":null,"website":null,"wheelchair":false,"paid":null,"needsAddr":true},{"id":2341498877,"name":"向山遊客中心","lat":23.8519763,"lng":120.9019718,"address":"555南投縣魚池鄉中山路599號","hasBabyChanging":false,"hasAccessible":false,"source":"OpenStreetMap","updatedAt":"2026-06-16T15:54:24.202Z","facilityType":"visitor_center","facilityLabel":"🛎 旅客中心","phone":"+886 49 285 5668","website":"https://www.sunmoonlake.gov.tw/xiangshan/","wheelchair":false,"paid":null,"needsAddr":false},{"id":2562370939,"name":"日月湧泉","lat":23.8625052,"lng":120.9403996,"address":null,"hasBabyChanging":false,"hasAccessible":false,"source":"OpenStreetMap","updatedAt":"2026-06-16T15:54:24.202Z","facilityType":"tourist_attraction","facilityLabel":"🧭 旅遊景點","phone":null,"website":null,"wheelchair":false,"paid":null,"needsAddr":true},{"id":2579746891,"name":"杏壇","lat":23.8641998,"lng":120.9075328,"address":null,"hasBabyChanging":false,"hasAccessible":false,"source":"OpenStreetMap","updatedAt":"2026-06-16T15:54:24.202Z","facilityType":"tourist_attraction","facilityLabel":"🧭 旅遊景點","phone":null,"website":null,"wheelchair":false,"paid":null,"needsAddr":true},{"id":2903041709,"name":"紅色瀑布","lat":23.9190331,"lng":120.9224204,"address":null,"hasBabyChanging":false,"hasAccessible":false,"source":"OpenStreetMap","updatedAt":"2026-06-16T15:54:24.202Z","facilityType":"tourist_attraction","facilityLabel":"🧭 旅遊景點","phone":null,"website":null,"wheelchair":false,"paid":null,"needsAddr":true},{"id":3375058127,"name":"向山眺望平台","lat":23.8549364,"lng":120.9054773,"address":null,"hasBabyChanging":false,"hasAccessible":true,"source":"OpenStreetMap","updatedAt":"2026-06-16T15:54:24.202Z","facilityType":"tourist_attraction","facilityLabel":"🧭 旅遊景點","phone":null,"website":null,"wheelchair":true,"paid":null,"needsAddr":true},