{"city":"南投縣","category":"family","updatedAt":"2026-06-11T08:39:29.880Z","rev":14,"count":252,"items":[{"id":2664396054,"name":"台灣麻糬主題館觀光工廠","lat":23.9215667,"lng":120.6689167,"address":null,"hasBabyChanging":false,"hasAccessible":false,"source":"OpenStreetMap","updatedAt":"2026-06-11T08:39:29.880Z","facilityType":"factory","facilityLabel":"🏭 觀光工廠","phone":null,"website":null,"wheelchair":false,"paid":null,"needsAddr":true},{"id":4585160570,"name":"南投縣政府文化局演藝廳","lat":23.9082385,"lng":120.6819045,"address":null,"hasBabyChanging":false,"hasAccessible":false,"source":"OpenStreetMap","updatedAt":"2026-06-11T08:39:29.880Z","facilityType":"culture","facilityLabel":"🎨 文化","phone":null,"website":null,"wheelchair":false,"paid":null,"needsAddr":true},{"id":4601060445,"name":"牛角坑休閒農場","lat":23.9435928,"lng":120.7253733,"address":null,"hasBabyChanging":false,"hasAccessible":false,"source":"OpenStreetMap","updatedAt":"2026-06-11T08:39:29.880Z","facilityType":"farm","facilityLabel":"🌾 休閒農場","phone":null,"website":null,"wheelchair":false,"paid":null,"needsAddr":true},{"id":5457370040,"name":"南投沙雕園區","lat":23.9301941,"lng":120.67983,"address":null,"hasBabyChanging":false,"hasAccessible":false,"source":"OpenStreetMap","updatedAt":"2026-06-11T08:39:29.880Z","facilityType":"theme_park","facilityLabel":"🎡 遊樂園","phone":null,"website":"sandsculpture.okgo.tw","wheelchair":false,"paid":true,"needsAddr":true},{"id":283054062,"name":"光華公園(兒童公園)","lat":23.949190950000002,"lng":120.6937011,"address":null,"hasBabyChanging":false,"hasAccessible":false,"source":"OpenStreetMap","updatedAt":"2026-06-11T08:39:29.880Z","facilityType":"park","facilityLabel":"🌳 小型公園","phone":null,"website":null,"wheelchair":false,"paid":null,"needsAddr":true},{"id":293842558,"name":"中山公園","lat":23.9110101,"lng":120.68776220000001,"address":null,"hasBabyChanging":false,"hasAccessible":false,"source":"OpenStreetMap","updatedAt":"2026-06-11T08:39:29.880Z","facilityType":"park","facilityLabel":"🌳 中型公園","phone":null,"website":null,"wheelchair":false,"paid":null,"needsAddr":true},{"id":307401620,"name":"虎山公園","lat":23.95011135,"lng":120.6985095,"address":null,"hasBabyChanging":false,"hasAccessible":false,"source":"OpenStreetMap","updatedAt":"2026-06-11T08:39:29.880Z","facilityType":"park","facilityLabel":"🌳 大型公園","phone":null,"website":null,"wheelchair":false,"paid":null,"needsAddr":true},{"id":335704190,"name":"三和公園","lat":23.9023954,"lng":120.6877999,"address":null,"hasBabyChanging":false,"hasAccessible":false,"source":"OpenStreetMap","updatedAt":"2026-06-11T08:39:29.880Z","facilityType":"park","facilityLabel":"🌳 小型公園","phone":null,"website":null,"wheelchair":false,"paid":null,"needsAddr":true},{"id":388794044,"name":"921地震公園","lat":23.92543705,"lng":120.6875187,"address":null,"hasBabyChanging":false,"hasAccessible":false,"source":"OpenStreetMap","updatedAt":"2026-06-11T08:39:29.880Z","facilityType":"park","facilityLabel":"🌳 中型公園","phone":null,"website":null,"wheelchair":false,"paid":null,"needsAddr":true},{"id":422242296,"name":"仁壽公園","lat":23.910091350000002,"lng":120.68485305,"address":null,"hasBabyChanging":false,"hasAccessible":false,"source":"OpenStreetMap","updatedAt":"2026-06-11T08:39:29.880Z","facilityType":"park","facilityLabel":"🌳 小型公園","phone":null,"website":null,"wheelchair":false,"paid":null,"needsAddr":true},{"id":463464582,"name":"吉利路435巷","lat":23.9391302,"lng":120.6550082,"address":null,"hasBabyChanging":false,"hasAccessible":false,"source":"OpenStreetMap","updatedAt":"2026-06-11T08:39:29.880Z","facilityType":"culture","facilityLabel":"🎨 文化","phone":null,"website":null,"wheelchair":false,"paid":null,"needsAddr":true},{"id":468282555,"name":"光明公園","lat":23.9400398,"lng":120.70022555,"address":null,"hasBabyChanging":false,"hasAccessible":false,"source":"OpenStreetMap","updatedAt":"2026-06-11T08:39:29.880Z","facilityType":"park","facilityLabel":"🌳 小型公園","phone":null,"website":null,"wheelchair":false,"paid":null,"needsAddr":true},{"id":468282557,"name":"中興新村921重建紀念公園","lat":23.9571646,"lng":120.68782655000001,"address":null,"hasBabyChanging":false,"hasAccessible":false,"source":"OpenStreetMap","updatedAt":"2026-06-11T08:39:29.880Z","facilityType":"park","facilityLabel":"🌳 中型公園","phone":null,"website":null,"wheelchair":false,"paid":null,"needsAddr":true},{"id":468282558,"name":"省政府資料館前遊憩廣場","lat":23.956333700000002,"lng":120.6870268,"address":null,"hasBabyChanging":false,"hasAccessible":false,"source":"OpenStreetMap","updatedAt":"2026-06-11T08:39:29.880Z","facilityType":"park","facilityLabel":"🌳 中型公園","phone":null,"website":null,"wheelchair":false,"paid":null,"needsAddr":true},{"id":468282563,"name":"向上公園","lat":23.95053765,"lng":120.6885688,"address":null,"hasBabyChanging":false,"hasAccessible":false,"source":"OpenStreetMap","updatedAt":"2026-06-11T08:39:29.880Z","facilityType":"park","facilityLabel":"🌳 小型公園","phone":null,"website":null,"wheelchair":false,"paid":null,"needsAddr":true},{"id":625770119,"name":"富貴公園","lat":23.90352015,"lng":120.67706430000001,"address":null,"hasBabyChanging":false,"hasAccessible":false,"source":"OpenStreetMap","updatedAt":"2026-06-11T08:39:29.880Z","facilityType":"park","facilityLabel":"🌳 小型公園","phone":null,"website":null,"wheelchair":false,"paid":null,"needsAddr":true},{"id":666019840,"name":"長春公園","lat":23.9462873,"lng":120.6992338,"address":null,"hasBabyChanging":false,"hasAccessible":false,"source":"OpenStreetMap","updatedAt":"2026-06-11T08:39:29.880Z","facilityType":"park","facilityLabel":"🌳 小型公園","phone":null,"website":null,"wheelchair":false,"paid":null,"needsAddr":true},{"id":707996630,"name":"中興特區公園","lat":23.9516371,"lng":120.6883934,"address":null,"hasBabyChanging":false,"hasAccessible":false,"source":"OpenStreetMap","updatedAt":"2026-06-11T08:39:29.880Z","facilityType":"park","facilityLabel":"🌳 小型公園","phone":null,"website":null,"wheelchair":false,"paid":null,"needsAddr":true},{"id":759948977,"name":"樟樹園","lat":23.9297359,"lng":120.66737165,"address":"南投縣南投市南崗三路39號","hasBabyChanging":false,"hasAccessible":false,"source":"OpenStreetMap","updatedAt":"2026-06-11T08:39:29.880Z","facilityType":"park","facilityLabel":"🌳 小型公園","phone":null,"website":null,"wheelchair":false,"paid":null,"needsAddr":false},{"id":759949222,"name":"成功公園","lat":23.9288101,"lng":120.6693143,"address":null,"hasBabyChanging":false,"hasAccessible":false,"source":"OpenStreetMap","updatedAt":"2026-06-11T08:39:29.880Z","facilityType":"park","facilityLabel":"🌳 小型公園","phone":null,"website":null,"wheelchair":false,"paid":null,"needsAddr":true},{"id":759951545,"name":"新興老人公園","lat":23.9217819,"lng":120.66632440000001,"address":null,"hasBabyChanging":false,"hasAccessible":false,"source":"OpenStreetMap","updatedAt":"2026-06-11T08:39:29.880Z","facilityType":"park","facilityLabel":"🌳 小型公園","phone":null,"website":null,"wheelchair":false,"paid":null,"needsAddr":true},{"id":759951973,"name":"新興公園","lat":23.93189325,"lng":120.67024315,"address":null,"hasBabyChanging":false,"hasAccessible":false,"source":"OpenStreetMap","updatedAt":"2026-06-11T08:39:29.880Z","facilityType":"park","facilityLabel":"🌳 小型公園","phone":null,"website":null,"wheelchair":false,"paid":null,"needsAddr":true},{"id":760573069,"name":"平山公園","lat":23.91898405,"lng":120.67419315000001,"address":null,"hasBabyChanging":false,"hasAccessible":false,"source":"OpenStreetMap","updatedAt":"2026-06-11T08:39:29.880Z","facilityType":"park","facilityLabel":"🌳 小型公園","phone":null,"website":null,"wheelchair":false,"paid":null,"needsAddr":true},{"id":760574591,"name":"南崗公園","lat":23.91749485,"lng":120.67464535,"address":null,"hasBabyChanging":false,"hasAccessible":false,"source":"OpenStreetMap","updatedAt":"2026-06-11T08:39:29.880Z","facilityType":"park","facilityLabel":"🌳 小型公園","phone":null,"website":null,"wheelchair":false,"paid":null,"needsAddr":true},{"id":760578757,"name":"長青公園","lat":23.90929705,"lng":120.68228055,"address":null,"hasBabyChanging":false,"hasAccessible":false,"source":"OpenStreetMap","updatedAt":"2026-06-11T08:39:29.880Z","facilityType":"park","facilityLabel":"🌳 小型公園","phone":null,"website":null,"wheelchair":false,"paid":null,"needsAddr":true},{"id":760666555,"name":"平和公園","lat":23.908407750000002,"lng":120.69023155,"address":null,"hasBabyChanging":false,"hasAccessible":false,"source":"OpenStreetMap","updatedAt":"2026-06-11T08:39:29.880Z","facilityType":"park","facilityLabel":"🌳 小型公園","phone":null,"website":null,"wheelchair":false,"paid":null,"needsAddr":true},{"id":999355476,"name":"同源公園","lat":23.920467950000003,"lng":120.666099,"address":null,"hasBabyChanging":false,"hasAccessible":false,"source":"OpenStreetMap","updatedAt":"2026-06-11T08:39:29.880Z","facilityType":"park","facilityLabel":"🌳 小型公園","phone":null,"website":null,"wheelchair":false,"paid":null,"needsAddr":true},{"id":1063794100,"name":"九九峰動物樂園","lat":23.96059885,"lng":120.70502934999999,"address":"南投縣草屯鎮富頂路一段726巷101號","hasBabyChanging":false,"hasAccessible":false,"source":"OpenStreetMap","updatedAt":"2026-06-11T08:39:29.880Z","facilityType":"zoo","facilityLabel":"🦁 動物園","phone":"+886 4 9256 5107","website":null,"wheelchair":false,"paid":null,"needsAddr":false},{"id":1101875192,"name":"方舟植物園","lat":23.9438565,"lng":120.70028985,"address":null,"hasBabyChanging":false,"hasAccessible":false,"source":"OpenStreetMap","updatedAt":"2026-06-11T08:39:29.880Z","facilityType":"park","facilityLabel":"🌳 中型公園","phone":null,"website":null,"wheelchair":false,"paid":null,"needsAddr":true},{"id":1136364697,"name":"微熱山丘廠辦與觀光工廠工地","lat":23.89096615,"lng":120.6655084,"address":null,"hasBabyChanging":false,"hasAccessible":false,"source":"OpenStreetMap","updatedAt":"2026-06-11T08:39:29.880Z","facilityType":"factory","facilityLabel":"🏭 觀光工廠","phone":null,"website":null,"wheelchair":false,"paid":null,"needsAddr":true},{"id":1136372097,"name":"南投休閒農場","lat":23.8953935,"lng":120.67711045,"address":null,"hasBabyChanging":false,"hasAccessible":false,"source":"OpenStreetMap","updatedAt":"2026-06-11T08:39:29.880Z","facilityType":"farm","facilityLabel":"🌾 休閒農場","phone":null,"website":null,"wheelchair":false,"paid":null,"needsAddr":true},{"id":3166216706,"name":"敲敲木工房","lat":23.9749077,"lng":120.9572275,"address":"545南投縣埔里鎮大同街37號","hasBabyChanging":false,"hasAccessible":false,"source":"OpenStreetMap","updatedAt":"2026-06-11T08:39:29.880Z","facilityType":"diy","facilityLabel":"🧶 手作DIY","phone":"+886-49-2917803","website":"https://www.kokomu.com/","wheelchair":false,"paid":null,"needsAddr":false},{"id":3643544053,"name":"聽瀑營地","lat":23.9303642,"lng":121.0153045,"address":"南投縣埔里鎮麒麟里武界路水頭段1005-51號","hasBabyChanging":false,"hasAccessible":false,"source":"OpenStreetMap","updatedAt":"2026-06-11T08:39:29.880Z","facilityType":"camp","facilityLabel":"⛺ 露營休閒","phone":"+886 931 337 713","website":"http://funpuli.emmm.tw","wheelchair":false,"paid":null,"needsAddr":false},{"id":3788312060,"name":"寶錸鐘錶暢貨中心","lat":23.9649629,"lng":120.9669545,"address":"545南投縣埔里鎮中山路二段330號","hasBabyChanging":false,"hasAccessible":false,"source":"OpenStreetMap","updatedAt":"2026-06-11T08:39:29.880Z","facilityType":"spot","facilityLabel":"📍 親子景點","phone":null,"website":null,"wheelchair":false,"paid":null,"needsAddr":false},{"id":6054253370,"name":"龍南漆器博物館","lat":23.9678361,"lng":120.9656426,"address":null,"hasBabyChanging":false,"hasAccessible":false,"source":"OpenStreetMap","updatedAt":"2026-06-11T08:39:29.880Z","facilityType":"science","facilityLabel":"🔬 科學館","phone":null,"website":null,"wheelchair":false,"paid":null,"needsAddr":true},{"id":9260874866,"name":"To me 桃米生態露營區","lat":23.94399,"lng":120.9032938,"address":"南投縣埔里鎮種瓜路66-1號","hasBabyChanging":false,"hasAccessible":false,"source":"OpenStreetMap","updatedAt":"2026-06-11T08:39:29.880Z","facilityType":"camp","facilityLabel":"⛺ 露營休閒","phone":null,"website":"https://www.facebook.com/tomecampsite/","wheelchair":false,"paid":null,"needsAddr":false},{"id":10679888915,"name":"樂活森林農場","lat":23.935822,"lng":120.9300484,"address":null,"hasBabyChanging":false,"hasAccessible":false,"source":"OpenStreetMap","updatedAt":"2026-06-11T08:39:29.880Z","facilityType":"camp","facilityLabel":"⛺ 露營休閒","phone":null,"website":"https://www.lohaforest.com/","wheelchair":false,"paid":null,"needsAddr":true},{"id":292419013,"name":"木生昆蟲博物館","lat":23.96511325,"lng":120.9457074,"address":"南投縣埔里鎮南村路6之2號","hasBabyChanging":false,"hasAccessible":false,"source":"OpenStreetMap","updatedAt":"2026-06-11T08:39:29.880Z","facilityType":"science","facilityLabel":"🔬 科學館","phone":null,"website":"http://www.insect.com.tw","wheelchair":false,"paid":null,"needsAddr":false},{"id":292423361,"name":"茅埔坑生態公園","lat":23.942472600000002,"lng":120.93720945,"address":null,"hasBabyChanging":false,"hasAccessible":false,"source":"OpenStreetMap","updatedAt":"2026-06-11T08:39:29.880Z","facilityType":"park","facilityLabel":"🌳 小型公園","phone":null,"website":null,"wheelchair":false,"paid":null,"needsAddr":true},{"id":292495804,"name":"草湳農場露營區","lat":23.948364050000002,"lng":120.9155576,"address":null,"hasBabyChanging":false,"hasAccessible":false,"source":"OpenStreetMap","updatedAt":"2026-06-11T08:39:29.880Z","facilityType":"camp","facilityLabel":"⛺ 露營休閒","phone":null,"website":null,"wheelchair":false,"paid":null,"needsAddr":true},{"id":292498063,"name":"元華露營區","lat":23.9395398,"lng":120.94013415,"address":"545南投縣埔里鎮桃米里桃米巷9-2號","hasBabyChanging":false,"hasAccessible":false,"source":"OpenStreetMap","updatedAt":"2026-06-11T08:39:29.880Z","facilityType":"camp","facilityLabel":"⛺ 露營休閒","phone":"+886 049 299 1782","website":null,"wheelchair":false,"paid":null,"needsAddr":false},{"id":292499786,"name":"顏氏牧場","lat":23.9326207,"lng":120.90638695,"address":"南投縣埔里鎮水上巷28號","hasBabyChanging":false,"hasAccessible":false,"source":"OpenStreetMap","updatedAt":"2026-06-11T08:39:29.880Z","facilityType":"farm","facilityLabel":"🌾 休閒農場","phone":"+886 49 291 2041","website":"http://yenpasture.com/pasture1/","wheelchair":false,"paid":null,"needsAddr":false},{"id":292574933,"name":"仁愛公園","lat":23.96786715,"lng":120.96436095,"address":null,"hasBabyChanging":false,"hasAccessible":false,"source":"OpenStreetMap","updatedAt":"2026-06-11T08:39:29.880Z","facilityType":"park","facilityLabel":"🌳 小型公園","phone":null,"website":null,"wheelchair":false,"paid":null,"needsAddr":true},{"id":292991214,"name":"桃米愛玩客營地","lat":23.94060735,"lng":120.9259571,"address":null,"hasBabyChanging":false,"hasAccessible":false,"source":"OpenStreetMap","updatedAt":"2026-06-11T08:39:29.880Z","facilityType":"camp","facilityLabel":"⛺ 露營休閒","phone":null,"website":null,"wheelchair":false,"paid":null,"needsAddr":true},{"id":443325490,"name":"普台公園","lat":24.0057283,"lng":120.9448199,"address":null,"hasBabyChanging":false,"hasAccessible":false,"source":"OpenStreetMap","updatedAt":"2026-06-11T08:39:29.880Z","facilityType":"park","facilityLabel":"🌳 中型公園","phone":null,"website":null,"wheelchair":false,"paid":null,"needsAddr":true},{"id":474137949,"name":"普台禪寺","lat":24.007962900000003,"lng":120.946382,"address":null,"hasBabyChanging":false,"hasAccessible":false,"source":"OpenStreetMap","updatedAt":"2026-06-11T08:39:29.880Z","facilityType":"park","facilityLabel":"🌳 中型公園","phone":null,"website":null,"wheelchair":false,"paid":null,"needsAddr":true},{"id":475612698,"name":"牛耳藝術渡假村","lat":23.9647023,"lng":120.9421826,"address":"南投縣埔里鎮中山路四段1號","hasBabyChanging":false,"hasAccessible":false,"source":"OpenStreetMap","updatedAt":"2026-06-11T08:39:29.880Z","facilityType":"theme_park","facilityLabel":"🎡 遊樂園","phone":"+886 49 291 2248","website":null,"wheelchair":false,"paid":null,"needsAddr":false},{"id":559125619,"name":"中心碑公園","lat":23.973658999999998,"lng":120.98006849999999,"address":null,"hasBabyChanging":false,"hasAccessible":false,"source":"OpenStreetMap","updatedAt":"2026-06-11T08:39:29.880Z","facilityType":"park","facilityLabel":"🌳 小型公園","phone":null,"website":null,"wheelchair":false,"paid":null,"needsAddr":true},{"id":560464727,"name":"長壽公園","lat":23.96806935,"lng":120.97332715,"address":null,"hasBabyChanging":false,"hasAccessible":false,"source":"OpenStreetMap","updatedAt":"2026-06-11T08:39:29.880Z","facilityType":"park","facilityLabel":"🌳 小型公園","phone":null,"website":null,"wheelchair":false,"paid":null,"needsAddr":true},{"id":561926946,"name":"行政綠園","lat":23.951063400000002,"lng":120.93061975,"address":null,"hasBabyChanging":false,"hasAccessible":false,"source":"OpenStreetMap","updatedAt":"2026-06-11T08:39:29.880Z","facilityType":"park","facilityLabel":"🌳 中型公園","phone":null,"website":null,"wheelchair":false,"paid":null,"needsAddr":true},{"id":561926947,"name":"行政大樓前草坪","lat":23.95111485,"lng":120.93134935,"address":null,"hasBabyChanging":false,"hasAccessible":false,"source":"OpenStreetMap","updatedAt":"2026-06-11T08:39:29.880Z","facilityType":"park","facilityLabel":"🌳 小型公園","phone":null,"website":null,"wheelchair":false,"paid":null,"needsAddr":true},{"id":563968756,"name":"泰安公園","lat":23.96711615,"lng":120.9757626,"address":null,"hasBabyChanging":false,"hasAccessible":false,"source":"OpenStreetMap","updatedAt":"2026-06-11T08:39:29.880Z","facilityType":"park","facilityLabel":"🌳 小型公園","phone":null,"website":null,"wheelchair":false,"paid":null,"needsAddr":true},{"id":589259480,"name":"藝文中心休憩園區","lat":23.97069545,"lng":120.97136345,"address":null,"hasBabyChanging":false,"hasAccessible":false,"source":"OpenStreetMap","updatedAt":"2026-06-11T08:39:29.880Z","facilityType":"park","facilityLabel":"🌳 中型公園","phone":null,"website":null,"wheelchair":false,"paid":null,"needsAddr":true},{"id":628700398,"name":"親水公園","lat":23.9433298,"lng":120.93288749999999,"address":null,"hasBabyChanging":false,"hasAccessible":false,"source":"OpenStreetMap","updatedAt":"2026-06-11T08:39:29.880Z","facilityType":"water","facilityLabel":"💧 戲水親水","phone":null,"website":null,"wheelchair":false,"paid":null,"needsAddr":true},{"id":663190968,"name":"手作步道","lat":23.95192885,"lng":120.92529644999999,"address":null,"hasBabyChanging":false,"hasAccessible":false,"source":"OpenStreetMap","updatedAt":"2026-06-11T08:39:29.880Z","facilityType":"diy","facilityLabel":"🧶 手作DIY","phone":null,"website":null,"wheelchair":false,"paid":null,"needsAddr":true},{"id":677007982,"name":"楓香公園","lat":23.976040349999998,"lng":120.99157704999999,"address":null,"hasBabyChanging":false,"hasAccessible":false,"source":"OpenStreetMap","updatedAt":"2026-06-11T08:39:29.880Z","facilityType":"park","facilityLabel":"🌳 小型公園","phone":null,"website":null,"wheelchair":false,"paid":null,"needsAddr":true},{"id":817987692,"name":"小埔社火車懷舊公園","lat":24.024552550000003,"lng":120.95265215,"address":null,"hasBabyChanging":false,"hasAccessible":false,"source":"OpenStreetMap","updatedAt":"2026-06-11T08:39:29.880Z","facilityType":"park","facilityLabel":"🌳 小型公園","phone":null,"website":null,"wheelchair":false,"paid":null,"needsAddr":true},{"id":858413960,"name":"九二一環保公園","lat":24.011094,"lng":120.96532930000001,"address":null,"hasBabyChanging":false,"hasAccessible":false,"source":"OpenStreetMap","updatedAt":"2026-06-11T08:39:29.880Z","facilityType":"park","facilityLabel":"🌳 中型公園","phone":null,"website":null,"wheelchair":false,"paid":null,"needsAddr":true},{"id":858413968,"name":"福興溫泉區親子共榮公園","lat":24.01180205,"lng":120.9663656,"address":null,"hasBabyChanging":false,"hasAccessible":false,"source":"OpenStreetMap","updatedAt":"2026-06-11T08:39:29.880Z","facilityType":"park","facilityLabel":"🌳 中型公園","phone":null,"website":null,"wheelchair":false,"paid":null,"needsAddr":true},{"id":961080088,"name":"中台世界博物館","lat":24.012512649999998,"lng":120.9493625,"address":"54544南投縣埔里鎮中台路8號","hasBabyChanging":false,"hasAccessible":false,"source":"OpenStreetMap","updatedAt":"2026-06-11T08:39:29.880Z","facilityType":"science","facilityLabel":"🔬 科學館","phone":"+886 49 2932-999","website":"http://www.ctwm.org.tw/","wheelchair":false,"paid":null,"needsAddr":false},{"id":961525418,"name":"青青農場親子露營區","lat":24.0066643,"lng":120.9731841,"address":null,"hasBabyChanging":false,"hasAccessible":false,"source":"OpenStreetMap","updatedAt":"2026-06-11T08:39:29.880Z","facilityType":"camp","facilityLabel":"⛺ 露營休閒","phone":null,"website":null,"wheelchair":false,"paid":null,"needsAddr":true},{"id":962099321,"name":"大馬璘遺址文化園區","lat":23.96857965,"lng":120.94494315,"address":null,"hasBabyChanging":false,"hasAccessible":false,"source":"OpenStreetMap","updatedAt":"2026-06-11T08:39:29.880Z","facilityType":"park","facilityLabel":"🌳 中型公園","phone":null,"website":null,"wheelchair":false,"paid":null,"needsAddr":true},{"id":1232708336,"name":"北安公園","lat":23.97200295,"lng":120.97352925,"address":null,"hasBabyChanging":false,"hasAccessible":false,"source":"OpenStreetMap","updatedAt":"2026-06-11T08:39:29.880Z","facilityType":"park","facilityLabel":"🌳 小型公園","phone":null,"website":null,"wheelchair":false,"paid":null,"needsAddr":true},{"id":1232712365,"name":"兒童公園預定地26","lat":23.96366995,"lng":120.97615195,"address":null,"hasBabyChanging":false,"hasAccessible":false,"source":"OpenStreetMap","updatedAt":"2026-06-11T08:39:29.880Z","facilityType":"park","facilityLabel":"🌳 小型公園","phone":null,"website":null,"wheelchair":false,"paid":null,"needsAddr":true},{"id":1365009281,"name":"中區戶外探索教育中心","lat":23.9476187,"lng":120.9276421,"address":null,"hasBabyChanging":false,"hasAccessible":false,"source":"OpenStreetMap","updatedAt":"2026-06-11T08:39:29.880Z","facilityType":"park","facilityLabel":"🌳 小型公園","phone":null,"website":null,"wheelchair":false,"paid":null,"needsAddr":true},{"id":1444688956,"name":"謝緯紀念營地","lat":23.961426799999998,"lng":121.0007795,"address":"南投縣埔里鎮鯉魚路25號","hasBabyChanging":false,"hasAccessible":false,"source":"OpenStreetMap","updatedAt":"2026-06-11T08:39:29.880Z","facilityType":"camp","facilityLabel":"⛺ 露營休閒","phone":null,"website":"http://www.facebook.com/xieweijinianyingde","wheelchair":false,"paid":null,"needsAddr":false},{"id":1444688960,"name":"緣溪行森林營地","lat":23.973735,"lng":120.99405075,"address":"南投縣埔里鎮乾溪景觀橋545號","hasBabyChanging":false,"hasAccessible":false,"source":"OpenStreetMap","updatedAt":"2026-06-11T08:39:29.880Z","facilityType":"camp","facilityLabel":"⛺ 露營休閒","phone":"+886 49 2900389","website":"https://yccfc.com.tw/","wheelchair":false,"paid":null,"needsAddr":false},{"id":8051531,"name":"埔里鎮運動公園","lat":23.9704656,"lng":120.97040045,"address":null,"hasBabyChanging":false,"hasAccessible":false,"source":"OpenStreetMap","updatedAt":"2026-06-11T08:39:29.880Z","facilityType":"park","facilityLabel":"🌳 中型公園","phone":null,"website":null,"wheelchair":false,"paid":null,"needsAddr":true},{"id":4628173729,"name":"毓繡美術館","lat":23.992882,"lng":120.7670853,"address":"54245南投縣草屯鎮平林里健行路150巷26號","hasBabyChanging":false,"hasAccessible":false,"source":"OpenStreetMap","updatedAt":"2026-06-11T08:39:29.880Z","facilityType":"culture","facilityLabel":"🎨 文化","phone":"+886 49 257 2999","website":"https://www.yu-hsiu.org/","wheelchair":false,"paid":null,"needsAddr":false},{"id":468282565,"name":"九九峰生態藝術園區","lat":23.99351985,"lng":120.7676126,"address":null,"hasBabyChanging":false,"hasAccessible":false,"source":"OpenStreetMap","updatedAt":"2026-06-11T08:39:29.880Z","facilityType":"park","facilityLabel":"🌳 大型公園","phone":null,"website":null,"wheelchair":false,"paid":null,"needsAddr":true},{"id":926268030,"name":"鳥嘴潭人工湖","lat":24.00047645,"lng":120.72840295,"address":null,"hasBabyChanging":false,"hasAccessible":false,"source":"OpenStreetMap","updatedAt":"2026-06-11T08:39:29.880Z","facilityType":"park","facilityLabel":"🌳 巨大公園","phone":null,"website":"https://web.wra.gov.tw/niaozueitan/","wheelchair":false,"paid":null,"needsAddr":true},{"id":936192379,"name":"草屯鎮碧峰里戰鬥機戰車展示園區","lat":23.97190685,"lng":120.64849775,"address":"碧峰里","hasBabyChanging":false,"hasAccessible":false,"source":"OpenStreetMap","updatedAt":"2026-06-11T08:39:29.880Z","facilityType":"park","facilityLabel":"🌳 小型公園","phone":null,"website":null,"wheelchair":false,"paid":null,"needsAddr":false},{"id":1005297528,"name":"科學館","lat":23.9803803,"lng":120.69575535,"address":null,"hasBabyChanging":false,"hasAccessible":false,"source":"OpenStreetMap","updatedAt":"2026-06-11T08:39:29.880Z","facilityType":"science","facilityLabel":"🔬 科學館","phone":null,"website":null,"wheelchair":false,"paid":null,"needsAddr":true},{"id":1007661275,"name":"下雙冬三石公園","lat":23.9799678,"lng":120.78173079999999,"address":null,"hasBabyChanging":false,"hasAccessible":false,"source":"OpenStreetMap","updatedAt":"2026-06-11T08:39:29.880Z","facilityType":"park","facilityLabel":"🌳 小型公園","phone":null,"website":null,"wheelchair":false,"paid":null,"needsAddr":true},{"id":1008329665,"name":"福德廟公園","lat":23.984474849999998,"lng":120.79326309999999,"address":null,"hasBabyChanging":false,"hasAccessible":false,"source":"OpenStreetMap","updatedAt":"2026-06-11T08:39:29.880Z","facilityType":"park","facilityLabel":"🌳 小型公園","phone":null,"website":null,"wheelchair":false,"paid":null,"needsAddr":true},{"id":1063794100,"name":"九九峰動物樂園","lat":23.96059885,"lng":120.70502934999999,"address":"南投縣草屯鎮富頂路一段726巷101號","hasBabyChanging":false,"hasAccessible":false,"source":"OpenStreetMap","updatedAt":"2026-06-11T08:39:29.880Z","facilityType":"zoo","facilityLabel":"🦁 動物園","phone":"+886 4 9256 5107","website":null,"wheelchair":false,"paid":null,"needsAddr":false},{"id":1064224487,"name":"草屯寵物公園","lat":23.978680349999998,"lng":120.69194350000001,"address":null,"hasBabyChanging":false,"hasAccessible":false,"source":"OpenStreetMap","updatedAt":"2026-06-11T08:39:29.880Z","facilityType":"park","facilityLabel":"🌳 小型公園","phone":null,"website":null,"wheelchair":false,"paid":null,"needsAddr":true},{"id":1074684439,"name":"虎山親水公園","lat":23.969662149999998,"lng":120.68484720000001,"address":null,"hasBabyChanging":false,"hasAccessible":false,"source":"OpenStreetMap","updatedAt":"2026-06-11T08:39:29.880Z","facilityType":"water","facilityLabel":"💧 戲水親水","phone":null,"website":null,"wheelchair":false,"paid":null,"needsAddr":true},{"id":1195576934,"name":"隧道上方公園(暫名)","lat":23.9926805,"lng":120.7459698,"address":null,"hasBabyChanging":false,"hasAccessible":false,"source":"OpenStreetMap","updatedAt":"2026-06-11T08:39:29.880Z","facilityType":"park","facilityLabel":"🌳 小型公園","phone":null,"website":null,"wheelchair":false,"paid":null,"needsAddr":true},{"id":2668650,"name":"中山公園","lat":23.980915850000002,"lng":120.6889137,"address":null,"hasBabyChanging":false,"hasAccessible":false,"source":"OpenStreetMap","updatedAt":"2026-06-11T08:39:29.880Z","facilityType":"park","facilityLabel":"🌳 中型公園","phone":null,"website":null,"wheelchair":false,"paid":null,"needsAddr":true},{"id":4505707896,"name":"竹內露營區","lat":23.6820219,"lng":120.7252849,"address":"頂林路","hasBabyChanging":false,"hasAccessible":false,"source":"OpenStreetMap","updatedAt":"2026-06-11T08:39:29.880Z","facilityType":"camp","facilityLabel":"⛺ 露營休閒","phone":null,"website":null,"wheelchair":false,"paid":null,"needsAddr":false},{"id":5300338097,"name":"神采奕奕露營區","lat":23.7015831,"lng":120.7164761,"address":"557南投縣竹山鎮竹寮巷19-15號","hasBabyChanging":false,"hasAccessible":false,"source":"OpenStreetMap","updatedAt":"2026-06-11T08:39:29.880Z","facilityType":"camp","facilityLabel":"⛺ 露營休閒","phone":"+886 931 993 095","website":"https://www.facebook.com/神采奕奕露營區-1187176038032546/","wheelchair":false,"paid":null,"needsAddr":false},{"id":10574825995,"name":"郁文創藝工作室","lat":23.7530575,"lng":120.6771499,"address":"557南投縣竹山鎮建國二路22號","hasBabyChanging":false,"hasAccessible":false,"source":"OpenStreetMap","updatedAt":"2026-06-11T08:39:29.880Z","facilityType":"spot","facilityLabel":"📍 親子景點","phone":null,"website":null,"wheelchair":false,"paid":null,"needsAddr":false},{"id":259858018,"name":"藥花園","lat":23.628515,"lng":120.79879145000001,"address":null,"hasBabyChanging":false,"hasAccessible":false,"source":"OpenStreetMap","updatedAt":"2026-06-11T08:39:29.880Z","facilityType":"park","facilityLabel":"🌳 小型公園","phone":null,"website":null,"wheelchair":false,"paid":null,"needsAddr":true},{"id":302013243,"name":"水車公園","lat":23.8090662,"lng":120.7424917,"address":null,"hasBabyChanging":false,"hasAccessible":false,"source":"OpenStreetMap","updatedAt":"2026-06-11T08:39:29.880Z","facilityType":"park","facilityLabel":"🌳 小型公園","phone":null,"website":null,"wheelchair":false,"paid":null,"needsAddr":true},{"id":324529203,"name":"南岸沉砂池公園","lat":23.81690895,"lng":120.75237435,"address":null,"hasBabyChanging":false,"hasAccessible":false,"source":"OpenStreetMap","updatedAt":"2026-06-11T08:39:29.880Z","facilityType":"park","facilityLabel":"🌳 大型公園","phone":null,"website":null,"wheelchair":false,"paid":null,"needsAddr":true},{"id":336643422,"name":"國立台灣大學下坪熱帶植物園","lat":23.77476055,"lng":120.6715224,"address":"557南投縣竹山鎮枋坪巷21-8號","hasBabyChanging":false,"hasAccessible":false,"source":"OpenStreetMap","updatedAt":"2026-06-11T08:39:29.880Z","facilityType":"park","facilityLabel":"🌳 大型公園","phone":"+886 4 9264 5762","website":null,"wheelchair":false,"paid":null,"needsAddr":false},{"id":371368620,"name":"文四運動公園","lat":23.75567805,"lng":120.68968004999999,"address":null,"hasBabyChanging":false,"hasAccessible":false,"source":"OpenStreetMap","updatedAt":"2026-06-11T08:39:29.880Z","facilityType":"park","facilityLabel":"🌳 中型公園","phone":null,"website":null,"wheelchair":false,"paid":null,"needsAddr":true},{"id":626681818,"name":"竹山文化園區","lat":23.74741285,"lng":120.67993735,"address":"557南投縣竹山鎮建國路742號","hasBabyChanging":false,"hasAccessible":false,"source":"OpenStreetMap","updatedAt":"2026-06-11T08:39:29.880Z","facilityType":"park","facilityLabel":"🌳 中型公園","phone":null,"website":null,"wheelchair":false,"paid":null,"needsAddr":false},{"id":626758915,"name":"包公後悟道","lat":23.75383275,"lng":120.685734,"address":null,"hasBabyChanging":false,"hasAccessible":false,"source":"OpenStreetMap","updatedAt":"2026-06-11T08:39:29.880Z","facilityType":"park","facilityLabel":"🌳 小型公園","phone":null,"website":null,"wheelchair":false,"paid":null,"needsAddr":true},{"id":626769146,"name":"木屐寮生態園區","lat":23.78371665,"lng":120.7074652,"address":null,"hasBabyChanging":false,"hasAccessible":false,"source":"OpenStreetMap","updatedAt":"2026-06-11T08:39:29.880Z","facilityType":"park","facilityLabel":"🌳 超大型公園","phone":null,"website":null,"wheelchair":false,"paid":null,"needsAddr":true},{"id":626772493,"name":"照鏡台地震公園","lat":23.77042075,"lng":120.70766800000001,"address":null,"hasBabyChanging":false,"hasAccessible":false,"source":"OpenStreetMap","updatedAt":"2026-06-11T08:39:29.880Z","facilityType":"park","facilityLabel":"🌳 小型公園","phone":null,"website":null,"wheelchair":false,"paid":null,"needsAddr":true},{"id":642089256,"name":"前岸公園","lat":23.751438999999998,"lng":120.6831243,"address":null,"hasBabyChanging":false,"hasAccessible":false,"source":"OpenStreetMap","updatedAt":"2026-06-11T08:39:29.880Z","facilityType":"park","facilityLabel":"🌳 小型公園","phone":null,"website":null,"wheelchair":false,"paid":null,"needsAddr":true},{"id":744071919,"name":"杉林溪森林生態渡假園區","lat":23.631549399999997,"lng":120.79804655000001,"address":"南投縣竹山鎮大鞍里溪山路6號","hasBabyChanging":false,"hasAccessible":false,"source":"OpenStreetMap","updatedAt":"2026-06-11T08:39:29.880Z","facilityType":"theme_park","facilityLabel":"🎡 遊樂園","phone":"+886 049 261 1217","website":"https://goto307.com.tw","wheelchair":false,"paid":null,"needsAddr":false},{"id":746296429,"name":"竹山鎮盈樟農場 牛母坪露營區","lat":23.70029945,"lng":120.64561125,"address":"南投縣竹山鎮鯉魚里鯉行路152號","hasBabyChanging":false,"hasAccessible":false,"source":"OpenStreetMap","updatedAt":"2026-06-11T08:39:29.880Z","facilityType":"camp","facilityLabel":"⛺ 露營休閒","phone":"+886 933 651 978","website":"http://www.lugu.com.tw/yingjhang/","wheelchair":false,"paid":null,"needsAddr":false},{"id":1065532460,"name":"M48A3戰車公園","lat":23.778630200000002,"lng":120.69800275,"address":null,"hasBabyChanging":false,"hasAccessible":false,"source":"OpenStreetMap","updatedAt":"2026-06-11T08:39:29.880Z","facilityType":"park","facilityLabel":"🌳 小型公園","phone":null,"website":null,"wheelchair":false,"paid":null,"needsAddr":true},{"id":1083115218,"name":"母愛公園","lat":23.7566257,"lng":120.6822755,"address":null,"hasBabyChanging":false,"hasAccessible":false,"source":"OpenStreetMap","updatedAt":"2026-06-11T08:39:29.880Z","facilityType":"park","facilityLabel":"🌳 小型公園","phone":null,"website":null,"wheelchair":false,"paid":null,"needsAddr":true},{"id":1127141406,"name":"直覺畫美術館.咖啡","lat":23.7509826,"lng":120.6840512,"address":"557南投縣竹山鎮大智路630號","hasBabyChanging":false,"hasAccessible":false,"source":"OpenStreetMap","updatedAt":"2026-06-11T08:39:29.880Z","facilityType":"culture","facilityLabel":"🖼️ 美術館","phone":"+886 4 9263 0078","website":null,"wheelchair":false,"paid":null,"needsAddr":false},{"id":1419319706,"name":"竹夢親子公園","lat":23.7528913,"lng":120.68731410000001,"address":null,"hasBabyChanging":false,"hasAccessible":false,"source":"OpenStreetMap","updatedAt":"2026-06-11T08:39:29.880Z","facilityType":"park","facilityLabel":"🌳 中型公園","phone":null,"website":null,"wheelchair":false,"paid":null,"needsAddr":true},{"id":1419319715,"name":"南投縣竹山區親子館","lat":23.751338150000002,"lng":120.680304,"address":"557南投縣竹山鎮鯉南路19-18號","hasBabyChanging":false,"hasAccessible":false,"source":"OpenStreetMap","updatedAt":"2026-06-11T08:39:29.880Z","facilityType":"kids","facilityLabel":"🧸 親子館","phone":"+886 4 9263 0180","website":null,"wheelchair":false,"paid":null,"needsAddr":false},{"id":14207294,"name":"竹山公園","lat":23.758529799999998,"lng":120.67070720000001,"address":null,"hasBabyChanging":false,"hasAccessible":false,"source":"OpenStreetMap","updatedAt":"2026-06-11T08:39:29.880Z","facilityType":"park","facilityLabel":"🌳 中型公園","phone":null,"website":null,"wheelchair":false,"paid":null,"needsAddr":true},{"id":3333416822,"name":"微風山居民宿","lat":23.8289772,"lng":120.7864021,"address":null,"hasBabyChanging":false,"hasAccessible":false,"source":"OpenStreetMap","updatedAt":"2026-06-11T08:39:29.880Z","facilityType":"mall","facilityLabel":"🛍 商場親子","phone":null,"website":null,"wheelchair":false,"paid":null,"needsAddr":true},{"id":3355427008,"name":"集集鐵道行旅","lat":23.8269808,"lng":120.7814529,"address":null,"hasBabyChanging":false,"hasAccessible":false,"source":"OpenStreetMap","updatedAt":"2026-06-11T08:39:29.880Z","facilityType":"railway","facilityLabel":"🚂 鐵道交通","phone":null,"website":null,"wheelchair":false,"paid":null,"needsAddr":true},{"id":3880463774,"name":"添興窯陶藝村","lat":23.8329045,"lng":120.755432,"address":null,"hasBabyChanging":false,"hasAccessible":false,"source":"OpenStreetMap","updatedAt":"2026-06-11T08:39:29.880Z","facilityType":"diy","facilityLabel":"🧶 手作DIY","phone":null,"website":null,"wheelchair":false,"paid":null,"needsAddr":true},{"id":197014232,"name":"三角公園","lat":23.827814349999997,"lng":120.79790015,"address":null,"hasBabyChanging":false,"hasAccessible":false,"source":"OpenStreetMap","updatedAt":"2026-06-11T08:39:29.880Z","facilityType":"park","facilityLabel":"🌳 小型公園","phone":null,"website":null,"wheelchair":false,"paid":null,"needsAddr":true},{"id":197020660,"name":"軍史公園","lat":23.827155349999998,"lng":120.79542565,"address":null,"hasBabyChanging":false,"hasAccessible":false,"source":"OpenStreetMap","updatedAt":"2026-06-11T08:39:29.880Z","facilityType":"park","facilityLabel":"🌳 小型公園","phone":null,"website":null,"wheelchair":false,"paid":null,"needsAddr":true},{"id":309412651,"name":"DeJiJi親水童年園區","lat":23.8330055,"lng":120.78630815,"address":null,"hasBabyChanging":false,"hasAccessible":false,"source":"OpenStreetMap","updatedAt":"2026-06-11T08:39:29.880Z","facilityType":"water","facilityLabel":"💧 戲水親水","phone":null,"website":null,"wheelchair":false,"paid":null,"needsAddr":true},{"id":319347051,"name":"火車頭集集鐵道故事館","lat":23.82684805,"lng":120.78544405,"address":null,"hasBabyChanging":false,"hasAccessible":false,"source":"OpenStreetMap","updatedAt":"2026-06-11T08:39:29.880Z","facilityType":"railway","facilityLabel":"🚂 鐵道交通","phone":null,"website":null,"wheelchair":false,"paid":null,"needsAddr":true},{"id":327897928,"name":"假日廣場","lat":23.82947565,"lng":120.7837106,"address":null,"hasBabyChanging":false,"hasAccessible":false,"source":"OpenStreetMap","updatedAt":"2026-06-11T08:39:29.880Z","facilityType":"park","facilityLabel":"🌳 小型公園","phone":null,"website":null,"wheelchair":false,"paid":null,"needsAddr":true},{"id":530890026,"name":"集元果觀光工廠","lat":23.82504635,"lng":120.81462225,"address":null,"hasBabyChanging":false,"hasAccessible":false,"source":"OpenStreetMap","updatedAt":"2026-06-11T08:39:29.880Z","facilityType":"factory","facilityLabel":"🏭 觀光工廠","phone":null,"website":null,"wheelchair":false,"paid":null,"needsAddr":true},{"id":530720229,"name":"生態教育園區","lat":23.82689225,"lng":120.8013799,"address":null,"hasBabyChanging":false,"hasAccessible":false,"source":"OpenStreetMap","updatedAt":"2026-06-11T08:39:29.880Z","facilityType":"park","facilityLabel":"🌳 中型公園","phone":null,"website":null,"wheelchair":false,"paid":null,"needsAddr":true},{"id":550194770,"name":"田寮公園","lat":23.83248775,"lng":120.75196245000001,"address":null,"hasBabyChanging":false,"hasAccessible":false,"source":"OpenStreetMap","updatedAt":"2026-06-11T08:39:29.880Z","facilityType":"park","facilityLabel":"🌳 小型公園","phone":null,"website":null,"wheelchair":false,"paid":null,"needsAddr":true},{"id":5713197469,"name":"長青牧場","lat":23.8509569,"lng":120.6850498,"address":"551南投縣名間鄉大廈巷1之3號","hasBabyChanging":false,"hasAccessible":false,"source":"OpenStreetMap","updatedAt":"2026-06-11T08:39:29.880Z","facilityType":"farm","facilityLabel":"🌾 休閒農場","phone":"+886 939 727 568","website":"https://www.facebook.com/長青牧場-192506834116686/","wheelchair":false,"paid":null,"needsAddr":false},{"id":7215508883,"name":"坑內休閒農場","lat":23.856483,"lng":120.7280141,"address":null,"hasBabyChanging":false,"hasAccessible":false,"source":"OpenStreetMap","updatedAt":"2026-06-11T08:39:29.880Z","facilityType":"farm","facilityLabel":"🌾 休閒農場","phone":null,"website":null,"wheelchair":false,"paid":null,"needsAddr":true},{"id":466944184,"name":"名山路二段435巷","lat":23.84707065,"lng":120.6723156,"address":null,"hasBabyChanging":false,"hasAccessible":false,"source":"OpenStreetMap","updatedAt":"2026-06-11T08:39:29.880Z","facilityType":"culture","facilityLabel":"🎨 文化","phone":null,"website":null,"wheelchair":false,"paid":null,"needsAddr":true},{"id":659046197,"name":"受天宮小公園","lat":23.833755,"lng":120.63354545,"address":null,"hasBabyChanging":false,"hasAccessible":false,"source":"OpenStreetMap","updatedAt":"2026-06-11T08:39:29.880Z","facilityType":"park","facilityLabel":"🌳 小型公園","phone":null,"website":null,"wheelchair":false,"paid":null,"needsAddr":true},{"id":659234868,"name":"柏茶亭","lat":23.8419974,"lng":120.6261342,"address":null,"hasBabyChanging":false,"hasAccessible":false,"source":"OpenStreetMap","updatedAt":"2026-06-11T08:39:29.880Z","facilityType":"park","facilityLabel":"🌳 小型公園","phone":null,"website":null,"wheelchair":false,"paid":null,"needsAddr":true},{"id":676211337,"name":"田中森林公園登山步道(北線)","lat":23.8504813,"lng":120.61575975,"address":null,"hasBabyChanging":false,"hasAccessible":false,"source":"OpenStreetMap","updatedAt":"2026-06-11T08:39:29.880Z","facilityType":"park","facilityLabel":"🌳 小型公園","phone":null,"website":null,"wheelchair":false,"paid":null,"needsAddr":true},{"id":703411148,"name":"九二一斜塔紀念公園","lat":23.83266445,"lng":120.71025825,"address":null,"hasBabyChanging":false,"hasAccessible":false,"source":"OpenStreetMap","updatedAt":"2026-06-11T08:39:29.880Z","facilityType":"park","facilityLabel":"🌳 小型公園","phone":null,"website":null,"wheelchair":false,"paid":null,"needsAddr":true},{"id":748909469,"name":"河堤旁","lat":23.83685415,"lng":120.70099859999999,"address":null,"hasBabyChanging":false,"hasAccessible":false,"source":"OpenStreetMap","updatedAt":"2026-06-11T08:39:29.880Z","facilityType":"park","facilityLabel":"🌳 小型公園","phone":null,"website":null,"wheelchair":false,"paid":null,"needsAddr":true},{"id":749331913,"name":"名山路二段435巷","lat":23.84833205,"lng":120.67314615,"address":null,"hasBabyChanging":false,"hasAccessible":false,"source":"OpenStreetMap","updatedAt":"2026-06-11T08:39:29.880Z","facilityType":"culture","facilityLabel":"🎨 文化","phone":null,"website":null,"wheelchair":false,"paid":null,"needsAddr":true},{"id":977352085,"name":"七星陣地公園-瑤光","lat":23.8309686,"lng":120.63839630000001,"address":null,"hasBabyChanging":false,"hasAccessible":false,"source":"OpenStreetMap","updatedAt":"2026-06-11T08:39:29.880Z","facilityType":"park","facilityLabel":"🌳 小型公園","phone":null,"website":null,"wheelchair":false,"paid":null,"needsAddr":true},{"id":1013976628,"name":"名間親子生態園區","lat":23.85583575,"lng":120.6965645,"address":null,"hasBabyChanging":false,"hasAccessible":false,"source":"OpenStreetMap","updatedAt":"2026-06-11T08:39:29.880Z","facilityType":"park","facilityLabel":"🌳 中型公園","phone":null,"website":null,"wheelchair":false,"paid":null,"needsAddr":true},{"id":1196904796,"name":"七星陣地公園 天樞","lat":23.8221543,"lng":120.6415819,"address":null,"hasBabyChanging":false,"hasAccessible":false,"source":"OpenStreetMap","updatedAt":"2026-06-11T08:39:29.880Z","facilityType":"park","facilityLabel":"🌳 小型公園","phone":null,"website":null,"wheelchair":false,"paid":null,"needsAddr":true},{"id":1196904800,"name":"七星陣地公園-玉衡","lat":23.8256156,"lng":120.6398489,"address":null,"hasBabyChanging":false,"hasAccessible":false,"source":"OpenStreetMap","updatedAt":"2026-06-11T08:39:29.880Z","facilityType":"park","facilityLabel":"🌳 小型公園","phone":null,"website":null,"wheelchair":false,"paid":null,"needsAddr":true},{"id":2955964823,"name":"鳳凰谷鳥園","lat":23.7291312,"lng":120.79198,"address":null,"hasBabyChanging":false,"hasAccessible":false,"source":"OpenStreetMap","updatedAt":"2026-06-11T08:39:29.880Z","facilityType":"zoo","facilityLabel":"🦁 動物園","phone":null,"website":null,"wheelchair":false,"paid":null,"needsAddr":true},{"id":6979925123,"name":"一陽露營區","lat":23.6912611,"lng":120.773448,"address":null,"hasBabyChanging":false,"hasAccessible":false,"source":"OpenStreetMap","updatedAt":"2026-06-11T08:39:29.880Z","facilityType":"camp","facilityLabel":"⛺ 露營休閒","phone":null,"website":null,"wheelchair":false,"paid":null,"needsAddr":true},{"id":11137297026,"name":"禁止戲水、游泳","lat":23.6644763,"lng":120.7971012,"address":null,"hasBabyChanging":false,"hasAccessible":false,"source":"OpenStreetMap","updatedAt":"2026-06-11T08:39:29.880Z","facilityType":"water","facilityLabel":"💧 戲水親水","phone":null,"website":null,"wheelchair":false,"paid":null,"needsAddr":true},{"id":291946187,"name":"麒麟潭東湖露營區","lat":23.7538936,"lng":120.77319929999999,"address":null,"hasBabyChanging":false,"hasAccessible":false,"source":"OpenStreetMap","updatedAt":"2026-06-11T08:39:29.880Z","facilityType":"camp","facilityLabel":"⛺ 露營休閒","phone":null,"website":null,"wheelchair":false,"paid":null,"needsAddr":true},{"id":291946188,"name":"麒麟潭波斯園營地","lat":23.753751700000002,"lng":120.77220945,"address":null,"hasBabyChanging":false,"hasAccessible":false,"source":"OpenStreetMap","updatedAt":"2026-06-11T08:39:29.880Z","facilityType":"camp","facilityLabel":"⛺ 露營休閒","phone":null,"website":null,"wheelchair":false,"paid":null,"needsAddr":true},{"id":292008818,"name":"麒麟潭湖畔營地","lat":23.75330775,"lng":120.7708365,"address":null,"hasBabyChanging":false,"hasAccessible":false,"source":"OpenStreetMap","updatedAt":"2026-06-11T08:39:29.880Z","facilityType":"camp","facilityLabel":"⛺ 露營休閒","phone":null,"website":null,"wheelchair":false,"paid":null,"needsAddr":true},{"id":355473270,"name":"石馬公園","lat":23.725967,"lng":120.758618,"address":null,"hasBabyChanging":false,"hasAccessible":false,"source":"OpenStreetMap","updatedAt":"2026-06-11T08:39:29.880Z","facilityType":"park","facilityLabel":"🌳 小型公園","phone":null,"website":null,"wheelchair":false,"paid":null,"needsAddr":true},{"id":376654357,"name":"溪頭妖怪村","lat":23.6740846,"lng":120.79644825,"address":null,"hasBabyChanging":false,"hasAccessible":false,"source":"OpenStreetMap","updatedAt":"2026-06-11T08:39:29.880Z","facilityType":"theme_park","facilityLabel":"🎡 遊樂園","phone":null,"website":null,"wheelchair":false,"paid":null,"needsAddr":true},{"id":376654369,"name":"溪頭露營區","lat":23.678195449999997,"lng":120.79806805,"address":null,"hasBabyChanging":false,"hasAccessible":false,"source":"OpenStreetMap","updatedAt":"2026-06-11T08:39:29.880Z","facilityType":"camp","facilityLabel":"⛺ 露營休閒","phone":null,"website":null,"wheelchair":false,"paid":null,"needsAddr":true},{"id":528009820,"name":"神木廣場","lat":23.6607801,"lng":120.7983691,"address":null,"hasBabyChanging":false,"hasAccessible":true,"source":"OpenStreetMap","updatedAt":"2026-06-11T08:39:29.880Z","facilityType":"park","facilityLabel":"🌳 小型公園","phone":null,"website":null,"wheelchair":true,"paid":null,"needsAddr":true},{"id":528013137,"name":"森林探索區","lat":23.6677922,"lng":120.7890702,"address":null,"hasBabyChanging":false,"hasAccessible":false,"source":"OpenStreetMap","updatedAt":"2026-06-11T08:39:29.880Z","facilityType":"park","facilityLabel":"🌳 中型公園","phone":null,"website":null,"wheelchair":false,"paid":null,"needsAddr":true},{"id":528621341,"name":"土石流教學園區","lat":23.6649221,"lng":120.78643124999999,"address":null,"hasBabyChanging":false,"hasAccessible":false,"source":"OpenStreetMap","updatedAt":"2026-06-11T08:39:29.880Z","facilityType":"park","facilityLabel":"🌳 大型公園","phone":null,"website":null,"wheelchair":false,"paid":null,"needsAddr":true},{"id":528625708,"name":"A區","lat":23.67824865,"lng":120.7977125,"address":null,"hasBabyChanging":false,"hasAccessible":false,"source":"OpenStreetMap","updatedAt":"2026-06-11T08:39:29.880Z","facilityType":"camp","facilityLabel":"⛺ 露營休閒","phone":null,"website":null,"wheelchair":false,"paid":null,"needsAddr":true},{"id":528625710,"name":"B區","lat":23.6780762,"lng":120.79800485,"address":null,"hasBabyChanging":false,"hasAccessible":false,"source":"OpenStreetMap","updatedAt":"2026-06-11T08:39:29.880Z","facilityType":"camp","facilityLabel":"⛺ 露營休閒","phone":null,"website":null,"wheelchair":false,"paid":null,"needsAddr":true},{"id":528625713,"name":"C區","lat":23.67793085,"lng":120.798575,"address":null,"hasBabyChanging":false,"hasAccessible":false,"source":"OpenStreetMap","updatedAt":"2026-06-11T08:39:29.880Z","facilityType":"camp","facilityLabel":"⛺ 露營休閒","phone":null,"website":null,"wheelchair":false,"paid":null,"needsAddr":true},{"id":528634222,"name":"世界爺標本區","lat":23.66963645,"lng":120.7955504,"address":null,"hasBabyChanging":false,"hasAccessible":false,"source":"OpenStreetMap","updatedAt":"2026-06-11T08:39:29.880Z","facilityType":"park","facilityLabel":"🌳 小型公園","phone":null,"website":null,"wheelchair":false,"paid":null,"needsAddr":true},{"id":682361087,"name":"國立科博館鳳凰谷鳥園生態園區","lat":23.7297377,"lng":120.7963384,"address":null,"hasBabyChanging":false,"hasAccessible":false,"source":"OpenStreetMap","updatedAt":"2026-06-11T08:39:29.880Z","facilityType":"science","facilityLabel":"🔬 科學館","phone":null,"website":null,"wheelchair":false,"paid":null,"needsAddr":true},{"id":872340095,"name":"益品美術館","lat":23.7288917,"lng":120.7742574,"address":null,"hasBabyChanging":false,"hasAccessible":false,"source":"OpenStreetMap","updatedAt":"2026-06-11T08:39:29.880Z","facilityType":"culture","facilityLabel":"🖼️ 美術館","phone":null,"website":null,"wheelchair":false,"paid":true,"needsAddr":true},{"id":1509491258,"name":"露・山曉","lat":23.7164256,"lng":120.7723564,"address":"558南投縣鹿谷鄉愛鄉路98-16號","hasBabyChanging":false,"hasAccessible":false,"source":"OpenStreetMap","updatedAt":"2026-06-11T08:39:29.880Z","facilityType":"camp","facilityLabel":"⛺ 露營休閒","phone":null,"website":null,"wheelchair":false,"paid":null,"needsAddr":false},{"id":422581729,"name":"福盛山休閒農場","lat":23.9005628,"lng":120.8485611,"address":null,"hasBabyChanging":false,"hasAccessible":false,"source":"OpenStreetMap","updatedAt":"2026-06-11T08:39:29.880Z","facilityType":"farm","facilityLabel":"🌾 休閒農場","phone":null,"website":null,"wheelchair":false,"paid":null,"needsAddr":true},{"id":533105323,"name":"龍岩河濱公園","lat":23.9377463,"lng":120.7627838,"address":null,"hasBabyChanging":false,"hasAccessible":false,"source":"OpenStreetMap","updatedAt":"2026-06-11T08:39:29.880Z","facilityType":"park","facilityLabel":"🌳 小型公園","phone":null,"website":null,"wheelchair":false,"paid":null,"needsAddr":true},{"id":4535566891,"name":"日月潭特色遊學中心","lat":23.8172686,"lng":120.8858491,"address":"55547南投縣魚池鄉銃櫃巷18號","hasBabyChanging":false,"hasAccessible":false,"source":"OpenStreetMap","updatedAt":"2026-06-11T08:39:29.880Z","facilityType":"camp","facilityLabel":"⛺ 露營休閒","phone":"+886 49 286 1723","website":null,"wheelchair":false,"paid":null,"needsAddr":false},{"id":5817240161,"name":"金龍山曙光營地","lat":23.9002096,"lng":120.8995052,"address":null,"hasBabyChanging":false,"hasAccessible":false,"source":"OpenStreetMap","updatedAt":"2026-06-11T08:39:29.880Z","facilityType":"camp","facilityLabel":"⛺ 露營休閒","phone":null,"website":null,"wheelchair":false,"paid":null,"needsAddr":true},{"id":6535289252,"name":"月牙灣營地","lat":23.8440252,"lng":120.9051435,"address":null,"hasBabyChanging":false,"hasAccessible":false,"source":"OpenStreetMap","updatedAt":"2026-06-11T08:39:29.880Z","facilityType":"camp","facilityLabel":"⛺ 露營休閒","phone":null,"website":null,"wheelchair":false,"paid":null,"needsAddr":true},{"id":9764810194,"name":"田螺屋清新露營區","lat":23.8923219,"lng":120.9221256,"address":null,"hasBabyChanging":false,"hasAccessible":false,"source":"OpenStreetMap","updatedAt":"2026-06-11T08:39:29.880Z","facilityType":"camp","facilityLabel":"⛺ 露營休閒","phone":null,"website":null,"wheelchair":false,"paid":null,"needsAddr":true},{"id":13768929103,"name":"陌野露營車驛站","lat":23.8665947,"lng":120.9070921,"address":null,"hasBabyChanging":false,"hasAccessible":false,"source":"OpenStreetMap","updatedAt":"2026-06-11T08:39:29.880Z","facilityType":"camp","facilityLabel":"⛺ 露營休閒","phone":null,"website":null,"wheelchair":false,"paid":null,"needsAddr":true},{"id":341195831,"name":"九族文化村","lat":23.8649363,"lng":120.9473716,"address":"南投縣魚池鄉金天巷45號","hasBabyChanging":false,"hasAccessible":false,"source":"OpenStreetMap","updatedAt":"2026-06-11T08:39:29.880Z","facilityType":"theme_park","facilityLabel":"🎡 遊樂園","phone":"+886 49 289 5361","website":"https://www.nine.com.tw/","wheelchair":false,"paid":null,"needsAddr":false},{"id":440875162,"name":"頭社水庫露營區","lat":23.83588555,"lng":120.89839205000001,"address":null,"hasBabyChanging":false,"hasAccessible":false,"source":"OpenStreetMap","updatedAt":"2026-06-11T08:39:29.880Z","facilityType":"camp","facilityLabel":"⛺ 露營休閒","phone":null,"website":null,"wheelchair":false,"paid":null,"needsAddr":true},{"id":513743375,"name":"營火場","lat":23.905345750000002,"lng":120.93302109999999,"address":null,"hasBabyChanging":false,"hasAccessible":false,"source":"OpenStreetMap","updatedAt":"2026-06-11T08:39:29.880Z","facilityType":"camp","facilityLabel":"⛺ 露營休閒","phone":null,"website":null,"wheelchair":false,"paid":null,"needsAddr":true},{"id":558290837,"name":"拉魯島","lat":23.855681750000002,"lng":120.91128435,"address":null,"hasBabyChanging":false,"hasAccessible":false,"source":"OpenStreetMap","updatedAt":"2026-06-11T08:39:29.880Z","facilityType":"park","facilityLabel":"🌳 小型公園","phone":null,"website":null,"wheelchair":false,"paid":null,"needsAddr":true},{"id":660272003,"name":"愛露營仙聞露營區","lat":23.9036555,"lng":120.89089045,"address":"南投縣魚池鄉華龍巷73號","hasBabyChanging":false,"hasAccessible":false,"source":"OpenStreetMap","updatedAt":"2026-06-11T08:39:29.880Z","facilityType":"camp","facilityLabel":"⛺ 露營休閒","phone":"+886 966366199","website":null,"wheelchair":false,"paid":null,"needsAddr":false},{"id":695925816,"name":"文武廟後山公園","lat":23.86999565,"lng":120.9283202,"address":null,"hasBabyChanging":false,"hasAccessible":false,"source":"OpenStreetMap","updatedAt":"2026-06-11T08:39:29.880Z","facilityType":"park","facilityLabel":"🌳 小型公園","phone":null,"website":null,"wheelchair":false,"paid":null,"needsAddr":true},{"id":695939605,"name":"大竹湖水鳥公園","lat":23.8635389,"lng":120.94054825,"address":null,"hasBabyChanging":false,"hasAccessible":false,"source":"OpenStreetMap","updatedAt":"2026-06-11T08:39:29.880Z","facilityType":"park","facilityLabel":"🌳 小型公園","phone":null,"website":null,"wheelchair":false,"paid":null,"needsAddr":true},{"id":695945192,"name":"青龍山宗教公園","lat":23.85212705,"lng":120.91348794999999,"address":null,"hasBabyChanging":false,"hasAccessible":false,"source":"OpenStreetMap","updatedAt":"2026-06-11T08:39:29.880Z","facilityType":"park","facilityLabel":"🌳 小型公園","phone":null,"website":null,"wheelchair":false,"paid":null,"needsAddr":true},{"id":695979449,"name":"水社親水步道","lat":23.867769850000002,"lng":120.9159217,"address":null,"hasBabyChanging":false,"hasAccessible":false,"source":"OpenStreetMap","updatedAt":"2026-06-11T08:39:29.880Z","facilityType":"water","facilityLabel":"💧 戲水親水","phone":null,"website":null,"wheelchair":false,"paid":null,"needsAddr":true},{"id":696140873,"name":"梅荷園","lat":23.86398875,"lng":120.91100660000001,"address":null,"hasBabyChanging":false,"hasAccessible":false,"source":"OpenStreetMap","updatedAt":"2026-06-11T08:39:29.880Z","facilityType":"park","facilityLabel":"🌳 小型公園","phone":null,"website":null,"wheelchair":false,"paid":null,"needsAddr":true},{"id":731701471,"name":"婚紗廣場","lat":23.85318065,"lng":120.90211235,"address":null,"hasBabyChanging":false,"hasAccessible":false,"source":"OpenStreetMap","updatedAt":"2026-06-11T08:39:29.880Z","facilityType":"park","facilityLabel":"🌳 小型公園","phone":null,"website":null,"wheelchair":false,"paid":null,"needsAddr":true},{"id":733255917,"name":"九族文化博物館","lat":23.8631162,"lng":120.94964350000001,"address":null,"hasBabyChanging":false,"hasAccessible":false,"source":"OpenStreetMap","updatedAt":"2026-06-11T08:39:29.880Z","facilityType":"science","facilityLabel":"🔬 科學館","phone":null,"website":null,"wheelchair":false,"paid":false,"needsAddr":true},{"id":854777480,"name":"青綠園","lat":23.88535945,"lng":120.8937411,"address":null,"hasBabyChanging":false,"hasAccessible":false,"source":"OpenStreetMap","updatedAt":"2026-06-11T08:39:29.880Z","facilityType":"camp","facilityLabel":"⛺ 露營休閒","phone":null,"website":null,"wheelchair":false,"paid":null,"needsAddr":true},{"id":868965705,"name":"斗內籽露營區","lat":23.87279505,"lng":120.91437665000001,"address":null,"hasBabyChanging":false,"hasAccessible":false,"source":"OpenStreetMap","updatedAt":"2026-06-11T08:39:29.880Z","facilityType":"camp","facilityLabel":"⛺ 露營休閒","phone":null,"website":null,"wheelchair":false,"paid":null,"needsAddr":true},{"id":1001894436,"name":"畢瓦客露營地","lat":23.86687575,"lng":120.90384789999999,"address":null,"hasBabyChanging":false,"hasAccessible":false,"source":"OpenStreetMap","updatedAt":"2026-06-11T08:39:29.880Z","facilityType":"camp","facilityLabel":"⛺ 露營休閒","phone":null,"website":null,"wheelchair":false,"paid":null,"needsAddr":true},{"id":1016046312,"name":"帖泊喀露營區","lat":23.850780649999997,"lng":120.93499725000001,"address":null,"hasBabyChanging":false,"hasAccessible":false,"source":"OpenStreetMap","updatedAt":"2026-06-11T08:39:29.880Z","facilityType":"camp","facilityLabel":"⛺ 露營休閒","phone":null,"website":null,"wheelchair":false,"paid":null,"needsAddr":true},{"id":1023157087,"name":"文化村喜樂營地","lat":23.88319635,"lng":120.9400588,"address":null,"hasBabyChanging":false,"hasAccessible":false,"source":"OpenStreetMap","updatedAt":"2026-06-11T08:39:29.880Z","facilityType":"camp","facilityLabel":"⛺ 露營休閒","phone":null,"website":null,"wheelchair":false,"paid":null,"needsAddr":true},{"id":1198896244,"name":"日月潭齊樂事露營區","lat":23.84349885,"lng":120.92813369999999,"address":null,"hasBabyChanging":false,"hasAccessible":false,"source":"OpenStreetMap","updatedAt":"2026-06-11T08:39:29.880Z","facilityType":"camp","facilityLabel":"⛺ 露營休閒","phone":null,"website":null,"wheelchair":false,"paid":null,"needsAddr":true},{"id":1375325955,"name":"鹿露","lat":23.925750700000002,"lng":120.9432587,"address":null,"hasBabyChanging":false,"hasAccessible":false,"source":"OpenStreetMap","updatedAt":"2026-06-11T08:39:29.880Z","facilityType":"camp","facilityLabel":"⛺ 露營休閒","phone":null,"website":null,"wheelchair":false,"paid":null,"needsAddr":true},{"id":1507589124,"name":"螢火蟲賞點","lat":23.866202100000002,"lng":120.9074892,"address":null,"hasBabyChanging":false,"hasAccessible":false,"source":"OpenStreetMap","updatedAt":"2026-06-11T08:39:29.880Z","facilityType":"park","facilityLabel":"🌳 小型公園","phone":null,"website":null,"wheelchair":false,"paid":null,"needsAddr":true},{"id":5422372864,"name":"北港溪沙八渡假村","lat":24.0624377,"lng":120.9346217,"address":"南投縣國姓鄉北原路34-1號","hasBabyChanging":false,"hasAccessible":false,"source":"OpenStreetMap","updatedAt":"2026-06-11T08:39:29.880Z","facilityType":"camp","facilityLabel":"⛺ 露營休閒","phone":"+886-49-2461776","website":"http://www.pkcv.net","wheelchair":false,"paid":true,"needsAddr":false},{"id":422581729,"name":"福盛山休閒農場","lat":23.9005628,"lng":120.8485611,"address":null,"hasBabyChanging":false,"hasAccessible":false,"source":"OpenStreetMap","updatedAt":"2026-06-11T08:39:29.880Z","facilityType":"farm","facilityLabel":"🌾 休閒農場","phone":null,"website":null,"wheelchair":false,"paid":null,"needsAddr":true},{"id":722208903,"name":"九份二山震災紀念園區","lat":23.96146015,"lng":120.84761915,"address":null,"hasBabyChanging":false,"hasAccessible":false,"source":"OpenStreetMap","updatedAt":"2026-06-11T08:39:29.880Z","facilityType":"theme_park","facilityLabel":"🎡 遊樂園","phone":null,"website":null,"wheelchair":false,"paid":null,"needsAddr":true},{"id":1139127364,"name":"九份二山國家地震紀念地 原生植物展示區","lat":23.95023525,"lng":120.85098975,"address":null,"hasBabyChanging":false,"hasAccessible":false,"source":"OpenStreetMap","updatedAt":"2026-06-11T08:39:29.880Z","facilityType":"theme_park","facilityLabel":"🎡 遊樂園","phone":null,"website":null,"wheelchair":false,"paid":null,"needsAddr":true},{"id":292494553,"name":"水里親水公園","lat":23.81017315,"lng":120.84875015,"address":null,"hasBabyChanging":false,"hasAccessible":false,"source":"OpenStreetMap","updatedAt":"2026-06-11T08:39:29.880Z","facilityType":"water","facilityLabel":"💧 戲水親水","phone":null,"website":null,"wheelchair":false,"paid":null,"needsAddr":true},{"id":758835806,"name":"南光休閒活動廣場","lat":23.8090479,"lng":120.85328365000001,"address":null,"hasBabyChanging":false,"hasAccessible":false,"source":"OpenStreetMap","updatedAt":"2026-06-11T08:39:29.880Z","facilityType":"park","facilityLabel":"🌳 小型公園","phone":null,"website":null,"wheelchair":false,"paid":null,"needsAddr":true},{"id":1087956508,"name":"美麗水里生態園區","lat":23.820735499999998,"lng":120.8577084,"address":"南投縣水里鄉農富路93號","hasBabyChanging":false,"hasAccessible":false,"source":"OpenStreetMap","updatedAt":"2026-06-11T08:39:29.880Z","facilityType":"park","facilityLabel":"🌳 小型公園","phone":null,"website":null,"wheelchair":false,"paid":null,"needsAddr":false},{"id":1212088395,"name":"水里蛇窯陶藝文化園區","lat":23.80079675,"lng":120.86470349999999,"address":"553南投縣水里鄉水信路一段512巷21號","hasBabyChanging":false,"hasAccessible":false,"source":"OpenStreetMap","updatedAt":"2026-06-11T08:39:29.880Z","facilityType":"diy","facilityLabel":"🧶 手作DIY","phone":"+886 49 2770967","website":"https://www.snakekiln.com.tw/","wheelchair":false,"paid":null,"needsAddr":false},{"id":2901243054,"name":"獵寮","lat":23.8211689,"lng":120.9543815,"address":null,"hasBabyChanging":false,"hasAccessible":false,"source":"OpenStreetMap","updatedAt":"2026-06-11T08:39:29.880Z","facilityType":"camp","facilityLabel":"⛺ 露營休閒","phone":null,"website":null,"wheelchair":false,"paid":null,"needsAddr":true},{"id":2901243055,"name":"獵寮","lat":23.828873,"lng":120.9679193,"address":null,"hasBabyChanging":false,"hasAccessible":false,"source":"OpenStreetMap","updatedAt":"2026-06-11T08:39:29.880Z","facilityType":"camp","facilityLabel":"⛺ 露營休閒","phone":null,"website":null,"wheelchair":false,"paid":null,"needsAddr":true},{"id":4315772614,"name":"小營地","lat":23.4935877,"lng":121.0043704,"address":null,"hasBabyChanging":false,"hasAccessible":false,"source":"OpenStreetMap","updatedAt":"2026-06-11T08:39:29.880Z","facilityType":"camp","facilityLabel":"⛺ 露營休閒","phone":null,"website":null,"wheelchair":false,"paid":null,"needsAddr":true},{"id":4542469423,"name":"櫧山北鞍營地","lat":23.5992432,"lng":121.0896252,"address":null,"hasBabyChanging":false,"hasAccessible":false,"source":"OpenStreetMap","updatedAt":"2026-06-11T08:39:29.880Z","facilityType":"camp","facilityLabel":"⛺ 露營休閒","phone":null,"website":null,"wheelchair":false,"paid":null,"needsAddr":true},{"id":4766244970,"name":"牧山池營地","lat":23.8623858,"lng":121.1594129,"address":null,"hasBabyChanging":false,"hasAccessible":false,"source":"OpenStreetMap","updatedAt":"2026-06-11T08:39:29.880Z","facilityType":"camp","facilityLabel":"⛺ 露營休閒","phone":null,"website":null,"wheelchair":false,"paid":null,"needsAddr":true},{"id":5006243165,"name":"獵寮","lat":23.6079791,"lng":120.8195256,"address":null,"hasBabyChanging":false,"hasAccessible":false,"source":"OpenStreetMap","updatedAt":"2026-06-11T08:39:29.880Z","facilityType":"camp","facilityLabel":"⛺ 露營休閒","phone":null,"website":null,"wheelchair":false,"paid":null,"needsAddr":true},{"id":5875266961,"name":"杜鵑營地","lat":23.4744728,"lng":121.0273875,"address":null,"hasBabyChanging":false,"hasAccessible":false,"source":"OpenStreetMap","updatedAt":"2026-06-11T08:39:29.880Z","facilityType":"camp","facilityLabel":"⛺ 露營休閒","phone":null,"website":null,"wheelchair":false,"paid":null,"needsAddr":true},{"id":5875268065,"name":"小營地","lat":23.4807561,"lng":121.02299,"address":null,"hasBabyChanging":false,"hasAccessible":false,"source":"OpenStreetMap","updatedAt":"2026-06-11T08:39:29.880Z","facilityType":"camp","facilityLabel":"⛺ 露營休閒","phone":null,"website":null,"wheelchair":false,"paid":null,"needsAddr":true},{"id":5875296069,"name":"南營地","lat":23.4637372,"lng":121.0409582,"address":null,"hasBabyChanging":false,"hasAccessible":false,"source":"OpenStreetMap","updatedAt":"2026-06-11T08:39:29.880Z","facilityType":"camp","facilityLabel":"⛺ 露營休閒","phone":null,"website":null,"wheelchair":false,"paid":null,"needsAddr":true},{"id":5902246547,"name":"丹大溪源營地","lat":23.5991852,"lng":121.1353129,"address":null,"hasBabyChanging":false,"hasAccessible":false,"source":"OpenStreetMap","updatedAt":"2026-06-11T08:39:29.880Z","facilityType":"camp","facilityLabel":"⛺ 露營休閒","phone":null,"website":null,"wheelchair":false,"paid":null,"needsAddr":true},{"id":5912765827,"name":"亞力士營地","lat":23.5743126,"lng":121.0458773,"address":null,"hasBabyChanging":false,"hasAccessible":false,"source":"OpenStreetMap","updatedAt":"2026-06-11T08:39:29.880Z","facilityType":"camp","facilityLabel":"⛺ 露營休閒","phone":null,"website":null,"wheelchair":false,"paid":null,"needsAddr":true},{"id":5912765830,"name":"北鞍營地","lat":23.6268974,"lng":121.0909036,"address":null,"hasBabyChanging":false,"hasAccessible":false,"source":"OpenStreetMap","updatedAt":"2026-06-11T08:39:29.880Z","facilityType":"camp","facilityLabel":"⛺ 露營休閒","phone":null,"website":null,"wheelchair":false,"paid":null,"needsAddr":true},{"id":6224080456,"name":"喀塔朗溪營地","lat":23.5907846,"lng":120.988605,"address":null,"hasBabyChanging":false,"hasAccessible":false,"source":"OpenStreetMap","updatedAt":"2026-06-11T08:39:29.880Z","facilityType":"camp","facilityLabel":"⛺ 露營休閒","phone":null,"website":null,"wheelchair":false,"paid":null,"needsAddr":true},{"id":6300356341,"name":"瑪兒莎莎露營區","lat":23.6004509,"lng":120.8867784,"address":null,"hasBabyChanging":false,"hasAccessible":false,"source":"OpenStreetMap","updatedAt":"2026-06-11T08:39:29.880Z","facilityType":"camp","facilityLabel":"⛺ 露營休閒","phone":null,"website":null,"wheelchair":false,"paid":null,"needsAddr":true},{"id":6300356343,"name":"薩曼卡露營區","lat":23.6007408,"lng":120.8868826,"address":null,"hasBabyChanging":false,"hasAccessible":false,"source":"OpenStreetMap","updatedAt":"2026-06-11T08:39:29.880Z","facilityType":"camp","facilityLabel":"⛺ 露營休閒","phone":null,"website":null,"wheelchair":false,"paid":null,"needsAddr":true},{"id":6300356344,"name":"迪仰露營區","lat":23.600711,"lng":120.8871454,"address":null,"hasBabyChanging":false,"hasAccessible":false,"source":"OpenStreetMap","updatedAt":"2026-06-11T08:39:29.880Z","facilityType":"camp","facilityLabel":"⛺ 露營休閒","phone":null,"website":null,"wheelchair":false,"paid":null,"needsAddr":true},{"id":6300356357,"name":"五餅二魚露營區","lat":23.6021145,"lng":120.8884035,"address":null,"hasBabyChanging":false,"hasAccessible":false,"source":"OpenStreetMap","updatedAt":"2026-06-11T08:39:29.880Z","facilityType":"camp","facilityLabel":"⛺ 露營休閒","phone":null,"website":null,"wheelchair":false,"paid":null,"needsAddr":true},{"id":7173924268,"name":"荖濃溪營地","lat":23.4755544,"lng":120.9639235,"address":null,"hasBabyChanging":false,"hasAccessible":false,"source":"OpenStreetMap","updatedAt":"2026-06-11T08:39:29.880Z","facilityType":"camp","facilityLabel":"⛺ 露營休閒","phone":null,"website":null,"wheelchair":false,"paid":false,"needsAddr":true},{"id":7895618618,"name":"烏瓦拉鼻溪營地","lat":23.5809642,"lng":121.0013419,"address":null,"hasBabyChanging":false,"hasAccessible":false,"source":"OpenStreetMap","updatedAt":"2026-06-11T08:39:29.880Z","facilityType":"camp","facilityLabel":"⛺ 露營休閒","phone":null,"website":null,"wheelchair":false,"paid":null,"needsAddr":true},{"id":9525019818,"name":"郡大南鞍營地","lat":23.5748529,"lng":120.9615687,"address":null,"hasBabyChanging":false,"hasAccessible":false,"source":"OpenStreetMap","updatedAt":"2026-06-11T08:39:29.880Z","facilityType":"camp","facilityLabel":"⛺ 露營休閒","phone":null,"website":null,"wheelchair":false,"paid":null,"needsAddr":true},{"id":10687625322,"name":"哈努英餐坊營地","lat":23.792109,"lng":120.9510121,"address":"南投縣信義鄉開信巷18-6號","hasBabyChanging":false,"hasAccessible":false,"source":"OpenStreetMap","updatedAt":"2026-06-11T08:39:29.880Z","facilityType":"camp","facilityLabel":"⛺ 露營休閒","phone":null,"website":null,"wheelchair":false,"paid":true,"needsAddr":false},{"id":11810942469,"name":"無雙溫泉營地","lat":23.5933771,"lng":121.0108353,"address":null,"hasBabyChanging":false,"hasAccessible":false,"source":"OpenStreetMap","updatedAt":"2026-06-11T08:39:29.880Z","facilityType":"camp","facilityLabel":"⛺ 露營休閒","phone":null,"website":null,"wheelchair":false,"paid":null,"needsAddr":true},{"id":11811218408,"name":"2850營地","lat":23.5902549,"lng":121.0408264,"address":null,"hasBabyChanging":false,"hasAccessible":false,"source":"OpenStreetMap","updatedAt":"2026-06-11T08:39:29.880Z","facilityType":"camp","facilityLabel":"⛺ 露營休閒","phone":null,"website":null,"wheelchair":false,"paid":null,"needsAddr":true},{"id":11823185969,"name":"崖邊營地","lat":23.5879975,"lng":121.1648521,"address":null,"hasBabyChanging":false,"hasAccessible":false,"source":"OpenStreetMap","updatedAt":"2026-06-11T08:39:29.880Z","facilityType":"camp","facilityLabel":"⛺ 露營休閒","phone":null,"website":null,"wheelchair":false,"paid":null,"needsAddr":true},{"id":13113484370,"name":"觀高營地","lat":23.5028398,"lng":120.9997165,"address":null,"hasBabyChanging":false,"hasAccessible":false,"source":"OpenStreetMap","updatedAt":"2026-06-11T08:39:29.880Z","facilityType":"camp","facilityLabel":"⛺ 露營休閒","phone":null,"website":null,"wheelchair":false,"paid":null,"needsAddr":true},{"id":13113484377,"name":"觀高工作站","lat":23.502584,"lng":121.0019682,"address":null,"hasBabyChanging":false,"hasAccessible":false,"source":"OpenStreetMap","updatedAt":"2026-06-11T08:39:29.880Z","facilityType":"camp","facilityLabel":"⛺ 露營休閒","phone":null,"website":null,"wheelchair":false,"paid":null,"needsAddr":true},{"id":221295130,"name":"阿里山舊鐵道(石山線)","lat":23.47113285,"lng":120.8468453,"address":null,"hasBabyChanging":false,"hasAccessible":false,"source":"OpenStreetMap","updatedAt":"2026-06-11T08:39:29.880Z","facilityType":"railway","facilityLabel":"🚂 鐵道交通","phone":null,"website":null,"wheelchair":false,"paid":null,"needsAddr":true},{"id":578022317,"name":"上東埔野餐區(玉管處設)","lat":23.48063705,"lng":120.88528595,"address":null,"hasBabyChanging":false,"hasAccessible":false,"source":"OpenStreetMap","updatedAt":"2026-06-11T08:39:29.880Z","facilityType":"park","facilityLabel":"🌳 小型公園","phone":null,"website":null,"wheelchair":false,"paid":null,"needsAddr":true},{"id":578022318,"name":"塔塔加野餐區(玉管處設)","lat":23.486773,"lng":120.8886945,"address":null,"hasBabyChanging":false,"hasAccessible":false,"source":"OpenStreetMap","updatedAt":"2026-06-11T08:39:29.880Z","facilityType":"park","facilityLabel":"🌳 小型公園","phone":null,"website":null,"wheelchair":false,"paid":null,"needsAddr":true},{"id":1205667092,"name":"羅娜景觀公園","lat":23.62964355,"lng":120.87440104999999,"address":null,"hasBabyChanging":false,"hasAccessible":false,"source":"OpenStreetMap","updatedAt":"2026-06-11T08:39:29.880Z","facilityType":"park","facilityLabel":"🌳 中型公園","phone":null,"website":null,"wheelchair":false,"paid":null,"needsAddr":true},{"id":1214982548,"name":"信義鄉運動廣場","lat":23.7844762,"lng":120.8967662,"address":null,"hasBabyChanging":false,"hasAccessible":false,"source":"OpenStreetMap","updatedAt":"2026-06-11T08:39:29.880Z","facilityType":"park","facilityLabel":"🌳 中型公園","phone":null,"website":null,"wheelchair":false,"paid":null,"needsAddr":true},{"id":1457071226,"name":"隆華護岸","lat":23.57606095,"lng":120.8774536,"address":null,"hasBabyChanging":false,"hasAccessible":false,"source":"OpenStreetMap","updatedAt":"2026-06-11T08:39:29.880Z","facilityType":"park","facilityLabel":"🌳 小型公園","phone":null,"website":null,"wheelchair":false,"paid":null,"needsAddr":true},{"id":2298631716,"name":"司晏池營地","lat":24.1968376,"lng":121.1380269,"address":null,"hasBabyChanging":false,"hasAccessible":false,"source":"OpenStreetMap","updatedAt":"2026-06-11T08:39:29.880Z","facilityType":"camp","facilityLabel":"⛺ 露營休閒","phone":null,"website":null,"wheelchair":false,"paid":null,"needsAddr":true},{"id":3417284136,"name":"營地","lat":24.2047453,"lng":121.3402771,"address":null,"hasBabyChanging":false,"hasAccessible":false,"source":"OpenStreetMap","updatedAt":"2026-06-11T08:39:29.880Z","facilityType":"camp","facilityLabel":"⛺ 露營休閒","phone":null,"website":null,"wheelchair":false,"paid":null,"needsAddr":true},{"id":3417286913,"name":"營地","lat":24.2118833,"lng":121.3482333,"address":null,"hasBabyChanging":false,"hasAccessible":false,"source":"OpenStreetMap","updatedAt":"2026-06-11T08:39:29.880Z","facilityType":"camp","facilityLabel":"⛺ 露營休閒","phone":null,"website":null,"wheelchair":false,"paid":null,"needsAddr":true},{"id":4117910583,"name":"屯鹿池營地","lat":23.8895359,"lng":121.2644565,"address":null,"hasBabyChanging":false,"hasAccessible":false,"source":"OpenStreetMap","updatedAt":"2026-06-11T08:39:29.880Z","facilityType":"camp","facilityLabel":"⛺ 露營休閒","phone":null,"website":null,"wheelchair":false,"paid":null,"needsAddr":true},{"id":4224733689,"name":"馬累了吧休閑農莊","lat":24.1465539,"lng":121.187713,"address":null,"hasBabyChanging":false,"hasAccessible":false,"source":"OpenStreetMap","updatedAt":"2026-06-11T08:39:29.880Z","facilityType":"camp","facilityLabel":"⛺ 露營休閒","phone":null,"website":null,"wheelchair":false,"paid":null,"needsAddr":true},{"id":4310344721,"name":"日出營地","lat":24.1789782,"lng":121.2852374,"address":null,"hasBabyChanging":false,"hasAccessible":false,"source":"OpenStreetMap","updatedAt":"2026-06-11T08:39:29.880Z","facilityType":"camp","facilityLabel":"⛺ 露營休閒","phone":null,"website":null,"wheelchair":false,"paid":null,"needsAddr":true},{"id":4310344722,"name":"日出營地","lat":24.1804083,"lng":121.2837448,"address":null,"hasBabyChanging":false,"hasAccessible":false,"source":"OpenStreetMap","updatedAt":"2026-06-11T08:39:29.880Z","facilityType":"camp","facilityLabel":"⛺ 露營休閒","phone":null,"website":null,"wheelchair":false,"paid":null,"needsAddr":true},{"id":4357414190,"name":"昆陽野營區","lat":24.1228632,"lng":121.2727874,"address":null,"hasBabyChanging":false,"hasAccessible":false,"source":"OpenStreetMap","updatedAt":"2026-06-11T08:39:29.880Z","facilityType":"camp","facilityLabel":"⛺ 露營休閒","phone":null,"website":null,"wheelchair":false,"paid":null,"needsAddr":true},{"id":4613305889,"name":"池塘營地","lat":24.1793274,"lng":121.261317,"address":null,"hasBabyChanging":false,"hasAccessible":false,"source":"OpenStreetMap","updatedAt":"2026-06-11T08:39:29.880Z","facilityType":"camp","facilityLabel":"⛺ 露營休閒","phone":null,"website":null,"wheelchair":false,"paid":null,"needsAddr":true},{"id":4613305894,"name":"箭竹營地","lat":24.1755187,"lng":121.2520031,"address":null,"hasBabyChanging":false,"hasAccessible":false,"source":"OpenStreetMap","updatedAt":"2026-06-11T08:39:29.880Z","facilityType":"camp","facilityLabel":"⛺ 露營休閒","phone":null,"website":null,"wheelchair":false,"paid":null,"needsAddr":true},{"id":4613305905,"name":"西峰營地","lat":24.1778165,"lng":121.245567,"address":null,"hasBabyChanging":false,"hasAccessible":false,"source":"OpenStreetMap","updatedAt":"2026-06-11T08:39:29.880Z","facilityType":"camp","facilityLabel":"⛺ 露營休閒","phone":null,"website":null,"wheelchair":false,"paid":null,"needsAddr":true},{"id":5070475305,"name":"屯鹿妹池營地","lat":23.8873184,"lng":121.2644383,"address":null,"hasBabyChanging":false,"hasAccessible":false,"source":"OpenStreetMap","updatedAt":"2026-06-11T08:39:29.880Z","facilityType":"camp","facilityLabel":"⛺ 露營休閒","phone":null,"website":null,"wheelchair":false,"paid":null,"needsAddr":true},{"id":5643601638,"name":"3159峰南鞍營地","lat":23.947475,"lng":121.27189,"address":null,"hasBabyChanging":false,"hasAccessible":false,"source":"OpenStreetMap","updatedAt":"2026-06-11T08:39:29.880Z","facilityType":"camp","facilityLabel":"⛺ 露營休閒","phone":null,"website":null,"wheelchair":false,"paid":null,"needsAddr":true},{"id":5643803603,"name":"第二獵寮","lat":23.887307,"lng":121.241268,"address":null,"hasBabyChanging":false,"hasAccessible":false,"source":"OpenStreetMap","updatedAt":"2026-06-11T08:39:29.880Z","facilityType":"camp","facilityLabel":"⛺ 露營休閒","phone":null,"website":null,"wheelchair":false,"paid":null,"needsAddr":true},{"id":5883194385,"name":"營地","lat":24.0449415,"lng":121.2793137,"address":null,"hasBabyChanging":false,"hasAccessible":false,"source":"OpenStreetMap","updatedAt":"2026-06-11T08:39:29.880Z","facilityType":"camp","facilityLabel":"⛺ 露營休閒","phone":null,"website":null,"wheelchair":false,"paid":null,"needsAddr":true},{"id":7764176385,"name":"金杏真路高繞口","lat":23.8921774,"lng":121.2221627,"address":null,"hasBabyChanging":false,"hasAccessible":false,"source":"OpenStreetMap","updatedAt":"2026-06-11T08:39:29.880Z","facilityType":"camp","facilityLabel":"⛺ 露營休閒","phone":null,"website":null,"wheelchair":false,"paid":null,"needsAddr":true},{"id":7764176785,"name":"第三支流合匯點 鐵皮工寮營地","lat":23.9109442,"lng":121.2165123,"address":null,"hasBabyChanging":false,"hasAccessible":false,"source":"OpenStreetMap","updatedAt":"2026-06-11T08:39:29.880Z","facilityType":"camp","facilityLabel":"⛺ 露營休閒","phone":null,"website":null,"wheelchair":false,"paid":null,"needsAddr":true},{"id":7764176786,"name":"第四匯流口","lat":23.9203755,"lng":121.2122892,"address":null,"hasBabyChanging":false,"hasAccessible":false,"source":"OpenStreetMap","updatedAt":"2026-06-11T08:39:29.880Z","facilityType":"camp","facilityLabel":"⛺ 露營休閒","phone":null,"website":null,"wheelchair":false,"paid":null,"needsAddr":true},{"id":8197613819,"name":"飛瀑露營區","lat":24.033444,"lng":121.1110479,"address":null,"hasBabyChanging":false,"hasAccessible":false,"source":"OpenStreetMap","updatedAt":"2026-06-11T08:39:29.880Z","facilityType":"camp","facilityLabel":"⛺ 露營休閒","phone":null,"website":null,"wheelchair":false,"paid":null,"needsAddr":true},{"id":9115940005,"name":"沼澤營地","lat":24.1857075,"lng":121.1442593,"address":null,"hasBabyChanging":false,"hasAccessible":false,"source":"OpenStreetMap","updatedAt":"2026-06-11T08:39:29.880Z","facilityType":"camp","facilityLabel":"⛺ 露營休閒","phone":null,"website":null,"wheelchair":false,"paid":null,"needsAddr":true},{"id":9116015744,"name":"草坡營地","lat":24.1961897,"lng":121.1389035,"address":null,"hasBabyChanging":false,"hasAccessible":false,"source":"OpenStreetMap","updatedAt":"2026-06-11T08:39:29.880Z","facilityType":"camp","facilityLabel":"⛺ 露營休閒","phone":null,"website":null,"wheelchair":false,"paid":null,"needsAddr":true},{"id":9278929326,"name":"松林營地","lat":24.1938789,"lng":121.1407823,"address":null,"hasBabyChanging":false,"hasAccessible":false,"source":"OpenStreetMap","updatedAt":"2026-06-11T08:39:29.880Z","facilityType":"camp","facilityLabel":"⛺ 露營休閒","phone":null,"website":null,"wheelchair":false,"paid":null,"needsAddr":true},{"id":10698741810,"name":"八東山最高峰前松針營地","lat":24.1384402,"lng":121.1094445,"address":null,"hasBabyChanging":false,"hasAccessible":false,"source":"OpenStreetMap","updatedAt":"2026-06-11T08:39:29.880Z","facilityType":"camp","facilityLabel":"⛺ 露營休閒","phone":null,"website":null,"wheelchair":false,"paid":null,"needsAddr":true},{"id":10705767940,"name":"千岳營地","lat":24.1379595,"lng":121.1136677,"address":null,"hasBabyChanging":false,"hasAccessible":false,"source":"OpenStreetMap","updatedAt":"2026-06-11T08:39:29.880Z","facilityType":"camp","facilityLabel":"⛺ 露營休閒","phone":null,"website":null,"wheelchair":false,"paid":null,"needsAddr":true},{"id":11076510740,"name":"相逢部落露營區","lat":23.8940784,"lng":120.9903918,"address":null,"hasBabyChanging":false,"hasAccessible":false,"source":"OpenStreetMap","updatedAt":"2026-06-11T08:39:29.880Z","facilityType":"camp","facilityLabel":"⛺ 露營休閒","phone":null,"website":null,"wheelchair":false,"paid":null,"needsAddr":true},{"id":11076510741,"name":"來來露營區","lat":23.9032451,"lng":120.9900489,"address":null,"hasBabyChanging":false,"hasAccessible":false,"source":"OpenStreetMap","updatedAt":"2026-06-11T08:39:29.880Z","facilityType":"camp","facilityLabel":"⛺ 露營休閒","phone":null,"website":null,"wheelchair":false,"paid":null,"needsAddr":true},{"id":11690895967,"name":"獵人營地","lat":24.2212651,"lng":121.1647653,"address":null,"hasBabyChanging":false,"hasAccessible":false,"source":"OpenStreetMap","updatedAt":"2026-06-11T08:39:29.880Z","facilityType":"camp","facilityLabel":"⛺ 露營休閒","phone":null,"website":null,"wheelchair":false,"paid":null,"needsAddr":true},{"id":12194565496,"name":"工寮營地","lat":24.1407782,"lng":121.0092593,"address":null,"hasBabyChanging":false,"hasAccessible":false,"source":"OpenStreetMap","updatedAt":"2026-06-11T08:39:29.880Z","facilityType":"camp","facilityLabel":"⛺ 露營休閒","phone":null,"website":null,"wheelchair":false,"paid":null,"needsAddr":true},{"id":12194565497,"name":"工寮營地","lat":24.1379968,"lng":121.0693898,"address":null,"hasBabyChanging":false,"hasAccessible":false,"source":"OpenStreetMap","updatedAt":"2026-06-11T08:39:29.880Z","facilityType":"camp","facilityLabel":"⛺ 露營休閒","phone":null,"website":null,"wheelchair":false,"paid":null,"needsAddr":true},{"id":12893776214,"name":"夢谷瀑布親子農場","lat":24.0209836,"lng":121.0870189,"address":null,"hasBabyChanging":false,"hasAccessible":false,"source":"OpenStreetMap","updatedAt":"2026-06-11T08:39:29.880Z","facilityType":"farm","facilityLabel":"🌾 休閒農場","phone":null,"website":"https://menggupubu.com/","wheelchair":false,"paid":null,"needsAddr":true},{"id":12893776215,"name":"賽德克原住民畜牧農場","lat":24.0206716,"lng":121.0871327,"address":null,"hasBabyChanging":false,"hasAccessible":false,"source":"OpenStreetMap","updatedAt":"2026-06-11T08:39:29.880Z","facilityType":"zoo","facilityLabel":"🦁 動物園","phone":null,"website":"https://menggupubu.com/","wheelchair":false,"paid":null,"needsAddr":true},{"id":267372933,"name":"夢谷觀光農場","lat":24.014172199999997,"lng":121.08964975,"address":null,"hasBabyChanging":false,"hasAccessible":false,"source":"OpenStreetMap","updatedAt":"2026-06-11T08:39:29.880Z","facilityType":"farm","facilityLabel":"🌾 休閒農場","phone":null,"website":null,"wheelchair":false,"paid":null,"needsAddr":true},{"id":267372936,"name":"阿蔚以勇露營區","lat":24.014481250000003,"lng":121.08965175,"address":null,"hasBabyChanging":false,"hasAccessible":false,"source":"OpenStreetMap","updatedAt":"2026-06-11T08:39:29.880Z","facilityType":"camp","facilityLabel":"⛺ 露營休閒","phone":null,"website":null,"wheelchair":false,"paid":null,"needsAddr":true},{"id":314375302,"name":"福壽山農場露營區","lat":24.21989475,"lng":121.23955615,"address":null,"hasBabyChanging":false,"hasAccessible":false,"source":"OpenStreetMap","updatedAt":"2026-06-11T08:39:29.880Z","facilityType":"camp","facilityLabel":"⛺ 露營休閒","phone":null,"website":null,"wheelchair":false,"paid":null,"needsAddr":true},{"id":331960654,"name":"露營區","lat":24.220730699999997,"lng":121.23995464999999,"address":null,"hasBabyChanging":false,"hasAccessible":false,"source":"OpenStreetMap","updatedAt":"2026-06-11T08:39:29.880Z","facilityType":"camp","facilityLabel":"⛺ 露營休閒","phone":null,"website":null,"wheelchair":false,"paid":null,"needsAddr":true},{"id":331960655,"name":"福壽山農場露營區","lat":24.2209814,"lng":121.23981425,"address":null,"hasBabyChanging":false,"hasAccessible":false,"source":"OpenStreetMap","updatedAt":"2026-06-11T08:39:29.880Z","facilityType":"camp","facilityLabel":"⛺ 露營休閒","phone":null,"website":null,"wheelchair":false,"paid":null,"needsAddr":true},{"id":428185604,"name":"小溪營地","lat":24.1868607,"lng":121.28700495000001,"address":null,"hasBabyChanging":false,"hasAccessible":false,"source":"OpenStreetMap","updatedAt":"2026-06-11T08:39:29.880Z","facilityType":"camp","facilityLabel":"⛺ 露營休閒","phone":null,"website":null,"wheelchair":false,"paid":null,"needsAddr":true},{"id":440876192,"name":"沙庫斯露營區","lat":24.01647285,"lng":121.18895545000001,"address":null,"hasBabyChanging":false,"hasAccessible":false,"source":"OpenStreetMap","updatedAt":"2026-06-11T08:39:29.880Z","facilityType":"camp","facilityLabel":"⛺ 露營休閒","phone":null,"website":null,"wheelchair":false,"paid":null,"needsAddr":true},{"id":450762747,"name":"清境農場小瑞士花園","lat":24.04559095,"lng":121.15661175,"address":"南投縣仁愛鄉仁和路28號","hasBabyChanging":false,"hasAccessible":true,"source":"OpenStreetMap","updatedAt":"2026-06-11T08:39:29.880Z","facilityType":"farm","facilityLabel":"🌾 休閒農場","phone":"+886 049-2803308","website":"https://www.cingjing.com.tw/trip/trip.asp?tno=35","wheelchair":true,"paid":null,"needsAddr":false},{"id":610964123,"name":"台興茶園露營區","lat":23.9230791,"lng":121.02668685,"address":null,"hasBabyChanging":false,"hasAccessible":false,"source":"OpenStreetMap","updatedAt":"2026-06-11T08:39:29.880Z","facilityType":"camp","facilityLabel":"⛺ 露營休閒","phone":null,"website":null,"wheelchair":false,"paid":null,"needsAddr":true},{"id":998616402,"name":"曲冰嫚遊露營區","lat":23.92857195,"lng":121.07094665,"address":null,"hasBabyChanging":false,"hasAccessible":false,"source":"OpenStreetMap","updatedAt":"2026-06-11T08:39:29.880Z","facilityType":"camp","facilityLabel":"⛺ 露營休閒","phone":null,"website":null,"wheelchair":false,"paid":null,"needsAddr":true}]}