{"city":"彰化縣","category":"family","updatedAt":"2026-06-11T15:30:47.254Z","rev":14,"count":286,"items":[{"id":3661265881,"name":"彰化縣立美術館","lat":24.0775097,"lng":120.5458437,"address":"500彰化縣彰化市卦山路3號","hasBabyChanging":false,"hasAccessible":true,"source":"OpenStreetMap","updatedAt":"2026-06-11T08:39:29.880Z","facilityType":"culture","facilityLabel":"🎨 文化","phone":"+886 4 7250057#1101","website":null,"wheelchair":true,"paid":null,"needsAddr":false},{"id":5905565268,"name":"中友眼鏡","lat":24.080554,"lng":120.5418336,"address":null,"hasBabyChanging":false,"hasAccessible":false,"source":"OpenStreetMap","updatedAt":"2026-06-11T08:39:29.880Z","facilityType":"mall","facilityLabel":"🛍 商場親子","phone":null,"website":null,"wheelchair":false,"paid":null,"needsAddr":true},{"id":5905584210,"name":"銀行山禾家牧場","lat":24.0518081,"lng":120.5869774,"address":null,"hasBabyChanging":false,"hasAccessible":false,"source":"OpenStreetMap","updatedAt":"2026-06-11T08:39:29.880Z","facilityType":"farm","facilityLabel":"🌾 休閒農場","phone":null,"website":null,"wheelchair":false,"paid":null,"needsAddr":true},{"id":9839002518,"name":"好時光玩手作","lat":24.0919842,"lng":120.541656,"address":"彰化縣彰化市辭修北路198巷43號","hasBabyChanging":false,"hasAccessible":false,"source":"OpenStreetMap","updatedAt":"2026-06-11T08:39:29.880Z","facilityType":"diy","facilityLabel":"🧶 手作DIY","phone":null,"website":null,"wheelchair":false,"paid":null,"needsAddr":false},{"id":232498205,"name":"成功公園","lat":24.0708961,"lng":120.54159345,"address":null,"hasBabyChanging":false,"hasAccessible":false,"source":"OpenStreetMap","updatedAt":"2026-06-11T08:39:29.880Z","facilityType":"park","facilityLabel":"🌳 小型公園","phone":null,"website":null,"wheelchair":false,"paid":null,"needsAddr":true},{"id":232498206,"name":"延平公園","lat":24.0656583,"lng":120.5410971,"address":null,"hasBabyChanging":false,"hasAccessible":false,"source":"OpenStreetMap","updatedAt":"2026-06-11T08:39:29.880Z","facilityType":"park","facilityLabel":"🌳 中型公園","phone":null,"website":null,"wheelchair":false,"paid":null,"needsAddr":true},{"id":293374427,"name":"中正公園","lat":24.0682165,"lng":120.5305159,"address":null,"hasBabyChanging":false,"hasAccessible":false,"source":"OpenStreetMap","updatedAt":"2026-06-11T08:39:29.880Z","facilityType":"park","facilityLabel":"🌳 中型公園","phone":null,"website":null,"wheelchair":false,"paid":null,"needsAddr":true},{"id":295687840,"name":"南興公園","lat":24.061808050000003,"lng":120.53855135,"address":null,"hasBabyChanging":false,"hasAccessible":false,"source":"OpenStreetMap","updatedAt":"2026-06-11T08:39:29.880Z","facilityType":"park","facilityLabel":"🌳 小型公園","phone":null,"website":null,"wheelchair":false,"paid":null,"needsAddr":true},{"id":310758714,"name":"陽明運動公園","lat":24.0876023,"lng":120.55056265,"address":null,"hasBabyChanging":false,"hasAccessible":false,"source":"OpenStreetMap","updatedAt":"2026-06-11T08:39:29.880Z","facilityType":"park","facilityLabel":"🌳 中型公園","phone":null,"website":null,"wheelchair":false,"paid":null,"needsAddr":true},{"id":310758761,"name":"陽明公園","lat":24.0860829,"lng":120.54948089999999,"address":null,"hasBabyChanging":false,"hasAccessible":false,"source":"OpenStreetMap","updatedAt":"2026-06-11T08:39:29.880Z","facilityType":"park","facilityLabel":"🌳 小型公園","phone":null,"website":null,"wheelchair":false,"paid":null,"needsAddr":true},{"id":311693212,"name":"華陽公園","lat":24.0691561,"lng":120.5559929,"address":null,"hasBabyChanging":false,"hasAccessible":false,"source":"OpenStreetMap","updatedAt":"2026-06-11T08:39:29.880Z","facilityType":"park","facilityLabel":"🌳 大型公園","phone":null,"website":null,"wheelchair":false,"paid":null,"needsAddr":true},{"id":314073079,"name":"彰化市兒童公園","lat":24.08724205,"lng":120.54920755,"address":null,"hasBabyChanging":false,"hasAccessible":false,"source":"OpenStreetMap","updatedAt":"2026-06-11T08:39:29.880Z","facilityType":"theme_park","facilityLabel":"🎡 遊樂園","phone":null,"website":null,"wheelchair":false,"paid":null,"needsAddr":true},{"id":366409571,"name":"自強南路435巷","lat":24.0806234,"lng":120.534179,"address":null,"hasBabyChanging":false,"hasAccessible":false,"source":"OpenStreetMap","updatedAt":"2026-06-11T08:39:29.880Z","facilityType":"culture","facilityLabel":"🎨 文化","phone":null,"website":null,"wheelchair":false,"paid":null,"needsAddr":true},{"id":383435912,"name":"南瑤公園","lat":24.0674275,"lng":120.53595725,"address":null,"hasBabyChanging":false,"hasAccessible":false,"source":"OpenStreetMap","updatedAt":"2026-06-11T08:39:29.880Z","facilityType":"park","facilityLabel":"🌳 小型公園","phone":null,"website":null,"wheelchair":false,"paid":null,"needsAddr":true},{"id":529613724,"name":"永福公園","lat":24.0788515,"lng":120.5430519,"address":null,"hasBabyChanging":false,"hasAccessible":false,"source":"OpenStreetMap","updatedAt":"2026-06-11T08:39:29.880Z","facilityType":"park","facilityLabel":"🌳 小型公園","phone":null,"website":null,"wheelchair":false,"paid":null,"needsAddr":true},{"id":529619624,"name":"桃源戶外登山露營旅遊","lat":24.07822135,"lng":120.53690270000001,"address":null,"hasBabyChanging":false,"hasAccessible":false,"source":"OpenStreetMap","updatedAt":"2026-06-11T08:39:29.880Z","facilityType":"camp","facilityLabel":"⛺ 露營休閒","phone":null,"website":null,"wheelchair":false,"paid":null,"needsAddr":true},{"id":556159667,"name":"金馬公園","lat":24.0929439,"lng":120.54661775,"address":null,"hasBabyChanging":false,"hasAccessible":false,"source":"OpenStreetMap","updatedAt":"2026-06-11T08:39:29.880Z","facilityType":"park","facilityLabel":"🌳 小型公園","phone":null,"website":null,"wheelchair":false,"paid":null,"needsAddr":true},{"id":556284007,"name":"泰和公園","lat":24.0944777,"lng":120.55220564999999,"address":null,"hasBabyChanging":false,"hasAccessible":false,"source":"OpenStreetMap","updatedAt":"2026-06-11T08:39:29.880Z","facilityType":"park","facilityLabel":"🌳 小型公園","phone":null,"website":null,"wheelchair":false,"paid":null,"needsAddr":true},{"id":558400631,"name":"彰化市景觀公園","lat":24.10054805,"lng":120.5548288,"address":null,"hasBabyChanging":false,"hasAccessible":false,"source":"OpenStreetMap","updatedAt":"2026-06-11T08:39:29.880Z","facilityType":"park","facilityLabel":"🌳 中型公園","phone":null,"website":null,"wheelchair":false,"paid":null,"needsAddr":true},{"id":604006801,"name":"延和公園","lat":24.059993,"lng":120.53932739999999,"address":null,"hasBabyChanging":false,"hasAccessible":false,"source":"OpenStreetMap","updatedAt":"2026-06-11T08:39:29.880Z","facilityType":"park","facilityLabel":"🌳 中型公園","phone":null,"website":null,"wheelchair":false,"paid":null,"needsAddr":true},{"id":720905165,"name":"忠權健康公園","lat":24.08482525,"lng":120.53573595,"address":null,"hasBabyChanging":false,"hasAccessible":false,"source":"OpenStreetMap","updatedAt":"2026-06-11T08:39:29.880Z","facilityType":"park","facilityLabel":"🌳 小型公園","phone":null,"website":null,"wheelchair":false,"paid":null,"needsAddr":true},{"id":825568885,"name":"向陽公園","lat":24.0651772,"lng":120.52677704999999,"address":null,"hasBabyChanging":false,"hasAccessible":false,"source":"OpenStreetMap","updatedAt":"2026-06-11T08:39:29.880Z","facilityType":"park","facilityLabel":"🌳 小型公園","phone":null,"website":null,"wheelchair":false,"paid":null,"needsAddr":true},{"id":986071147,"name":"草皮","lat":24.0719673,"lng":120.5508532,"address":null,"hasBabyChanging":false,"hasAccessible":false,"source":"OpenStreetMap","updatedAt":"2026-06-11T08:39:29.880Z","facilityType":"park","facilityLabel":"🌳 小型公園","phone":null,"website":null,"wheelchair":false,"paid":null,"needsAddr":true},{"id":1020358002,"name":"華興公園","lat":24.0911782,"lng":120.53765215,"address":null,"hasBabyChanging":false,"hasAccessible":false,"source":"OpenStreetMap","updatedAt":"2026-06-11T08:39:29.880Z","facilityType":"park","facilityLabel":"🌳 小型公園","phone":null,"website":null,"wheelchair":false,"paid":null,"needsAddr":true},{"id":1023941056,"name":"東芳公園","lat":24.065648699999997,"lng":120.51619905,"address":"500彰化縣彰化市永芳路269-1號","hasBabyChanging":false,"hasAccessible":false,"source":"OpenStreetMap","updatedAt":"2026-06-11T08:39:29.880Z","facilityType":"park","facilityLabel":"🌳 小型公園","phone":null,"website":null,"wheelchair":false,"paid":null,"needsAddr":false},{"id":1023962898,"name":"永芳公園","lat":24.066129250000003,"lng":120.51236075,"address":"500彰化縣彰化市永芳路417號","hasBabyChanging":false,"hasAccessible":false,"source":"OpenStreetMap","updatedAt":"2026-06-11T08:39:29.880Z","facilityType":"park","facilityLabel":"🌳 小型公園","phone":null,"website":null,"wheelchair":false,"paid":null,"needsAddr":false},{"id":1023975213,"name":"彰化縣洋子厝溪水質淨化生態園區","lat":24.070708,"lng":120.504423,"address":"500彰化縣彰化市環河街310號","hasBabyChanging":false,"hasAccessible":false,"source":"OpenStreetMap","updatedAt":"2026-06-11T08:39:29.880Z","facilityType":"park","facilityLabel":"🌳 小型公園","phone":null,"website":null,"wheelchair":false,"paid":null,"needsAddr":false},{"id":1055051533,"name":"中友百貨彰化館預定地","lat":24.070827350000002,"lng":120.5406555,"address":null,"hasBabyChanging":false,"hasAccessible":false,"source":"OpenStreetMap","updatedAt":"2026-06-11T08:39:29.880Z","facilityType":"mall","facilityLabel":"🛍 商場親子","phone":null,"website":null,"wheelchair":false,"paid":null,"needsAddr":true},{"id":1115161166,"name":"增光文化園","lat":24.07593895,"lng":120.60428694999999,"address":null,"hasBabyChanging":false,"hasAccessible":false,"source":"OpenStreetMap","updatedAt":"2026-06-11T08:39:29.880Z","facilityType":"park","facilityLabel":"🌳 大型公園","phone":null,"website":null,"wheelchair":false,"paid":null,"needsAddr":true},{"id":1117297252,"name":"香山步道東方公園","lat":24.0630664,"lng":120.5939678,"address":null,"hasBabyChanging":false,"hasAccessible":false,"source":"OpenStreetMap","updatedAt":"2026-06-11T08:39:29.880Z","facilityType":"park","facilityLabel":"🌳 中型公園","phone":null,"website":null,"wheelchair":false,"paid":null,"needsAddr":true},{"id":1131992399,"name":"崙平環保公園","lat":24.0697013,"lng":120.53115679999999,"address":null,"hasBabyChanging":false,"hasAccessible":false,"source":"OpenStreetMap","updatedAt":"2026-06-11T08:39:29.880Z","facilityType":"park","facilityLabel":"🌳 小型公園","phone":null,"website":null,"wheelchair":false,"paid":null,"needsAddr":true},{"id":1210664126,"name":"介壽休閒公園","lat":24.0693652,"lng":120.5527906,"address":null,"hasBabyChanging":false,"hasAccessible":false,"source":"OpenStreetMap","updatedAt":"2026-06-11T08:39:29.880Z","facilityType":"park","facilityLabel":"🌳 小型公園","phone":null,"website":null,"wheelchair":false,"paid":null,"needsAddr":true},{"id":1218153716,"name":"茄苳公園","lat":24.102757750000002,"lng":120.54535580000001,"address":null,"hasBabyChanging":false,"hasAccessible":false,"source":"OpenStreetMap","updatedAt":"2026-06-11T08:39:29.880Z","facilityType":"park","facilityLabel":"🌳 小型公園","phone":null,"website":null,"wheelchair":false,"paid":null,"needsAddr":true},{"id":1227967588,"name":"福山公園","lat":24.07510885,"lng":120.5744847,"address":null,"hasBabyChanging":false,"hasAccessible":false,"source":"OpenStreetMap","updatedAt":"2026-06-11T08:39:29.880Z","facilityType":"park","facilityLabel":"🌳 小型公園","phone":null,"website":null,"wheelchair":false,"paid":null,"needsAddr":true},{"id":1328723392,"name":"八卦山自然生態園區","lat":24.077998100000002,"lng":120.55043275,"address":null,"hasBabyChanging":false,"hasAccessible":false,"source":"OpenStreetMap","updatedAt":"2026-06-11T08:39:29.880Z","facilityType":"park","facilityLabel":"🌳 中型公園","phone":null,"website":null,"wheelchair":false,"paid":null,"needsAddr":true},{"id":1328723406,"name":"民族新村親子公園","lat":24.0810452,"lng":120.55114415,"address":null,"hasBabyChanging":false,"hasAccessible":false,"source":"OpenStreetMap","updatedAt":"2026-06-11T08:39:29.880Z","facilityType":"theme_park","facilityLabel":"🎡 遊樂園","phone":null,"website":null,"wheelchair":false,"paid":null,"needsAddr":true},{"id":1328723414,"name":"C-119軍機公園","lat":24.078671399999998,"lng":120.55907590000001,"address":null,"hasBabyChanging":false,"hasAccessible":false,"source":"OpenStreetMap","updatedAt":"2026-06-11T08:39:29.880Z","facilityType":"park","facilityLabel":"🌳 小型公園","phone":null,"website":null,"wheelchair":false,"paid":null,"needsAddr":true},{"id":1328723421,"name":"乙未保台和平紀念公園","lat":24.07991785,"lng":120.55242125,"address":null,"hasBabyChanging":false,"hasAccessible":false,"source":"OpenStreetMap","updatedAt":"2026-06-11T08:39:29.880Z","facilityType":"park","facilityLabel":"🌳 小型公園","phone":null,"website":null,"wheelchair":false,"paid":null,"needsAddr":true},{"id":1355183194,"name":"日月山景休閒農場","lat":24.056036,"lng":120.586887,"address":null,"hasBabyChanging":false,"hasAccessible":false,"source":"OpenStreetMap","updatedAt":"2026-06-11T08:39:29.880Z","facilityType":"farm","facilityLabel":"🌾 休閒農場","phone":null,"website":null,"wheelchair":false,"paid":null,"needsAddr":true},{"id":1418035266,"name":"崙平公園","lat":24.0667952,"lng":120.53218559999999,"address":null,"hasBabyChanging":false,"hasAccessible":false,"source":"OpenStreetMap","updatedAt":"2026-06-11T08:39:29.880Z","facilityType":"park","facilityLabel":"🌳 中型公園","phone":null,"website":null,"wheelchair":false,"paid":null,"needsAddr":true},{"id":1508312245,"name":"八卦山親子探索區","lat":24.07769275,"lng":120.5502363,"address":null,"hasBabyChanging":false,"hasAccessible":false,"source":"OpenStreetMap","updatedAt":"2026-06-11T08:39:29.880Z","facilityType":"theme_park","facilityLabel":"🎡 遊樂園","phone":null,"website":null,"wheelchair":false,"paid":false,"needsAddr":true},{"id":1509807187,"name":"FUN電樂園","lat":24.08894255,"lng":120.56809125000001,"address":"彰化縣彰化市聖安路86號","hasBabyChanging":false,"hasAccessible":false,"source":"OpenStreetMap","updatedAt":"2026-06-11T08:39:29.880Z","facilityType":"theme_park","facilityLabel":"🎡 遊樂園","phone":null,"website":null,"wheelchair":false,"paid":null,"needsAddr":false},{"id":6741896496,"name":"悠境手作輕飲","lat":24.0583929,"lng":120.4316879,"address":null,"hasBabyChanging":false,"hasAccessible":false,"source":"OpenStreetMap","updatedAt":"2026-06-11T08:39:29.880Z","facilityType":"diy","facilityLabel":"🧶 手作DIY","phone":null,"website":null,"wheelchair":false,"paid":null,"needsAddr":true},{"id":6939423115,"name":"不可思議搜奇博物館","lat":24.059041,"lng":120.4312915,"address":null,"hasBabyChanging":false,"hasAccessible":false,"source":"OpenStreetMap","updatedAt":"2026-06-11T08:39:29.880Z","facilityType":"science","facilityLabel":"🔬 科學館","phone":null,"website":null,"wheelchair":false,"paid":null,"needsAddr":true},{"id":9742979959,"name":"AM ART SHOP","lat":24.053063,"lng":120.4362425,"address":null,"hasBabyChanging":false,"hasAccessible":false,"source":"OpenStreetMap","updatedAt":"2026-06-11T08:39:29.880Z","facilityType":"diy","facilityLabel":"🧶 手作DIY","phone":null,"website":null,"wheelchair":false,"paid":null,"needsAddr":true},{"id":9742979966,"name":"ONE+","lat":24.0531719,"lng":120.4364362,"address":null,"hasBabyChanging":false,"hasAccessible":false,"source":"OpenStreetMap","updatedAt":"2026-06-11T08:39:29.880Z","facilityType":"diy","facilityLabel":"🧶 手作DIY","phone":null,"website":null,"wheelchair":false,"paid":null,"needsAddr":true},{"id":221140675,"name":"桂花巷藝術村","lat":24.056005900000002,"lng":120.4316271,"address":null,"hasBabyChanging":false,"hasAccessible":false,"source":"OpenStreetMap","updatedAt":"2026-06-11T08:39:29.880Z","facilityType":"culture","facilityLabel":"🎨 文化","phone":null,"website":null,"wheelchair":false,"paid":null,"needsAddr":true},{"id":221140857,"name":"鹿港鎮立兒童公園","lat":24.0590422,"lng":120.43546695,"address":null,"hasBabyChanging":false,"hasAccessible":false,"source":"OpenStreetMap","updatedAt":"2026-06-11T08:39:29.880Z","facilityType":"park","facilityLabel":"🌳 小型公園","phone":null,"website":null,"wheelchair":false,"paid":null,"needsAddr":true},{"id":309079144,"name":"緞帶王觀光工廠","lat":24.075768150000002,"lng":120.39493949999999,"address":null,"hasBabyChanging":false,"hasAccessible":false,"source":"OpenStreetMap","updatedAt":"2026-06-11T08:39:29.880Z","facilityType":"factory","facilityLabel":"🏭 觀光工廠","phone":null,"website":null,"wheelchair":false,"paid":null,"needsAddr":true},{"id":310011342,"name":"頂厝公園","lat":24.0551146,"lng":120.4436173,"address":null,"hasBabyChanging":false,"hasAccessible":false,"source":"OpenStreetMap","updatedAt":"2026-06-11T08:39:29.880Z","facilityType":"park","facilityLabel":"🌳 中型公園","phone":null,"website":null,"wheelchair":false,"paid":null,"needsAddr":true},{"id":322995342,"name":"楊橋公園","lat":24.04679945,"lng":120.4379065,"address":null,"hasBabyChanging":false,"hasAccessible":false,"source":"OpenStreetMap","updatedAt":"2026-06-11T08:39:29.880Z","facilityType":"park","facilityLabel":"🌳 小型公園","phone":null,"website":null,"wheelchair":false,"paid":null,"needsAddr":true},{"id":396202320,"name":"白蘭氏健康博物館","lat":24.0779134,"lng":120.4006861,"address":"505彰化縣鹿港鎮鹿工路18號","hasBabyChanging":false,"hasAccessible":false,"source":"OpenStreetMap","updatedAt":"2026-06-11T08:39:29.880Z","facilityType":"science","facilityLabel":"🔬 科學館","phone":"+886 4 7810077","website":"http://www.brandsworld.com.tw/","wheelchair":false,"paid":null,"needsAddr":false},{"id":438852298,"name":"鹿港生態公園","lat":24.063836950000002,"lng":120.43688985,"address":null,"hasBabyChanging":false,"hasAccessible":false,"source":"OpenStreetMap","updatedAt":"2026-06-11T08:39:29.880Z","facilityType":"park","facilityLabel":"🌳 中型公園","phone":null,"website":null,"wheelchair":false,"paid":null,"needsAddr":true},{"id":545019113,"name":"新厝小公園","lat":24.0910577,"lng":120.4477057,"address":null,"hasBabyChanging":false,"hasAccessible":false,"source":"OpenStreetMap","updatedAt":"2026-06-11T08:39:29.880Z","facilityType":"park","facilityLabel":"🌳 小型公園","phone":null,"website":null,"wheelchair":false,"paid":null,"needsAddr":true},{"id":871352796,"name":"鹿港溪風華再現工程","lat":24.0516701,"lng":120.43251380000001,"address":null,"hasBabyChanging":false,"hasAccessible":false,"source":"OpenStreetMap","updatedAt":"2026-06-11T08:39:29.880Z","facilityType":"park","facilityLabel":"🌳 中型公園","phone":null,"website":null,"wheelchair":false,"paid":null,"needsAddr":true},{"id":1158746344,"name":"鹿港小鹿兒童公園","lat":24.05617375,"lng":120.43022260000001,"address":null,"hasBabyChanging":false,"hasAccessible":false,"source":"OpenStreetMap","updatedAt":"2026-06-11T08:39:29.880Z","facilityType":"park","facilityLabel":"🌳 小型公園","phone":null,"website":null,"wheelchair":false,"paid":null,"needsAddr":true},{"id":360840921,"name":"和中廣場","lat":24.1129663,"lng":120.4970032,"address":null,"hasBabyChanging":false,"hasAccessible":false,"source":"OpenStreetMap","updatedAt":"2026-06-11T08:39:29.880Z","facilityType":"park","facilityLabel":"🌳 小型公園","phone":null,"website":null,"wheelchair":false,"paid":null,"needsAddr":true},{"id":545947585,"name":"德美公園","lat":24.1151935,"lng":120.49943354999999,"address":null,"hasBabyChanging":false,"hasAccessible":false,"source":"OpenStreetMap","updatedAt":"2026-06-11T08:39:29.880Z","facilityType":"park","facilityLabel":"🌳 中型公園","phone":null,"website":null,"wheelchair":false,"paid":null,"needsAddr":true},{"id":557525787,"name":"和美獅","lat":24.1061999,"lng":120.50379225,"address":null,"hasBabyChanging":false,"hasAccessible":false,"source":"OpenStreetMap","updatedAt":"2026-06-11T08:39:29.880Z","facilityType":"park","facilityLabel":"🌳 小型公園","phone":null,"website":null,"wheelchair":false,"paid":null,"needsAddr":true},{"id":557526009,"name":"公兒十七公園","lat":24.11095745,"lng":120.50052445,"address":null,"hasBabyChanging":false,"hasAccessible":false,"source":"OpenStreetMap","updatedAt":"2026-06-11T08:39:29.880Z","facilityType":"park","facilityLabel":"🌳 小型公園","phone":null,"website":null,"wheelchair":false,"paid":null,"needsAddr":true},{"id":668373193,"name":"頭前公園","lat":24.12716155,"lng":120.51040520000001,"address":null,"hasBabyChanging":false,"hasAccessible":false,"source":"OpenStreetMap","updatedAt":"2026-06-11T08:39:29.880Z","facilityType":"park","facilityLabel":"🌳 小型公園","phone":null,"website":null,"wheelchair":false,"paid":null,"needsAddr":true},{"id":717474997,"name":"仁和廣場","lat":24.1069764,"lng":120.4960418,"address":null,"hasBabyChanging":false,"hasAccessible":false,"source":"OpenStreetMap","updatedAt":"2026-06-11T08:39:29.880Z","facilityType":"park","facilityLabel":"🌳 小型公園","phone":null,"website":null,"wheelchair":false,"paid":null,"needsAddr":true},{"id":717474998,"name":"公兒七公園","lat":24.10538965,"lng":120.49502855,"address":null,"hasBabyChanging":false,"hasAccessible":false,"source":"OpenStreetMap","updatedAt":"2026-06-11T08:39:29.880Z","facilityType":"park","facilityLabel":"🌳 小型公園","phone":null,"website":null,"wheelchair":false,"paid":null,"needsAddr":true},{"id":717474999,"name":"公兒九公園","lat":24.102924,"lng":120.49633775,"address":null,"hasBabyChanging":false,"hasAccessible":false,"source":"OpenStreetMap","updatedAt":"2026-06-11T08:39:29.880Z","facilityType":"park","facilityLabel":"🌳 小型公園","phone":null,"website":null,"wheelchair":false,"paid":null,"needsAddr":true},{"id":717475021,"name":"和美運動公園","lat":24.115721999999998,"lng":120.50273440000001,"address":null,"hasBabyChanging":false,"hasAccessible":false,"source":"OpenStreetMap","updatedAt":"2026-06-11T08:39:29.880Z","facilityType":"park","facilityLabel":"🌳 中型公園","phone":null,"website":null,"wheelchair":false,"paid":null,"needsAddr":true},{"id":762252992,"name":"健康新村公園","lat":24.109693800000002,"lng":120.53033070000001,"address":null,"hasBabyChanging":false,"hasAccessible":false,"source":"OpenStreetMap","updatedAt":"2026-06-11T08:39:29.880Z","facilityType":"park","facilityLabel":"🌳 小型公園","phone":null,"website":null,"wheelchair":false,"paid":null,"needsAddr":true},{"id":983215908,"name":"忠誠公園","lat":24.1119834,"lng":120.50439259999999,"address":null,"hasBabyChanging":false,"hasAccessible":false,"source":"OpenStreetMap","updatedAt":"2026-06-11T08:39:29.880Z","facilityType":"park","facilityLabel":"🌳 小型公園","phone":null,"website":null,"wheelchair":false,"paid":null,"needsAddr":true},{"id":493509149,"name":"思恩公園","lat":23.87948875,"lng":120.5248685,"address":null,"hasBabyChanging":false,"hasAccessible":false,"source":"OpenStreetMap","updatedAt":"2026-06-11T08:39:29.880Z","facilityType":"park","facilityLabel":"🌳 中型公園","phone":null,"website":null,"wheelchair":false,"paid":null,"needsAddr":true},{"id":557687057,"name":"北斗河濱公園","lat":23.8679745,"lng":120.52263585,"address":null,"hasBabyChanging":false,"hasAccessible":false,"source":"OpenStreetMap","updatedAt":"2026-06-11T08:39:29.880Z","facilityType":"park","facilityLabel":"🌳 小型公園","phone":null,"website":null,"wheelchair":false,"paid":null,"needsAddr":true},{"id":557837022,"name":"扶輪公園","lat":23.86801355,"lng":120.51968020000001,"address":null,"hasBabyChanging":false,"hasAccessible":false,"source":"OpenStreetMap","updatedAt":"2026-06-11T08:39:29.880Z","facilityType":"park","facilityLabel":"🌳 小型公園","phone":null,"website":null,"wheelchair":false,"paid":null,"needsAddr":true},{"id":559475720,"name":"居仁兒童公園","lat":23.8748755,"lng":120.52599855,"address":null,"hasBabyChanging":false,"hasAccessible":false,"source":"OpenStreetMap","updatedAt":"2026-06-11T08:39:29.880Z","facilityType":"park","facilityLabel":"🌳 小型公園","phone":null,"website":null,"wheelchair":false,"paid":null,"needsAddr":true},{"id":734429601,"name":"北斗環保公園","lat":23.871107799999997,"lng":120.54787985,"address":"521彰化縣北斗鎮斗中路155號","hasBabyChanging":false,"hasAccessible":false,"source":"OpenStreetMap","updatedAt":"2026-06-11T08:39:29.880Z","facilityType":"park","facilityLabel":"🌳 小型公園","phone":null,"website":null,"wheelchair":false,"paid":null,"needsAddr":false},{"id":769173765,"name":"北斗心動廣場","lat":23.8691254,"lng":120.51633475,"address":null,"hasBabyChanging":false,"hasAccessible":false,"source":"OpenStreetMap","updatedAt":"2026-06-11T08:39:29.880Z","facilityType":"park","facilityLabel":"🌳 小型公園","phone":null,"website":null,"wheelchair":false,"paid":null,"needsAddr":true},{"id":932032168,"name":"玄璣公園","lat":23.878005700000003,"lng":120.5230592,"address":null,"hasBabyChanging":false,"hasAccessible":false,"source":"OpenStreetMap","updatedAt":"2026-06-11T08:39:29.880Z","facilityType":"park","facilityLabel":"🌳 小型公園","phone":null,"website":null,"wheelchair":false,"paid":null,"needsAddr":true},{"id":1228401056,"name":"北斗兒童館","lat":23.877293299999998,"lng":120.52299675,"address":null,"hasBabyChanging":false,"hasAccessible":false,"source":"OpenStreetMap","updatedAt":"2026-06-11T08:39:29.880Z","facilityType":"kids","facilityLabel":"🧸 親子館","phone":null,"website":null,"wheelchair":false,"paid":null,"needsAddr":true},{"id":1228401067,"name":"科學館","lat":23.87662115,"lng":120.52067115,"address":null,"hasBabyChanging":false,"hasAccessible":false,"source":"OpenStreetMap","updatedAt":"2026-06-11T08:39:29.880Z","facilityType":"science","facilityLabel":"🔬 科學館","phone":null,"website":null,"wheelchair":false,"paid":null,"needsAddr":true},{"id":286016034,"name":"百果山","lat":23.9490066,"lng":120.60684119999999,"address":null,"hasBabyChanging":false,"hasAccessible":false,"source":"OpenStreetMap","updatedAt":"2026-06-11T08:39:29.880Z","facilityType":"park","facilityLabel":"🌳 中型公園","phone":null,"website":null,"wheelchair":false,"paid":null,"needsAddr":true},{"id":313792479,"name":"三多公園","lat":23.9710971,"lng":120.57262890000001,"address":null,"hasBabyChanging":false,"hasAccessible":false,"source":"OpenStreetMap","updatedAt":"2026-06-11T08:39:29.880Z","facilityType":"park","facilityLabel":"🌳 小型公園","phone":null,"website":null,"wheelchair":false,"paid":null,"needsAddr":true},{"id":380071972,"name":"湶州公園","lat":23.942229599999997,"lng":120.6085291,"address":null,"hasBabyChanging":false,"hasAccessible":false,"source":"OpenStreetMap","updatedAt":"2026-06-11T08:39:29.880Z","facilityType":"park","facilityLabel":"🌳 小型公園","phone":null,"website":null,"wheelchair":false,"paid":null,"needsAddr":true},{"id":385554987,"name":"員林公園","lat":23.958113599999997,"lng":120.5746431,"address":null,"hasBabyChanging":false,"hasAccessible":false,"source":"OpenStreetMap","updatedAt":"2026-06-11T08:39:29.880Z","facilityType":"park","facilityLabel":"🌳 中型公園","phone":null,"website":null,"wheelchair":false,"paid":null,"needsAddr":true},{"id":387158798,"name":"中央路435巷71弄","lat":23.939745600000002,"lng":120.56513330000001,"address":null,"hasBabyChanging":false,"hasAccessible":false,"source":"OpenStreetMap","updatedAt":"2026-06-11T08:39:29.880Z","facilityType":"culture","facilityLabel":"🎨 文化","phone":null,"website":null,"wheelchair":false,"paid":null,"needsAddr":true},{"id":409313511,"name":"員林運動公園","lat":23.940438,"lng":120.6196379,"address":null,"hasBabyChanging":false,"hasAccessible":false,"source":"OpenStreetMap","updatedAt":"2026-06-11T08:39:29.880Z","facilityType":"park","facilityLabel":"🌳 中型公園","phone":null,"website":null,"wheelchair":false,"paid":null,"needsAddr":true},{"id":438883725,"name":"三多公園","lat":23.9698974,"lng":120.57098604999999,"address":null,"hasBabyChanging":false,"hasAccessible":false,"source":"OpenStreetMap","updatedAt":"2026-06-11T08:39:29.880Z","facilityType":"park","facilityLabel":"🌳 小型公園","phone":null,"website":null,"wheelchair":false,"paid":null,"needsAddr":true},{"id":438883726,"name":"三樺公園","lat":23.96822865,"lng":120.57622035,"address":null,"hasBabyChanging":false,"hasAccessible":false,"source":"OpenStreetMap","updatedAt":"2026-06-11T08:39:29.880Z","facilityType":"park","facilityLabel":"🌳 小型公園","phone":null,"website":null,"wheelchair":false,"paid":null,"needsAddr":true},{"id":438884139,"name":"三角公園","lat":23.9627226,"lng":120.57114179999999,"address":null,"hasBabyChanging":false,"hasAccessible":false,"source":"OpenStreetMap","updatedAt":"2026-06-11T08:39:29.880Z","facilityType":"park","facilityLabel":"🌳 小型公園","phone":null,"website":null,"wheelchair":false,"paid":null,"needsAddr":true},{"id":555907390,"name":"員林龍燈公園","lat":23.9707606,"lng":120.56909895000001,"address":null,"hasBabyChanging":false,"hasAccessible":false,"source":"OpenStreetMap","updatedAt":"2026-06-11T08:39:29.880Z","facilityType":"park","facilityLabel":"🌳 中型公園","phone":null,"website":null,"wheelchair":false,"paid":null,"needsAddr":true},{"id":555911356,"name":"三和公園","lat":23.96219665,"lng":120.57805830000001,"address":null,"hasBabyChanging":false,"hasAccessible":false,"source":"OpenStreetMap","updatedAt":"2026-06-11T08:39:29.880Z","facilityType":"park","facilityLabel":"🌳 小型公園","phone":null,"website":null,"wheelchair":false,"paid":null,"needsAddr":true},{"id":555911779,"name":"至善公園","lat":23.9594475,"lng":120.56522165000001,"address":null,"hasBabyChanging":false,"hasAccessible":false,"source":"OpenStreetMap","updatedAt":"2026-06-11T08:39:29.880Z","facilityType":"park","facilityLabel":"🌳 小型公園","phone":null,"website":null,"wheelchair":false,"paid":null,"needsAddr":true},{"id":583602858,"name":"圓林園","lat":23.97164595,"lng":120.5773567,"address":null,"hasBabyChanging":false,"hasAccessible":false,"source":"OpenStreetMap","updatedAt":"2026-06-11T08:39:29.880Z","facilityType":"park","facilityLabel":"🌳 中型公園","phone":null,"website":null,"wheelchair":false,"paid":null,"needsAddr":true},{"id":583611843,"name":"早安公園","lat":23.9573766,"lng":120.5807979,"address":null,"hasBabyChanging":false,"hasAccessible":false,"source":"OpenStreetMap","updatedAt":"2026-06-11T08:39:29.880Z","facilityType":"park","facilityLabel":"🌳 小型公園","phone":null,"website":null,"wheelchair":false,"paid":null,"needsAddr":true},{"id":583730907,"name":"員林入口地標","lat":23.972019600000003,"lng":120.57094435,"address":null,"hasBabyChanging":false,"hasAccessible":false,"source":"OpenStreetMap","updatedAt":"2026-06-11T08:39:29.880Z","facilityType":"park","facilityLabel":"🌳 小型公園","phone":null,"website":null,"wheelchair":false,"paid":null,"needsAddr":true},{"id":584209434,"name":"兔馬鹿公園","lat":23.9633436,"lng":120.56124374999999,"address":null,"hasBabyChanging":false,"hasAccessible":false,"source":"OpenStreetMap","updatedAt":"2026-06-11T08:39:29.880Z","facilityType":"park","facilityLabel":"🌳 小型公園","phone":null,"website":null,"wheelchair":false,"paid":null,"needsAddr":true},{"id":726179602,"name":"南區公園","lat":23.9384899,"lng":120.5794355,"address":null,"hasBabyChanging":false,"hasAccessible":false,"source":"OpenStreetMap","updatedAt":"2026-06-11T08:39:29.880Z","facilityType":"park","facilityLabel":"🌳 中型公園","phone":null,"website":null,"wheelchair":false,"paid":null,"needsAddr":true},{"id":737862548,"name":"三義里公園","lat":23.95413375,"lng":120.564276,"address":"員林市","hasBabyChanging":false,"hasAccessible":false,"source":"OpenStreetMap","updatedAt":"2026-06-11T08:39:29.880Z","facilityType":"park","facilityLabel":"🌳 中型公園","phone":null,"website":null,"wheelchair":false,"paid":null,"needsAddr":false},{"id":737862549,"name":"公三公園","lat":23.96425455,"lng":120.56544935,"address":"員林市","hasBabyChanging":false,"hasAccessible":false,"source":"OpenStreetMap","updatedAt":"2026-06-11T08:39:29.880Z","facilityType":"park","facilityLabel":"🌳 小型公園","phone":null,"website":null,"wheelchair":false,"paid":null,"needsAddr":false},{"id":931670727,"name":"雕刻員林公園","lat":23.949023750000002,"lng":120.56887975000001,"address":null,"hasBabyChanging":false,"hasAccessible":false,"source":"OpenStreetMap","updatedAt":"2026-06-11T08:39:29.880Z","facilityType":"park","facilityLabel":"🌳 中型公園","phone":null,"website":null,"wheelchair":false,"paid":null,"needsAddr":true},{"id":988890728,"name":"公六公園","lat":23.9526321,"lng":120.5719875,"address":null,"hasBabyChanging":false,"hasAccessible":false,"source":"OpenStreetMap","updatedAt":"2026-06-11T08:39:29.880Z","facilityType":"park","facilityLabel":"🌳 小型公園","phone":null,"website":null,"wheelchair":false,"paid":null,"needsAddr":true},{"id":988890733,"name":"公二十公園","lat":23.9655391,"lng":120.5847323,"address":null,"hasBabyChanging":false,"hasAccessible":false,"source":"OpenStreetMap","updatedAt":"2026-06-11T08:39:29.880Z","facilityType":"park","facilityLabel":"🌳 小型公園","phone":null,"website":null,"wheelchair":false,"paid":null,"needsAddr":true},{"id":1072220232,"name":"員林寵物公園","lat":23.9408388,"lng":120.61657579999999,"address":null,"hasBabyChanging":false,"hasAccessible":false,"source":"OpenStreetMap","updatedAt":"2026-06-11T08:39:29.880Z","facilityType":"park","facilityLabel":"🌳 小型公園","phone":null,"website":null,"wheelchair":false,"paid":null,"needsAddr":true},{"id":1285862216,"name":"惠來公園","lat":23.9714837,"lng":120.5740126,"address":null,"hasBabyChanging":false,"hasAccessible":false,"source":"OpenStreetMap","updatedAt":"2026-06-11T08:39:29.880Z","facilityType":"park","facilityLabel":"🌳 小型公園","phone":null,"website":null,"wheelchair":false,"paid":null,"needsAddr":true},{"id":1310806727,"name":"員林自行車主題園","lat":23.9603616,"lng":120.60579200000001,"address":null,"hasBabyChanging":false,"hasAccessible":false,"source":"OpenStreetMap","updatedAt":"2026-06-11T08:39:29.880Z","facilityType":"park","facilityLabel":"🌳 大型公園","phone":null,"website":null,"wheelchair":false,"paid":null,"needsAddr":true},{"id":1372808051,"name":"科學館","lat":23.961285150000002,"lng":120.5630339,"address":null,"hasBabyChanging":false,"hasAccessible":false,"source":"OpenStreetMap","updatedAt":"2026-06-11T08:39:29.880Z","facilityType":"science","facilityLabel":"🔬 科學館","phone":null,"website":null,"wheelchair":false,"paid":null,"needsAddr":true},{"id":8256269,"name":"員林西區運動公園","lat":23.9711609,"lng":120.55304204999999,"address":null,"hasBabyChanging":false,"hasAccessible":false,"source":"OpenStreetMap","updatedAt":"2026-06-11T08:39:29.880Z","facilityType":"park","facilityLabel":"🌳 中型公園","phone":null,"website":null,"wheelchair":false,"paid":null,"needsAddr":true},{"id":469412790,"name":"溪湖軍機公園","lat":23.962423700000002,"lng":120.47355694999999,"address":null,"hasBabyChanging":false,"hasAccessible":false,"source":"OpenStreetMap","updatedAt":"2026-06-11T08:39:29.880Z","facilityType":"park","facilityLabel":"🌳 小型公園","phone":null,"website":null,"wheelchair":false,"paid":null,"needsAddr":true},{"id":469412791,"name":"溪湖運動公園","lat":23.96234305,"lng":120.47546700000001,"address":null,"hasBabyChanging":false,"hasAccessible":false,"source":"OpenStreetMap","updatedAt":"2026-06-11T08:39:29.880Z","facilityType":"park","facilityLabel":"🌳 小型公園","phone":null,"website":null,"wheelchair":false,"paid":null,"needsAddr":true},{"id":557841994,"name":"糖廠親子公園","lat":23.949403699999998,"lng":120.48196655000001,"address":null,"hasBabyChanging":false,"hasAccessible":false,"source":"OpenStreetMap","updatedAt":"2026-06-11T08:39:29.880Z","facilityType":"park","facilityLabel":"🌳 中型公園","phone":null,"website":null,"wheelchair":false,"paid":null,"needsAddr":true},{"id":557889953,"name":"風箏公園","lat":23.95144845,"lng":120.47512395,"address":null,"hasBabyChanging":false,"hasAccessible":false,"source":"OpenStreetMap","updatedAt":"2026-06-11T08:39:29.880Z","facilityType":"park","facilityLabel":"🌳 小型公園","phone":null,"website":null,"wheelchair":false,"paid":null,"needsAddr":true},{"id":557897885,"name":"華中公園","lat":23.957620300000002,"lng":120.47569279999999,"address":null,"hasBabyChanging":false,"hasAccessible":false,"source":"OpenStreetMap","updatedAt":"2026-06-11T08:39:29.880Z","facilityType":"park","facilityLabel":"🌳 小型公園","phone":null,"website":null,"wheelchair":false,"paid":null,"needsAddr":true},{"id":558190343,"name":"小天使公園","lat":23.964330949999997,"lng":120.48538264999999,"address":null,"hasBabyChanging":false,"hasAccessible":false,"source":"OpenStreetMap","updatedAt":"2026-06-11T08:39:29.880Z","facilityType":"park","facilityLabel":"🌳 小型公園","phone":null,"website":null,"wheelchair":false,"paid":null,"needsAddr":true},{"id":917938616,"name":"溪湖中央公園","lat":23.94937405,"lng":120.47762255,"address":null,"hasBabyChanging":false,"hasAccessible":false,"source":"OpenStreetMap","updatedAt":"2026-06-11T08:39:29.880Z","facilityType":"park","facilityLabel":"🌳 中型公園","phone":null,"website":null,"wheelchair":false,"paid":null,"needsAddr":true},{"id":971408870,"name":"富貴公園","lat":23.9658849,"lng":120.47558025000001,"address":null,"hasBabyChanging":false,"hasAccessible":false,"source":"OpenStreetMap","updatedAt":"2026-06-11T08:39:29.880Z","facilityType":"park","facilityLabel":"🌳 小型公園","phone":null,"website":null,"wheelchair":false,"paid":null,"needsAddr":true},{"id":1037962999,"name":"三塊厝公園","lat":23.966273899999997,"lng":120.49784955,"address":null,"hasBabyChanging":false,"hasAccessible":false,"source":"OpenStreetMap","updatedAt":"2026-06-11T08:39:29.880Z","facilityType":"park","facilityLabel":"🌳 小型公園","phone":null,"website":null,"wheelchair":false,"paid":null,"needsAddr":true},{"id":1045104125,"name":"田寮運動公園","lat":23.95566265,"lng":120.4988395,"address":null,"hasBabyChanging":false,"hasAccessible":false,"source":"OpenStreetMap","updatedAt":"2026-06-11T08:39:29.880Z","facilityType":"park","facilityLabel":"🌳 小型公園","phone":null,"website":null,"wheelchair":false,"paid":null,"needsAddr":true},{"id":1078131248,"name":"蒸汽火車展示館","lat":23.952441399999998,"lng":120.48162235000001,"address":null,"hasBabyChanging":false,"hasAccessible":false,"source":"OpenStreetMap","updatedAt":"2026-06-11T08:39:29.880Z","facilityType":"spot","facilityLabel":"📍 親子景點","phone":null,"website":null,"wheelchair":false,"paid":null,"needsAddr":true},{"id":1257094848,"name":"奉天宮公園","lat":23.96545335,"lng":120.4787652,"address":null,"hasBabyChanging":false,"hasAccessible":false,"source":"OpenStreetMap","updatedAt":"2026-06-11T08:39:29.880Z","facilityType":"park","facilityLabel":"🌳 小型公園","phone":null,"website":null,"wheelchair":false,"paid":null,"needsAddr":true},{"id":1487932862,"name":"好柿公園","lat":23.961138050000002,"lng":120.4652892,"address":null,"hasBabyChanging":false,"hasAccessible":false,"source":"OpenStreetMap","updatedAt":"2026-06-11T08:39:29.880Z","facilityType":"park","facilityLabel":"🌳 小型公園","phone":null,"website":null,"wheelchair":false,"paid":null,"needsAddr":true},{"id":20314385,"name":"湖東運動公園","lat":23.9649316,"lng":120.485239,"address":null,"hasBabyChanging":false,"hasAccessible":false,"source":"OpenStreetMap","updatedAt":"2026-06-11T08:39:29.880Z","facilityType":"park","facilityLabel":"🌳 大型公園","phone":null,"website":null,"wheelchair":false,"paid":null,"needsAddr":true},{"id":13352973314,"name":"田中稻站","lat":23.857974,"lng":120.591431,"address":null,"hasBabyChanging":false,"hasAccessible":false,"source":"OpenStreetMap","updatedAt":"2026-06-11T08:39:29.880Z","facilityType":"diy","facilityLabel":"🧶 手作DIY","phone":null,"website":null,"wheelchair":false,"paid":null,"needsAddr":true},{"id":198416534,"name":"田中鎮兒童公園","lat":23.8634667,"lng":120.58604155,"address":null,"hasBabyChanging":false,"hasAccessible":false,"source":"OpenStreetMap","updatedAt":"2026-06-11T08:39:29.880Z","facilityType":"park","facilityLabel":"🌳 小型公園","phone":null,"website":null,"wheelchair":false,"paid":null,"needsAddr":true},{"id":407489849,"name":"彰高二號廣場公園","lat":23.87380965,"lng":120.57717765000001,"address":null,"hasBabyChanging":false,"hasAccessible":false,"source":"OpenStreetMap","updatedAt":"2026-06-11T08:39:29.880Z","facilityType":"park","facilityLabel":"🌳 中型公園","phone":null,"website":null,"wheelchair":false,"paid":null,"needsAddr":true},{"id":557370746,"name":"景崧文化教育園區","lat":23.8578079,"lng":120.58182120000001,"address":null,"hasBabyChanging":false,"hasAccessible":false,"source":"OpenStreetMap","updatedAt":"2026-06-11T08:39:29.880Z","facilityType":"park","facilityLabel":"🌳 小型公園","phone":null,"website":null,"wheelchair":false,"paid":null,"needsAddr":true},{"id":557373306,"name":"田中火車站親子廣場","lat":23.8580945,"lng":120.59084135,"address":null,"hasBabyChanging":false,"hasAccessible":false,"source":"OpenStreetMap","updatedAt":"2026-06-11T08:39:29.880Z","facilityType":"park","facilityLabel":"🌳 小型公園","phone":null,"website":null,"wheelchair":false,"paid":null,"needsAddr":true},{"id":557801572,"name":"田中文中公園","lat":23.854038799999998,"lng":120.59160815,"address":null,"hasBabyChanging":false,"hasAccessible":false,"source":"OpenStreetMap","updatedAt":"2026-06-11T08:39:29.880Z","facilityType":"park","facilityLabel":"🌳 小型公園","phone":null,"website":null,"wheelchair":false,"paid":null,"needsAddr":true},{"id":596085708,"name":"興酪路一段435巷","lat":23.844892299999998,"lng":120.5750637,"address":null,"hasBabyChanging":false,"hasAccessible":false,"source":"OpenStreetMap","updatedAt":"2026-06-11T08:39:29.880Z","facilityType":"culture","facilityLabel":"🎨 文化","phone":null,"website":null,"wheelchair":false,"paid":null,"needsAddr":true},{"id":672332212,"name":"彰高三號廣場公園","lat":23.873319600000002,"lng":120.57549295000001,"address":null,"hasBabyChanging":false,"hasAccessible":false,"source":"OpenStreetMap","updatedAt":"2026-06-11T08:39:29.880Z","facilityType":"park","facilityLabel":"🌳 中型公園","phone":null,"website":null,"wheelchair":false,"paid":null,"needsAddr":true},{"id":672332213,"name":"田中老樹公園","lat":23.8709711,"lng":120.56228845000001,"address":null,"hasBabyChanging":false,"hasAccessible":false,"source":"OpenStreetMap","updatedAt":"2026-06-11T08:39:29.880Z","facilityType":"park","facilityLabel":"🌳 小型公園","phone":null,"website":"https://sixstar.moc.gov.tw/blog/sanmen","wheelchair":false,"paid":null,"needsAddr":true},{"id":676211337,"name":"田中森林公園登山步道(北線)","lat":23.8504813,"lng":120.61575975,"address":null,"hasBabyChanging":false,"hasAccessible":false,"source":"OpenStreetMap","updatedAt":"2026-06-11T08:39:29.880Z","facilityType":"park","facilityLabel":"🌳 小型公園","phone":null,"website":null,"wheelchair":false,"paid":null,"needsAddr":true},{"id":733455396,"name":"田中三安公園","lat":23.84431745,"lng":120.5902796,"address":null,"hasBabyChanging":false,"hasAccessible":false,"source":"OpenStreetMap","updatedAt":"2026-06-11T08:39:29.880Z","facilityType":"park","facilityLabel":"🌳 小型公園","phone":null,"website":null,"wheelchair":false,"paid":null,"needsAddr":true},{"id":734476882,"name":"陳羅蜜蜂生態紀念公園","lat":23.88052495,"lng":120.5655803,"address":null,"hasBabyChanging":false,"hasAccessible":false,"source":"OpenStreetMap","updatedAt":"2026-06-11T08:39:29.880Z","facilityType":"park","facilityLabel":"🌳 小型公園","phone":null,"website":null,"wheelchair":false,"paid":null,"needsAddr":true},{"id":734829121,"name":"田中第一環保公園","lat":23.860515200000002,"lng":120.59260265,"address":"田中鎮","hasBabyChanging":false,"hasAccessible":false,"source":"OpenStreetMap","updatedAt":"2026-06-11T08:39:29.880Z","facilityType":"park","facilityLabel":"🌳 小型公園","phone":null,"website":null,"wheelchair":false,"paid":null,"needsAddr":false},{"id":1335867110,"name":"襪仔王觀光工廠","lat":23.874569049999998,"lng":120.58785115,"address":null,"hasBabyChanging":false,"hasAccessible":false,"source":"OpenStreetMap","updatedAt":"2026-06-11T08:39:29.880Z","facilityType":"factory","facilityLabel":"🏭 觀光工廠","phone":null,"website":null,"wheelchair":false,"paid":null,"needsAddr":true},{"id":1364959361,"name":"大安路三段435巷","lat":23.8258083,"lng":120.59941380000001,"address":null,"hasBabyChanging":false,"hasAccessible":false,"source":"OpenStreetMap","updatedAt":"2026-06-11T08:39:29.880Z","facilityType":"culture","facilityLabel":"🎨 文化","phone":null,"website":null,"wheelchair":false,"paid":null,"needsAddr":true},{"id":1455736347,"name":"熊趣米公園","lat":23.8683771,"lng":120.56719570000001,"address":null,"hasBabyChanging":false,"hasAccessible":false,"source":"OpenStreetMap","updatedAt":"2026-06-11T08:39:29.880Z","facilityType":"park","facilityLabel":"🌳 中型公園","phone":null,"website":null,"wheelchair":false,"paid":null,"needsAddr":true},{"id":1480454983,"name":"興酪路一段435巷","lat":23.84420765,"lng":120.57649915,"address":null,"hasBabyChanging":false,"hasAccessible":false,"source":"OpenStreetMap","updatedAt":"2026-06-11T08:39:29.880Z","facilityType":"culture","facilityLabel":"🎨 文化","phone":null,"website":null,"wheelchair":false,"paid":null,"needsAddr":true},{"id":1480454984,"name":"興酪路一段435巷","lat":23.8455771,"lng":120.5737011,"address":null,"hasBabyChanging":false,"hasAccessible":false,"source":"OpenStreetMap","updatedAt":"2026-06-11T08:39:29.880Z","facilityType":"culture","facilityLabel":"🎨 文化","phone":null,"website":null,"wheelchair":false,"paid":null,"needsAddr":true},{"id":1504326756,"name":"田中親子公園","lat":23.86937495,"lng":120.56658525,"address":null,"hasBabyChanging":false,"hasAccessible":false,"source":"OpenStreetMap","updatedAt":"2026-06-11T08:39:29.880Z","facilityType":"park","facilityLabel":"🌳 小型公園","phone":null,"website":null,"wheelchair":false,"paid":null,"needsAddr":true},{"id":8868990805,"name":"二林農場","lat":23.904243,"lng":120.376879,"address":null,"hasBabyChanging":false,"hasAccessible":false,"source":"OpenStreetMap","updatedAt":"2026-06-11T08:39:29.880Z","facilityType":"farm","facilityLabel":"🌾 休閒農場","phone":null,"website":null,"wheelchair":false,"paid":null,"needsAddr":true},{"id":297131838,"name":"洪醒夫公園","lat":23.893071550000002,"lng":120.3657561,"address":null,"hasBabyChanging":false,"hasAccessible":false,"source":"OpenStreetMap","updatedAt":"2026-06-11T08:39:29.880Z","facilityType":"park","facilityLabel":"🌳 中型公園","phone":null,"website":null,"wheelchair":false,"paid":null,"needsAddr":true},{"id":397566557,"name":"儒林公園","lat":23.903792199999998,"lng":120.37345375,"address":null,"hasBabyChanging":false,"hasAccessible":false,"source":"OpenStreetMap","updatedAt":"2026-06-11T08:39:29.880Z","facilityType":"park","facilityLabel":"🌳 小型公園","phone":null,"website":null,"wheelchair":false,"paid":null,"needsAddr":true},{"id":544920522,"name":"東和公園","lat":23.90369205,"lng":120.36280074999999,"address":null,"hasBabyChanging":false,"hasAccessible":false,"source":"OpenStreetMap","updatedAt":"2026-06-11T08:39:29.880Z","facilityType":"park","facilityLabel":"🌳 小型公園","phone":null,"website":null,"wheelchair":false,"paid":null,"needsAddr":true},{"id":556177677,"name":"南儒昌公園","lat":23.8933667,"lng":120.3688032,"address":null,"hasBabyChanging":false,"hasAccessible":false,"source":"OpenStreetMap","updatedAt":"2026-06-11T08:39:29.880Z","facilityType":"park","facilityLabel":"🌳 小型公園","phone":null,"website":null,"wheelchair":false,"paid":null,"needsAddr":true},{"id":556177678,"name":"二林和平公園星球探索樂園","lat":23.9048744,"lng":120.36362489999999,"address":null,"hasBabyChanging":false,"hasAccessible":false,"source":"OpenStreetMap","updatedAt":"2026-06-11T08:39:29.880Z","facilityType":"park","facilityLabel":"🌳 小型公園","phone":null,"website":null,"wheelchair":false,"paid":null,"needsAddr":true},{"id":556177680,"name":"長青公園","lat":23.90401305,"lng":120.36953105,"address":null,"hasBabyChanging":false,"hasAccessible":false,"source":"OpenStreetMap","updatedAt":"2026-06-11T08:39:29.880Z","facilityType":"park","facilityLabel":"🌳 小型公園","phone":null,"website":null,"wheelchair":false,"paid":null,"needsAddr":true},{"id":556180421,"name":"文教園區附設公園","lat":23.89663935,"lng":120.3616085,"address":null,"hasBabyChanging":false,"hasAccessible":false,"source":"OpenStreetMap","updatedAt":"2026-06-11T08:39:29.880Z","facilityType":"park","facilityLabel":"🌳 中型公園","phone":null,"website":null,"wheelchair":false,"paid":null,"needsAddr":true},{"id":556205800,"name":"民生公園","lat":23.90504695,"lng":120.3714732,"address":null,"hasBabyChanging":false,"hasAccessible":false,"source":"OpenStreetMap","updatedAt":"2026-06-11T08:39:29.880Z","facilityType":"park","facilityLabel":"🌳 小型公園","phone":null,"website":null,"wheelchair":false,"paid":null,"needsAddr":true},{"id":602914233,"name":"五權街北側公園","lat":23.901063100000002,"lng":120.38014945,"address":null,"hasBabyChanging":false,"hasAccessible":false,"source":"OpenStreetMap","updatedAt":"2026-06-11T08:39:29.880Z","facilityType":"park","facilityLabel":"🌳 小型公園","phone":null,"website":null,"wheelchair":false,"paid":null,"needsAddr":true},{"id":682068704,"name":"綠17","lat":23.9324601,"lng":120.44188145,"address":null,"hasBabyChanging":false,"hasAccessible":false,"source":"OpenStreetMap","updatedAt":"2026-06-11T08:39:29.880Z","facilityType":"park","facilityLabel":"🌳 中型公園","phone":null,"website":null,"wheelchair":false,"paid":null,"needsAddr":true},{"id":682068712,"name":"綠16","lat":23.93085715,"lng":120.44425675,"address":null,"hasBabyChanging":false,"hasAccessible":false,"source":"OpenStreetMap","updatedAt":"2026-06-11T08:39:29.880Z","facilityType":"park","facilityLabel":"🌳 小型公園","phone":null,"website":null,"wheelchair":false,"paid":null,"needsAddr":true},{"id":682086428,"name":"綠11","lat":23.91575915,"lng":120.44001545,"address":null,"hasBabyChanging":false,"hasAccessible":false,"source":"OpenStreetMap","updatedAt":"2026-06-11T08:39:29.880Z","facilityType":"park","facilityLabel":"🌳 小型公園","phone":null,"website":null,"wheelchair":false,"paid":null,"needsAddr":true},{"id":682086434,"name":"綠12","lat":23.9146434,"lng":120.44218885000001,"address":null,"hasBabyChanging":false,"hasAccessible":false,"source":"OpenStreetMap","updatedAt":"2026-06-11T08:39:29.880Z","facilityType":"park","facilityLabel":"🌳 中型公園","phone":null,"website":null,"wheelchair":false,"paid":null,"needsAddr":true},{"id":682086442,"name":"綠10","lat":23.9159085,"lng":120.4385932,"address":null,"hasBabyChanging":false,"hasAccessible":false,"source":"OpenStreetMap","updatedAt":"2026-06-11T08:39:29.880Z","facilityType":"park","facilityLabel":"🌳 小型公園","phone":null,"website":null,"wheelchair":false,"paid":null,"needsAddr":true},{"id":682086446,"name":"滯10滯洪池公園","lat":23.91864125,"lng":120.429064,"address":null,"hasBabyChanging":false,"hasAccessible":false,"source":"OpenStreetMap","updatedAt":"2026-06-11T08:39:29.880Z","facilityType":"park","facilityLabel":"🌳 中型公園","phone":null,"website":null,"wheelchair":false,"paid":null,"needsAddr":true},{"id":682086451,"name":"綠8","lat":23.91804815,"lng":120.4278893,"address":null,"hasBabyChanging":false,"hasAccessible":false,"source":"OpenStreetMap","updatedAt":"2026-06-11T08:39:29.880Z","facilityType":"park","facilityLabel":"🌳 中型公園","phone":null,"website":null,"wheelchair":false,"paid":null,"needsAddr":true},{"id":682086455,"name":"綠9","lat":23.91675405,"lng":120.4344407,"address":null,"hasBabyChanging":false,"hasAccessible":false,"source":"OpenStreetMap","updatedAt":"2026-06-11T08:39:29.880Z","facilityType":"park","facilityLabel":"🌳 中型公園","phone":null,"website":null,"wheelchair":false,"paid":null,"needsAddr":true},{"id":683471024,"name":"謝緯紀念公園","lat":23.8942804,"lng":120.3619977,"address":null,"hasBabyChanging":false,"hasAccessible":false,"source":"OpenStreetMap","updatedAt":"2026-06-11T08:39:29.880Z","facilityType":"park","facilityLabel":"🌳 小型公園","phone":null,"website":null,"wheelchair":false,"paid":null,"needsAddr":true},{"id":727217240,"name":"東螺溪休閒農場","lat":23.99511005,"lng":120.41246430000001,"address":null,"hasBabyChanging":false,"hasAccessible":false,"source":"OpenStreetMap","updatedAt":"2026-06-11T08:39:29.880Z","facilityType":"farm","facilityLabel":"🌾 休閒農場","phone":null,"website":null,"wheelchair":false,"paid":null,"needsAddr":true},{"id":1302640131,"name":"仁愛公園","lat":23.9041404,"lng":120.37546495,"address":null,"hasBabyChanging":false,"hasAccessible":false,"source":"OpenStreetMap","updatedAt":"2026-06-11T08:39:29.880Z","facilityType":"park","facilityLabel":"🌳 小型公園","phone":null,"website":null,"wheelchair":false,"paid":null,"needsAddr":true},{"id":17857831,"name":"河濱公園","lat":23.8974793,"lng":120.3736777,"address":null,"hasBabyChanging":false,"hasAccessible":false,"source":"OpenStreetMap","updatedAt":"2026-06-11T08:39:29.880Z","facilityType":"park","facilityLabel":"🌳 中型公園","phone":null,"website":null,"wheelchair":false,"paid":null,"needsAddr":true},{"id":545017951,"name":"線西公園","lat":24.132269100000002,"lng":120.45981135,"address":null,"hasBabyChanging":false,"hasAccessible":false,"source":"OpenStreetMap","updatedAt":"2026-06-11T08:39:29.880Z","facilityType":"park","facilityLabel":"🌳 小型公園","phone":null,"website":null,"wheelchair":false,"paid":null,"needsAddr":true},{"id":545018249,"name":"塭仔公園","lat":24.1276897,"lng":120.45550845,"address":null,"hasBabyChanging":false,"hasAccessible":false,"source":"OpenStreetMap","updatedAt":"2026-06-11T08:39:29.880Z","facilityType":"park","facilityLabel":"🌳 小型公園","phone":null,"website":null,"wheelchair":false,"paid":null,"needsAddr":true},{"id":874472432,"name":"肉粽角沙灘","lat":24.1254765,"lng":120.4133571,"address":null,"hasBabyChanging":false,"hasAccessible":false,"source":"OpenStreetMap","updatedAt":"2026-06-11T08:39:29.880Z","facilityType":"water","facilityLabel":"💧 戲水親水","phone":null,"website":null,"wheelchair":false,"paid":null,"needsAddr":true},{"id":438844468,"name":"中興運動公園","lat":24.15314195,"lng":120.48934495,"address":null,"hasBabyChanging":false,"hasAccessible":false,"source":"OpenStreetMap","updatedAt":"2026-06-11T08:39:29.880Z","facilityType":"park","facilityLabel":"🌳 中型公園","phone":null,"website":null,"wheelchair":false,"paid":null,"needsAddr":true},{"id":961907512,"name":"伸港公園","lat":24.1442114,"lng":120.48666595,"address":null,"hasBabyChanging":false,"hasAccessible":false,"source":"OpenStreetMap","updatedAt":"2026-06-11T08:39:29.880Z","facilityType":"park","facilityLabel":"🌳 小型公園","phone":null,"website":null,"wheelchair":false,"paid":null,"needsAddr":true},{"id":973565281,"name":"虎頭山公園","lat":24.14667935,"lng":120.48007565,"address":null,"hasBabyChanging":false,"hasAccessible":false,"source":"OpenStreetMap","updatedAt":"2026-06-11T08:39:29.880Z","facilityType":"park","facilityLabel":"🌳 小型公園","phone":null,"website":null,"wheelchair":false,"paid":null,"needsAddr":true},{"id":976044315,"name":"伸港文學公園","lat":24.14496165,"lng":120.48536505000001,"address":null,"hasBabyChanging":false,"hasAccessible":false,"source":"OpenStreetMap","updatedAt":"2026-06-11T08:39:29.880Z","facilityType":"park","facilityLabel":"🌳 小型公園","phone":null,"website":null,"wheelchair":false,"paid":null,"needsAddr":true},{"id":1186221173,"name":"曾家公園","lat":24.147648850000003,"lng":120.47090940000001,"address":null,"hasBabyChanging":false,"hasAccessible":false,"source":"OpenStreetMap","updatedAt":"2026-06-11T08:39:29.880Z","facilityType":"park","facilityLabel":"🌳 小型公園","phone":null,"website":null,"wheelchair":false,"paid":null,"needsAddr":true},{"id":1267040409,"name":"嬉濱海豚公園","lat":24.153747250000002,"lng":120.4532065,"address":null,"hasBabyChanging":false,"hasAccessible":false,"source":"OpenStreetMap","updatedAt":"2026-06-11T08:39:29.880Z","facilityType":"park","facilityLabel":"🌳 中型公園","phone":null,"website":null,"wheelchair":false,"paid":null,"needsAddr":true},{"id":1302657442,"name":"福安公園","lat":24.162986099999998,"lng":120.48918505,"address":null,"hasBabyChanging":false,"hasAccessible":false,"source":"OpenStreetMap","updatedAt":"2026-06-11T08:39:29.880Z","facilityType":"park","facilityLabel":"🌳 小型公園","phone":null,"website":null,"wheelchair":false,"paid":null,"needsAddr":true},{"id":1302657443,"name":"彰化縣自然生態教育中心","lat":24.157326599999998,"lng":120.4564092,"address":null,"hasBabyChanging":false,"hasAccessible":false,"source":"OpenStreetMap","updatedAt":"2026-06-11T08:39:29.880Z","facilityType":"park","facilityLabel":"🌳 中型公園","phone":null,"website":null,"wheelchair":false,"paid":null,"needsAddr":true},{"id":689300165,"name":"三和西瓜公園","lat":24.007619249999998,"lng":120.4114669,"address":null,"hasBabyChanging":false,"hasAccessible":false,"source":"OpenStreetMap","updatedAt":"2026-06-11T08:39:29.880Z","facilityType":"park","facilityLabel":"🌳 小型公園","phone":null,"website":null,"wheelchair":false,"paid":null,"needsAddr":true},{"id":689305376,"name":"麥厝公園","lat":24.0133535,"lng":120.4070044,"address":null,"hasBabyChanging":false,"hasAccessible":false,"source":"OpenStreetMap","updatedAt":"2026-06-11T08:39:29.880Z","facilityType":"park","facilityLabel":"🌳 小型公園","phone":null,"website":null,"wheelchair":false,"paid":null,"needsAddr":true},{"id":727215906,"name":"東螺溪親水平台公園","lat":23.99441995,"lng":120.4141299,"address":null,"hasBabyChanging":false,"hasAccessible":false,"source":"OpenStreetMap","updatedAt":"2026-06-11T08:39:29.880Z","facilityType":"water","facilityLabel":"💧 戲水親水","phone":null,"website":null,"wheelchair":false,"paid":null,"needsAddr":true},{"id":871352796,"name":"鹿港溪風華再現工程","lat":24.0516701,"lng":120.43251380000001,"address":null,"hasBabyChanging":false,"hasAccessible":false,"source":"OpenStreetMap","updatedAt":"2026-06-11T08:39:29.880Z","facilityType":"park","facilityLabel":"🌳 中型公園","phone":null,"website":null,"wheelchair":false,"paid":null,"needsAddr":true},{"id":3617129712,"name":"主恩牧場","lat":24.0544184,"lng":120.5054745,"address":null,"hasBabyChanging":false,"hasAccessible":false,"source":"OpenStreetMap","updatedAt":"2026-06-11T08:39:29.880Z","facilityType":"farm","facilityLabel":"🌾 休閒農場","phone":null,"website":"https://owlting.com/market/vendor/11503","wheelchair":false,"paid":null,"needsAddr":true},{"id":561224367,"name":"秀水公園","lat":24.028959450000002,"lng":120.50066824999999,"address":null,"hasBabyChanging":false,"hasAccessible":false,"source":"OpenStreetMap","updatedAt":"2026-06-11T08:39:29.880Z","facilityType":"park","facilityLabel":"🌳 中型公園","phone":null,"website":null,"wheelchair":false,"paid":null,"needsAddr":true},{"id":562678921,"name":"重劃公園","lat":24.052709999999998,"lng":120.51152859999999,"address":null,"hasBabyChanging":false,"hasAccessible":false,"source":"OpenStreetMap","updatedAt":"2026-06-11T08:39:29.880Z","facilityType":"park","facilityLabel":"🌳 小型公園","phone":null,"website":null,"wheelchair":false,"paid":null,"needsAddr":true},{"id":566001736,"name":"彰化縣秀水鄉第四公墓","lat":24.042935550000003,"lng":120.50848859999999,"address":null,"hasBabyChanging":false,"hasAccessible":false,"source":"OpenStreetMap","updatedAt":"2026-06-11T08:39:29.880Z","facilityType":"park","facilityLabel":"🌳 中型公園","phone":null,"website":null,"wheelchair":false,"paid":null,"needsAddr":true},{"id":661630170,"name":"秀水長青槌頭場","lat":24.052345199999998,"lng":120.51036975,"address":null,"hasBabyChanging":false,"hasAccessible":false,"source":"OpenStreetMap","updatedAt":"2026-06-11T08:39:29.880Z","facilityType":"park","facilityLabel":"🌳 小型公園","phone":null,"website":null,"wheelchair":false,"paid":null,"needsAddr":true},{"id":669106357,"name":"莊雅東橋公園","lat":24.025967950000002,"lng":120.5123521,"address":null,"hasBabyChanging":false,"hasAccessible":false,"source":"OpenStreetMap","updatedAt":"2026-06-11T08:39:29.880Z","facilityType":"park","facilityLabel":"🌳 小型公園","phone":null,"website":null,"wheelchair":false,"paid":null,"needsAddr":true},{"id":691966131,"name":"莊雅巷兒童公園","lat":24.0278367,"lng":120.51048025,"address":null,"hasBabyChanging":false,"hasAccessible":false,"source":"OpenStreetMap","updatedAt":"2026-06-11T08:39:29.880Z","facilityType":"park","facilityLabel":"🌳 小型公園","phone":null,"website":null,"wheelchair":false,"paid":null,"needsAddr":true},{"id":993975882,"name":"馬興藥草植物園區","lat":24.0671963,"lng":120.49788620000001,"address":"504彰化縣秀水鄉雅興街118巷41號","hasBabyChanging":false,"hasAccessible":false,"source":"OpenStreetMap","updatedAt":"2026-06-11T08:39:29.880Z","facilityType":"park","facilityLabel":"🌳 小型公園","phone":null,"website":null,"wheelchair":false,"paid":null,"needsAddr":false},{"id":8067472,"name":"懷恩公園","lat":24.04386955,"lng":120.5090568,"address":null,"hasBabyChanging":false,"hasAccessible":false,"source":"OpenStreetMap","updatedAt":"2026-06-11T08:39:29.880Z","facilityType":"park","facilityLabel":"🌳 小型公園","phone":null,"website":null,"wheelchair":false,"paid":null,"needsAddr":true},{"id":12541979487,"name":"益康燕窩博物館","lat":24.0340007,"lng":120.5744576,"address":null,"hasBabyChanging":false,"hasAccessible":false,"source":"OpenStreetMap","updatedAt":"2026-06-11T08:39:29.880Z","facilityType":"science","facilityLabel":"🔬 科學館","phone":null,"website":null,"wheelchair":false,"paid":null,"needsAddr":true},{"id":807778426,"name":"溪埔公園遊戲區","lat":24.0133176,"lng":120.5641822,"address":null,"hasBabyChanging":false,"hasAccessible":false,"source":"OpenStreetMap","updatedAt":"2026-06-11T08:39:29.880Z","facilityType":"park","facilityLabel":"🌳 小型公園","phone":null,"website":null,"wheelchair":false,"paid":null,"needsAddr":true},{"id":808061286,"name":"橋頭磚砌公園","lat":24.025641450000002,"lng":120.5511012,"address":null,"hasBabyChanging":false,"hasAccessible":false,"source":"OpenStreetMap","updatedAt":"2026-06-11T08:39:29.880Z","facilityType":"park","facilityLabel":"🌳 小型公園","phone":null,"website":null,"wheelchair":false,"paid":null,"needsAddr":true},{"id":810171499,"name":"三春老樹小公園","lat":24.0077104,"lng":120.5723751,"address":null,"hasBabyChanging":false,"hasAccessible":false,"source":"OpenStreetMap","updatedAt":"2026-06-11T08:39:29.880Z","facilityType":"park","facilityLabel":"🌳 小型公園","phone":null,"website":null,"wheelchair":false,"paid":null,"needsAddr":true},{"id":1086144694,"name":"古生物奇幻樂園","lat":24.001378199999998,"lng":120.62597009999999,"address":"50245彰化縣芬園鄉中山路167號","hasBabyChanging":false,"hasAccessible":false,"source":"OpenStreetMap","updatedAt":"2026-06-11T08:39:29.880Z","facilityType":"theme_park","facilityLabel":"🎡 遊樂園","phone":null,"website":"https://www.trimt-nsa.gov.tw/mountain/attractions/detail?id=612ceb64-3cd1-43d7-ba0f-5980964d871e","wheelchair":false,"paid":null,"needsAddr":false},{"id":1300890417,"name":"彰南路三段435巷","lat":24.0089767,"lng":120.62780225,"address":null,"hasBabyChanging":false,"hasAccessible":false,"source":"OpenStreetMap","updatedAt":"2026-06-11T08:39:29.880Z","facilityType":"culture","facilityLabel":"🎨 文化","phone":null,"website":null,"wheelchair":false,"paid":null,"needsAddr":true},{"id":583659464,"name":"大村兒童公園","lat":23.99266325,"lng":120.5467981,"address":null,"hasBabyChanging":false,"hasAccessible":false,"source":"OpenStreetMap","updatedAt":"2026-06-11T08:39:29.880Z","facilityType":"park","facilityLabel":"🌳 小型公園","phone":null,"website":null,"wheelchair":false,"paid":null,"needsAddr":true},{"id":807800470,"name":"福興運動公園","lat":23.993841500000002,"lng":120.58643545,"address":null,"hasBabyChanging":false,"hasAccessible":false,"source":"OpenStreetMap","updatedAt":"2026-06-11T08:39:29.880Z","facilityType":"park","facilityLabel":"🌳 小型公園","phone":null,"website":null,"wheelchair":false,"paid":null,"needsAddr":true},{"id":808796037,"name":"花樹銀行","lat":24.00073305,"lng":120.58576815,"address":null,"hasBabyChanging":false,"hasAccessible":false,"source":"OpenStreetMap","updatedAt":"2026-06-11T08:39:29.880Z","facilityType":"park","facilityLabel":"🌳 小型公園","phone":null,"website":null,"wheelchair":false,"paid":null,"needsAddr":true},{"id":810510899,"name":"慈鳳公園","lat":23.99386775,"lng":120.5649993,"address":null,"hasBabyChanging":false,"hasAccessible":false,"source":"OpenStreetMap","updatedAt":"2026-06-11T08:39:29.880Z","facilityType":"park","facilityLabel":"🌳 小型公園","phone":null,"website":null,"wheelchair":false,"paid":null,"needsAddr":true},{"id":1156245770,"name":"何家花園","lat":24.00057275,"lng":120.57652759999999,"address":null,"hasBabyChanging":false,"hasAccessible":false,"source":"OpenStreetMap","updatedAt":"2026-06-11T08:39:29.880Z","facilityType":"park","facilityLabel":"🌳 小型公園","phone":null,"website":null,"wheelchair":false,"paid":null,"needsAddr":true},{"id":468640310,"name":"糯米坊工坊","lat":23.99708075,"lng":120.47189315,"address":null,"hasBabyChanging":false,"hasAccessible":false,"source":"OpenStreetMap","updatedAt":"2026-06-11T08:39:29.880Z","facilityType":"park","facilityLabel":"🌳 小型公園","phone":null,"website":null,"wheelchair":false,"paid":null,"needsAddr":true},{"id":469412792,"name":"萬善祠","lat":23.9957213,"lng":120.46969204999999,"address":null,"hasBabyChanging":false,"hasAccessible":false,"source":"OpenStreetMap","updatedAt":"2026-06-11T08:39:29.880Z","facilityType":"park","facilityLabel":"🌳 小型公園","phone":null,"website":null,"wheelchair":false,"paid":null,"needsAddr":true},{"id":469595928,"name":"瓦磘公園","lat":24.009986400000003,"lng":120.46918170000001,"address":null,"hasBabyChanging":false,"hasAccessible":false,"source":"OpenStreetMap","updatedAt":"2026-06-11T08:39:29.880Z","facilityType":"park","facilityLabel":"🌳 小型公園","phone":null,"website":null,"wheelchair":false,"paid":null,"needsAddr":true},{"id":584084810,"name":"南新農民公園","lat":23.9915107,"lng":120.458317,"address":null,"hasBabyChanging":false,"hasAccessible":false,"source":"OpenStreetMap","updatedAt":"2026-06-11T08:39:29.880Z","facilityType":"park","facilityLabel":"🌳 小型公園","phone":null,"website":null,"wheelchair":false,"paid":null,"needsAddr":true},{"id":689291867,"name":"天盛公園","lat":23.981804,"lng":120.4284515,"address":null,"hasBabyChanging":false,"hasAccessible":false,"source":"OpenStreetMap","updatedAt":"2026-06-11T08:39:29.880Z","facilityType":"park","facilityLabel":"🌳 小型公園","phone":null,"website":null,"wheelchair":false,"paid":null,"needsAddr":true},{"id":689303461,"name":"永樂公園","lat":23.9997737,"lng":120.4340865,"address":null,"hasBabyChanging":false,"hasAccessible":false,"source":"OpenStreetMap","updatedAt":"2026-06-11T08:39:29.880Z","facilityType":"park","facilityLabel":"🌳 小型公園","phone":null,"website":null,"wheelchair":false,"paid":null,"needsAddr":true},{"id":689303680,"name":"萬善堂公園","lat":24.005798249999998,"lng":120.44275115,"address":null,"hasBabyChanging":false,"hasAccessible":false,"source":"OpenStreetMap","updatedAt":"2026-06-11T08:39:29.880Z","facilityType":"park","facilityLabel":"🌳 小型公園","phone":null,"website":null,"wheelchair":false,"paid":null,"needsAddr":true},{"id":689304590,"name":"永新橋休闢站公園","lat":23.99580015,"lng":120.4410092,"address":null,"hasBabyChanging":false,"hasAccessible":false,"source":"OpenStreetMap","updatedAt":"2026-06-11T08:39:29.880Z","facilityType":"park","facilityLabel":"🌳 小型公園","phone":null,"website":null,"wheelchair":false,"paid":null,"needsAddr":true},{"id":689305805,"name":"南港藝術公園","lat":23.983772100000003,"lng":120.5064305,"address":null,"hasBabyChanging":false,"hasAccessible":false,"source":"OpenStreetMap","updatedAt":"2026-06-11T08:39:29.880Z","facilityType":"park","facilityLabel":"🌳 中型公園","phone":null,"website":null,"wheelchair":false,"paid":null,"needsAddr":true},{"id":689322207,"name":"崑崙兒童公園","lat":23.98827305,"lng":120.47909565,"address":null,"hasBabyChanging":false,"hasAccessible":false,"source":"OpenStreetMap","updatedAt":"2026-06-11T08:39:29.880Z","facilityType":"park","facilityLabel":"🌳 小型公園","phone":null,"website":null,"wheelchair":false,"paid":null,"needsAddr":true},{"id":689332530,"name":"永樂公園","lat":24.0007216,"lng":120.43461335,"address":null,"hasBabyChanging":false,"hasAccessible":false,"source":"OpenStreetMap","updatedAt":"2026-06-11T08:39:29.880Z","facilityType":"park","facilityLabel":"🌳 小型公園","phone":null,"website":null,"wheelchair":false,"paid":null,"needsAddr":true},{"id":727215904,"name":"東螺溪親水平台公園","lat":23.98635095,"lng":120.4197451,"address":null,"hasBabyChanging":false,"hasAccessible":false,"source":"OpenStreetMap","updatedAt":"2026-06-11T08:39:29.880Z","facilityType":"water","facilityLabel":"💧 戲水親水","phone":null,"website":null,"wheelchair":false,"paid":null,"needsAddr":true},{"id":727215906,"name":"東螺溪親水平台公園","lat":23.99441995,"lng":120.4141299,"address":null,"hasBabyChanging":false,"hasAccessible":false,"source":"OpenStreetMap","updatedAt":"2026-06-11T08:39:29.880Z","facilityType":"water","facilityLabel":"💧 戲水親水","phone":null,"website":null,"wheelchair":false,"paid":null,"needsAddr":true},{"id":727215908,"name":"東螺溪親水平台公園","lat":23.981079700000002,"lng":120.4229983,"address":null,"hasBabyChanging":false,"hasAccessible":false,"source":"OpenStreetMap","updatedAt":"2026-06-11T08:39:29.880Z","facilityType":"water","facilityLabel":"💧 戲水親水","phone":null,"website":null,"wheelchair":false,"paid":null,"needsAddr":true},{"id":733618761,"name":"白鷺鷥公園","lat":23.9793585,"lng":120.49413905,"address":null,"hasBabyChanging":false,"hasAccessible":false,"source":"OpenStreetMap","updatedAt":"2026-06-11T08:39:29.880Z","facilityType":"park","facilityLabel":"🌳 小型公園","phone":null,"website":null,"wheelchair":false,"paid":null,"needsAddr":true},{"id":895566525,"name":"竹仔腳公園","lat":23.99964995,"lng":120.4325781,"address":null,"hasBabyChanging":false,"hasAccessible":false,"source":"OpenStreetMap","updatedAt":"2026-06-11T08:39:29.880Z","facilityType":"park","facilityLabel":"🌳 小型公園","phone":null,"website":null,"wheelchair":false,"paid":null,"needsAddr":true},{"id":1466227944,"name":"太平村親子公園","lat":23.98180265,"lng":120.4336093,"address":null,"hasBabyChanging":false,"hasAccessible":false,"source":"OpenStreetMap","updatedAt":"2026-06-11T08:39:29.880Z","facilityType":"park","facilityLabel":"🌳 小型公園","phone":null,"website":null,"wheelchair":false,"paid":null,"needsAddr":true},{"id":307277822,"name":"梧鳳公園","lat":23.96823825,"lng":120.51202345,"address":null,"hasBabyChanging":false,"hasAccessible":false,"source":"OpenStreetMap","updatedAt":"2026-06-11T08:39:29.880Z","facilityType":"park","facilityLabel":"🌳 中型公園","phone":null,"website":null,"wheelchair":false,"paid":null,"needsAddr":true},{"id":558017849,"name":"埔心鄉立公園","lat":23.93895375,"lng":120.55313054999999,"address":null,"hasBabyChanging":false,"hasAccessible":false,"source":"OpenStreetMap","updatedAt":"2026-06-11T08:39:29.880Z","facilityType":"park","facilityLabel":"🌳 中型公園","phone":null,"website":null,"wheelchair":false,"paid":null,"needsAddr":true},{"id":558017857,"name":"埔心鄉新舘綠動公園","lat":23.9375696,"lng":120.530746,"address":null,"hasBabyChanging":false,"hasAccessible":false,"source":"OpenStreetMap","updatedAt":"2026-06-11T08:39:29.880Z","facilityType":"park","facilityLabel":"🌳 中型公園","phone":null,"website":null,"wheelchair":false,"paid":null,"needsAddr":true},{"id":759621666,"name":"舊舘公園","lat":23.9502412,"lng":120.52345815,"address":null,"hasBabyChanging":false,"hasAccessible":false,"source":"OpenStreetMap","updatedAt":"2026-06-11T08:39:29.880Z","facilityType":"park","facilityLabel":"🌳 中型公園","phone":null,"website":null,"wheelchair":false,"paid":null,"needsAddr":true},{"id":1017192801,"name":"新舘公園","lat":23.940157499999998,"lng":120.5244305,"address":null,"hasBabyChanging":false,"hasAccessible":false,"source":"OpenStreetMap","updatedAt":"2026-06-11T08:39:29.880Z","facilityType":"park","facilityLabel":"🌳 中型公園","phone":null,"website":null,"wheelchair":false,"paid":null,"needsAddr":true},{"id":1444471792,"name":"瓦南村兒童5號公園","lat":23.950550200000002,"lng":120.56285804999999,"address":null,"hasBabyChanging":false,"hasAccessible":false,"source":"OpenStreetMap","updatedAt":"2026-06-11T08:39:29.880Z","facilityType":"park","facilityLabel":"🌳 小型公園","phone":null,"website":null,"wheelchair":false,"paid":null,"needsAddr":true},{"id":1470846843,"name":"埔心兒童公園","lat":23.95502775,"lng":120.54195150000001,"address":null,"hasBabyChanging":false,"hasAccessible":false,"source":"OpenStreetMap","updatedAt":"2026-06-11T08:39:29.880Z","facilityType":"park","facilityLabel":"🌳 中型公園","phone":null,"website":null,"wheelchair":false,"paid":null,"needsAddr":true},{"id":1472003919,"name":"經口環保運動公園","lat":23.94889765,"lng":120.55449885,"address":null,"hasBabyChanging":false,"hasAccessible":false,"source":"OpenStreetMap","updatedAt":"2026-06-11T08:39:29.880Z","facilityType":"park","facilityLabel":"🌳 中型公園","phone":null,"website":null,"wheelchair":false,"paid":null,"needsAddr":true},{"id":550034582,"name":"舜天宮文向紀念公園","lat":23.91912845,"lng":120.531261,"address":null,"hasBabyChanging":false,"hasAccessible":false,"source":"OpenStreetMap","updatedAt":"2026-06-11T08:39:29.880Z","facilityType":"park","facilityLabel":"🌳 小型公園","phone":null,"website":null,"wheelchair":false,"paid":null,"needsAddr":true},{"id":558017837,"name":"鄭成功公園","lat":23.9154723,"lng":120.5465045,"address":null,"hasBabyChanging":false,"hasAccessible":false,"source":"OpenStreetMap","updatedAt":"2026-06-11T08:39:29.880Z","facilityType":"park","facilityLabel":"🌳 中型公園","phone":null,"website":null,"wheelchair":false,"paid":null,"needsAddr":true},{"id":558017845,"name":"成美文化園","lat":23.9192724,"lng":120.5480917,"address":null,"hasBabyChanging":false,"hasAccessible":false,"source":"OpenStreetMap","updatedAt":"2026-06-11T08:39:29.880Z","facilityType":"park","facilityLabel":"🌳 中型公園","phone":null,"website":null,"wheelchair":false,"paid":null,"needsAddr":true},{"id":1053058423,"name":"成美文化園","lat":23.9190303,"lng":120.54907855,"address":null,"hasBabyChanging":false,"hasAccessible":false,"source":"OpenStreetMap","updatedAt":"2026-06-11T08:39:29.880Z","facilityType":"park","facilityLabel":"🌳 中型公園","phone":null,"website":null,"wheelchair":false,"paid":null,"needsAddr":true},{"id":1474433314,"name":"永南埔陽光綠地公園","lat":23.918811499999997,"lng":120.54030850000001,"address":null,"hasBabyChanging":false,"hasAccessible":false,"source":"OpenStreetMap","updatedAt":"2026-06-11T08:39:29.880Z","facilityType":"park","facilityLabel":"🌳 小型公園","phone":null,"website":null,"wheelchair":false,"paid":null,"needsAddr":true},{"id":13620954,"name":"四芳運動公園","lat":23.9243825,"lng":120.52413045,"address":null,"hasBabyChanging":false,"hasAccessible":false,"source":"OpenStreetMap","updatedAt":"2026-06-11T08:39:29.880Z","facilityType":"park","facilityLabel":"🌳 中型公園","phone":null,"website":null,"wheelchair":false,"paid":null,"needsAddr":true},{"id":387490979,"name":"社頭鄉運動公園","lat":23.890745699999997,"lng":120.5856384,"address":"彰化縣社頭鄉美雅村中山路一段172號","hasBabyChanging":false,"hasAccessible":false,"source":"OpenStreetMap","updatedAt":"2026-06-11T08:39:29.880Z","facilityType":"park","facilityLabel":"🌳 中型公園","phone":null,"website":null,"wheelchair":false,"paid":null,"needsAddr":false},{"id":470674020,"name":"清水岩童軍營地","lat":23.884707300000002,"lng":120.61010375000001,"address":null,"hasBabyChanging":false,"hasAccessible":false,"source":"OpenStreetMap","updatedAt":"2026-06-11T08:39:29.880Z","facilityType":"camp","facilityLabel":"⛺ 露營休閒","phone":null,"website":null,"wheelchair":false,"paid":null,"needsAddr":true},{"id":557377930,"name":"社頭公園","lat":23.884354100000003,"lng":120.58755024999999,"address":null,"hasBabyChanging":false,"hasAccessible":false,"source":"OpenStreetMap","updatedAt":"2026-06-11T08:39:29.880Z","facilityType":"park","facilityLabel":"🌳 中型公園","phone":null,"website":null,"wheelchair":false,"paid":null,"needsAddr":true},{"id":734136425,"name":"社頭張厝河濱公園","lat":23.8987396,"lng":120.57606005,"address":null,"hasBabyChanging":false,"hasAccessible":false,"source":"OpenStreetMap","updatedAt":"2026-06-11T08:39:29.880Z","facilityType":"park","facilityLabel":"🌳 中型公園","phone":null,"website":null,"wheelchair":false,"paid":null,"needsAddr":true},{"id":735392556,"name":"舊社庄公園","lat":23.8972793,"lng":120.59763584999999,"address":"511彰化縣社頭鄉忠孝一路37-53號","hasBabyChanging":false,"hasAccessible":false,"source":"OpenStreetMap","updatedAt":"2026-06-11T08:39:29.880Z","facilityType":"park","facilityLabel":"🌳 小型公園","phone":null,"website":null,"wheelchair":false,"paid":null,"needsAddr":false},{"id":958553721,"name":"仁雅公園","lat":23.8951369,"lng":120.58583325000001,"address":null,"hasBabyChanging":false,"hasAccessible":false,"source":"OpenStreetMap","updatedAt":"2026-06-11T08:39:29.880Z","facilityType":"park","facilityLabel":"🌳 小型公園","phone":null,"website":null,"wheelchair":false,"paid":null,"needsAddr":true},{"id":1203857953,"name":"張厝小公園","lat":23.90395455,"lng":120.57594710000001,"address":null,"hasBabyChanging":false,"hasAccessible":false,"source":"OpenStreetMap","updatedAt":"2026-06-11T08:39:29.880Z","facilityType":"park","facilityLabel":"🌳 小型公園","phone":null,"website":null,"wheelchair":false,"paid":null,"needsAddr":true},{"id":1272017747,"name":"DoReMi音樂城堡公園","lat":23.8839543,"lng":120.58598789999999,"address":null,"hasBabyChanging":false,"hasAccessible":false,"source":"OpenStreetMap","updatedAt":"2026-06-11T08:39:29.880Z","facilityType":"park","facilityLabel":"🌳 小型公園","phone":null,"website":null,"wheelchair":false,"paid":null,"needsAddr":true},{"id":1330236040,"name":"花木公園","lat":23.879446899999998,"lng":120.57884924999999,"address":null,"hasBabyChanging":false,"hasAccessible":false,"source":"OpenStreetMap","updatedAt":"2026-06-11T08:39:29.880Z","facilityType":"park","facilityLabel":"🌳 小型公園","phone":null,"website":null,"wheelchair":false,"paid":null,"needsAddr":true},{"id":1359251788,"name":"協和公園","lat":23.929726100000003,"lng":120.60657810000001,"address":null,"hasBabyChanging":false,"hasAccessible":false,"source":"OpenStreetMap","updatedAt":"2026-06-11T08:39:29.880Z","facilityType":"park","facilityLabel":"🌳 中型公園","phone":null,"website":null,"wheelchair":false,"paid":null,"needsAddr":true},{"id":1497284034,"name":"一番地公園","lat":23.91867045,"lng":120.60735450000001,"address":null,"hasBabyChanging":false,"hasAccessible":false,"source":"OpenStreetMap","updatedAt":"2026-06-11T08:39:29.880Z","facilityType":"park","facilityLabel":"🌳 小型公園","phone":null,"website":null,"wheelchair":false,"paid":null,"needsAddr":true},{"id":1497284037,"name":"愛心公園","lat":23.92437395,"lng":120.60552245,"address":null,"hasBabyChanging":false,"hasAccessible":false,"source":"OpenStreetMap","updatedAt":"2026-06-11T08:39:29.880Z","facilityType":"park","facilityLabel":"🌳 小型公園","phone":null,"website":null,"wheelchair":false,"paid":null,"needsAddr":true},{"id":11740881894,"name":"鐵道文化","lat":23.7986987,"lng":120.6406328,"address":null,"hasBabyChanging":false,"hasAccessible":false,"source":"OpenStreetMap","updatedAt":"2026-06-11T08:39:29.880Z","facilityType":"railway","facilityLabel":"🚂 鐵道交通","phone":null,"website":null,"wheelchair":false,"paid":null,"needsAddr":true},{"id":560408233,"name":"二八水水公園","lat":23.8144329,"lng":120.61616269999999,"address":null,"hasBabyChanging":false,"hasAccessible":false,"source":"OpenStreetMap","updatedAt":"2026-06-11T08:39:29.880Z","facilityType":"park","facilityLabel":"🌳 小型公園","phone":null,"website":null,"wheelchair":false,"paid":null,"needsAddr":true},{"id":1113605767,"name":"八堡圳公園","lat":23.80197085,"lng":120.6599683,"address":null,"hasBabyChanging":false,"hasAccessible":false,"source":"OpenStreetMap","updatedAt":"2026-06-11T08:39:29.880Z","facilityType":"park","facilityLabel":"🌳 小型公園","phone":null,"website":null,"wheelchair":false,"paid":null,"needsAddr":true},{"id":1113605768,"name":"引水公園","lat":23.79671355,"lng":120.65196900000001,"address":null,"hasBabyChanging":false,"hasAccessible":false,"source":"OpenStreetMap","updatedAt":"2026-06-11T08:39:29.880Z","facilityType":"park","facilityLabel":"🌳 中型公園","phone":null,"website":null,"wheelchair":false,"paid":null,"needsAddr":true},{"id":1196904800,"name":"七星陣地公園-玉衡","lat":23.8256156,"lng":120.6398489,"address":null,"hasBabyChanging":false,"hasAccessible":false,"source":"OpenStreetMap","updatedAt":"2026-06-11T08:39:29.880Z","facilityType":"park","facilityLabel":"🌳 小型公園","phone":null,"website":null,"wheelchair":false,"paid":null,"needsAddr":true},{"id":1307216845,"name":"大安路三段435巷80弄","lat":23.8289845,"lng":120.59944780000001,"address":null,"hasBabyChanging":false,"hasAccessible":false,"source":"OpenStreetMap","updatedAt":"2026-06-11T08:39:29.880Z","facilityType":"culture","facilityLabel":"🎨 文化","phone":null,"website":null,"wheelchair":false,"paid":null,"needsAddr":true},{"id":1364959359,"name":"大安路三段435巷80弄","lat":23.8264453,"lng":120.6002305,"address":null,"hasBabyChanging":false,"hasAccessible":false,"source":"OpenStreetMap","updatedAt":"2026-06-11T08:39:29.880Z","facilityType":"culture","facilityLabel":"🎨 文化","phone":null,"website":null,"wheelchair":false,"paid":null,"needsAddr":true},{"id":271120751,"name":"怡心園","lat":23.8961281,"lng":120.53234905,"address":null,"hasBabyChanging":false,"hasAccessible":false,"source":"OpenStreetMap","updatedAt":"2026-06-11T15:30:47.254Z","facilityType":"park","facilityLabel":"🌳 中型公園","phone":null,"website":null,"wheelchair":false,"paid":null,"needsAddr":true},{"id":281098643,"name":"菁芳園休閒農場","lat":23.906508350000003,"lng":120.53422755,"address":"彰化縣田尾鄉張厝巷73號","hasBabyChanging":false,"hasAccessible":false,"source":"OpenStreetMap","updatedAt":"2026-06-11T15:30:47.254Z","facilityType":"farm","facilityLabel":"🌾 休閒農場","phone":"+886 4- 822-3535","website":"https://www.tenway.com.tw/","wheelchair":false,"paid":null,"needsAddr":false},{"id":737031064,"name":"復育公園","lat":23.911765850000002,"lng":120.475426,"address":null,"hasBabyChanging":false,"hasAccessible":false,"source":"OpenStreetMap","updatedAt":"2026-06-11T15:30:47.254Z","facilityType":"park","facilityLabel":"🌳 小型公園","phone":null,"website":null,"wheelchair":false,"paid":null,"needsAddr":true},{"id":1040870263,"name":"好田森林","lat":23.89419205,"lng":120.53477925,"address":null,"hasBabyChanging":false,"hasAccessible":false,"source":"OpenStreetMap","updatedAt":"2026-06-11T15:30:47.254Z","facilityType":"park","facilityLabel":"🌳 中型公園","phone":null,"website":null,"wheelchair":false,"paid":null,"needsAddr":true},{"id":1052175738,"name":"光復路三段435巷","lat":23.89578755,"lng":120.5207398,"address":null,"hasBabyChanging":false,"hasAccessible":false,"source":"OpenStreetMap","updatedAt":"2026-06-11T15:30:47.254Z","facilityType":"culture","facilityLabel":"🎨 文化","phone":null,"website":null,"wheelchair":false,"paid":null,"needsAddr":true},{"id":1508136468,"name":"花與樹博物館","lat":23.88867405,"lng":120.5349936,"address":"彰化縣田尾鄉光復路二段575號","hasBabyChanging":false,"hasAccessible":false,"source":"OpenStreetMap","updatedAt":"2026-06-11T15:30:47.254Z","facilityType":"science","facilityLabel":"🔬 科學館","phone":null,"website":null,"wheelchair":false,"paid":null,"needsAddr":false},{"id":20619012,"name":"海陸豐運動公園","lat":23.9212663,"lng":120.50122045,"address":null,"hasBabyChanging":false,"hasAccessible":false,"source":"OpenStreetMap","updatedAt":"2026-06-11T15:30:47.254Z","facilityType":"park","facilityLabel":"🌳 中型公園","phone":null,"website":null,"wheelchair":false,"paid":null,"needsAddr":true},{"id":734811054,"name":"戰車公園","lat":23.8410422,"lng":120.45662785,"address":"523彰化縣埤頭鄉庄尾路20號","hasBabyChanging":false,"hasAccessible":false,"source":"OpenStreetMap","updatedAt":"2026-06-11T08:39:29.880Z","facilityType":"park","facilityLabel":"🌳 小型公園","phone":null,"website":null,"wheelchair":false,"paid":null,"needsAddr":false},{"id":735086376,"name":"埤頭公園","lat":23.89400845,"lng":120.47462045,"address":"523彰化縣埤頭鄉埤頭路123號","hasBabyChanging":false,"hasAccessible":false,"source":"OpenStreetMap","updatedAt":"2026-06-11T08:39:29.880Z","facilityType":"park","facilityLabel":"🌳 小型公園","phone":null,"website":null,"wheelchair":false,"paid":null,"needsAddr":false},{"id":737031064,"name":"復育公園","lat":23.911765850000002,"lng":120.475426,"address":null,"hasBabyChanging":false,"hasAccessible":false,"source":"OpenStreetMap","updatedAt":"2026-06-11T08:39:29.880Z","facilityType":"park","facilityLabel":"🌳 小型公園","phone":null,"website":null,"wheelchair":false,"paid":null,"needsAddr":true},{"id":739477591,"name":"牛稠仔公園","lat":23.87127495,"lng":120.48081775,"address":"埤頭鄉","hasBabyChanging":false,"hasAccessible":false,"source":"OpenStreetMap","updatedAt":"2026-06-11T08:39:29.880Z","facilityType":"park","facilityLabel":"🌳 小型公園","phone":null,"website":null,"wheelchair":false,"paid":null,"needsAddr":false},{"id":1253542458,"name":"中和村協吉亭","lat":23.84281725,"lng":120.45645485,"address":null,"hasBabyChanging":false,"hasAccessible":false,"source":"OpenStreetMap","updatedAt":"2026-06-11T08:39:29.880Z","facilityType":"park","facilityLabel":"🌳 小型公園","phone":null,"website":null,"wheelchair":false,"paid":null,"needsAddr":true},{"id":1385634737,"name":"中和村鹿府亭","lat":23.845696750000002,"lng":120.4581144,"address":null,"hasBabyChanging":false,"hasAccessible":false,"source":"OpenStreetMap","updatedAt":"2026-06-11T08:39:29.880Z","facilityType":"park","facilityLabel":"🌳 小型公園","phone":null,"website":null,"wheelchair":false,"paid":null,"needsAddr":true},{"id":1455736348,"name":"樂米公園","lat":23.888586949999997,"lng":120.4594759,"address":null,"hasBabyChanging":false,"hasAccessible":false,"source":"OpenStreetMap","updatedAt":"2026-06-11T08:39:29.880Z","facilityType":"park","facilityLabel":"🌳 小型公園","phone":null,"website":null,"wheelchair":false,"paid":null,"needsAddr":true},{"id":1467035771,"name":"豐崙公園","lat":23.91891375,"lng":120.45942314999999,"address":null,"hasBabyChanging":false,"hasAccessible":false,"source":"OpenStreetMap","updatedAt":"2026-06-11T08:39:29.880Z","facilityType":"park","facilityLabel":"🌳 中型公園","phone":null,"website":null,"wheelchair":false,"paid":null,"needsAddr":true},{"id":1467556044,"name":"興安街公園","lat":23.89358025,"lng":120.46178535,"address":null,"hasBabyChanging":false,"hasAccessible":false,"source":"OpenStreetMap","updatedAt":"2026-06-11T08:39:29.880Z","facilityType":"park","facilityLabel":"🌳 小型公園","phone":null,"website":null,"wheelchair":false,"paid":null,"needsAddr":true},{"id":259899813,"name":"溪州公園-公園區","lat":23.8412661,"lng":120.49845075,"address":null,"hasBabyChanging":false,"hasAccessible":false,"source":"OpenStreetMap","updatedAt":"2026-06-11T08:39:29.880Z","facilityType":"park","facilityLabel":"🌳 大型公園","phone":null,"website":null,"wheelchair":false,"paid":null,"needsAddr":true},{"id":288655894,"name":"溪州公園-森林區","lat":23.83611725,"lng":120.50461759999999,"address":null,"hasBabyChanging":false,"hasAccessible":false,"source":"OpenStreetMap","updatedAt":"2026-06-11T08:39:29.880Z","facilityType":"park","facilityLabel":"🌳 超大型公園","phone":null,"website":null,"wheelchair":false,"paid":null,"needsAddr":true},{"id":734476881,"name":"溪洲運動公園","lat":23.85078055,"lng":120.4835903,"address":null,"hasBabyChanging":false,"hasAccessible":false,"source":"OpenStreetMap","updatedAt":"2026-06-11T08:39:29.880Z","facilityType":"park","facilityLabel":"🌳 中型公園","phone":null,"website":null,"wheelchair":false,"paid":null,"needsAddr":true},{"id":734811052,"name":"詹園運動公園","lat":23.834970249999998,"lng":120.54249659999999,"address":"524彰化縣溪州鄉中西路二段297號","hasBabyChanging":false,"hasAccessible":false,"source":"OpenStreetMap","updatedAt":"2026-06-11T08:39:29.880Z","facilityType":"park","facilityLabel":"🌳 小型公園","phone":null,"website":null,"wheelchair":false,"paid":null,"needsAddr":false},{"id":741585626,"name":"溪州森林公園","lat":23.851188049999998,"lng":120.4917279,"address":"524彰化縣溪州鄉公園路95號","hasBabyChanging":false,"hasAccessible":false,"source":"OpenStreetMap","updatedAt":"2026-06-11T08:39:29.880Z","facilityType":"park","facilityLabel":"🌳 中型公園","phone":null,"website":null,"wheelchair":false,"paid":null,"needsAddr":false},{"id":1027059835,"name":"萬景景觀","lat":23.85930665,"lng":120.50684925,"address":null,"hasBabyChanging":false,"hasAccessible":false,"source":"OpenStreetMap","updatedAt":"2026-06-11T08:39:29.880Z","facilityType":"park","facilityLabel":"🌳 大型公園","phone":null,"website":null,"wheelchair":false,"paid":null,"needsAddr":true},{"id":1252234118,"name":"登山路四段435巷","lat":23.852257,"lng":120.50270495000001,"address":null,"hasBabyChanging":false,"hasAccessible":false,"source":"OpenStreetMap","updatedAt":"2026-06-11T08:39:29.880Z","facilityType":"culture","facilityLabel":"🎨 文化","phone":null,"website":null,"wheelchair":false,"paid":null,"needsAddr":true},{"id":1252757790,"name":"坑厝五分車站","lat":23.84746105,"lng":120.47767125,"address":null,"hasBabyChanging":false,"hasAccessible":false,"source":"OpenStreetMap","updatedAt":"2026-06-11T08:39:29.880Z","facilityType":"park","facilityLabel":"🌳 小型公園","phone":null,"website":null,"wheelchair":false,"paid":null,"needsAddr":true},{"id":1252757791,"name":"溪厝公園","lat":23.8458026,"lng":120.4791668,"address":null,"hasBabyChanging":false,"hasAccessible":false,"source":"OpenStreetMap","updatedAt":"2026-06-11T08:39:29.880Z","facilityType":"park","facilityLabel":"🌳 小型公園","phone":null,"website":null,"wheelchair":false,"paid":null,"needsAddr":true},{"id":734829120,"name":"九龍大榕公","lat":23.82854365,"lng":120.4479561,"address":null,"hasBabyChanging":false,"hasAccessible":false,"source":"OpenStreetMap","updatedAt":"2026-06-11T08:39:29.880Z","facilityType":"park","facilityLabel":"🌳 中型公園","phone":null,"website":null,"wheelchair":false,"paid":null,"needsAddr":true},{"id":735392554,"name":"五庄公園","lat":23.87353405,"lng":120.4316459,"address":null,"hasBabyChanging":false,"hasAccessible":false,"source":"OpenStreetMap","updatedAt":"2026-06-11T08:39:29.880Z","facilityType":"park","facilityLabel":"🌳 小型公園","phone":null,"website":null,"wheelchair":false,"paid":null,"needsAddr":true},{"id":874486516,"name":"義進牧場","lat":23.84115755,"lng":120.4239058,"address":null,"hasBabyChanging":false,"hasAccessible":false,"source":"OpenStreetMap","updatedAt":"2026-06-11T08:39:29.880Z","facilityType":"farm","facilityLabel":"🌾 休閒農場","phone":null,"website":null,"wheelchair":false,"paid":null,"needsAddr":true},{"id":1113731149,"name":"竹元公園","lat":23.8581334,"lng":120.4239597,"address":null,"hasBabyChanging":false,"hasAccessible":false,"source":"OpenStreetMap","updatedAt":"2026-06-11T08:39:29.880Z","facilityType":"park","facilityLabel":"🌳 小型公園","phone":null,"website":null,"wheelchair":false,"paid":null,"needsAddr":true},{"id":1113731150,"name":"竹塘公園","lat":23.8573999,"lng":120.42484205,"address":null,"hasBabyChanging":false,"hasAccessible":false,"source":"OpenStreetMap","updatedAt":"2026-06-11T08:39:29.880Z","facilityType":"park","facilityLabel":"🌳 小型公園","phone":null,"website":null,"wheelchair":false,"paid":null,"needsAddr":true},{"id":1113731151,"name":"竹塘公園","lat":23.85617925,"lng":120.42529809999999,"address":null,"hasBabyChanging":false,"hasAccessible":false,"source":"OpenStreetMap","updatedAt":"2026-06-11T08:39:29.880Z","facilityType":"park","facilityLabel":"🌳 小型公園","phone":null,"website":null,"wheelchair":false,"paid":null,"needsAddr":true},{"id":1256524077,"name":"金牛山麓公園","lat":23.88712215,"lng":120.41179035,"address":null,"hasBabyChanging":false,"hasAccessible":false,"source":"OpenStreetMap","updatedAt":"2026-06-11T08:39:29.880Z","facilityType":"park","facilityLabel":"🌳 中型公園","phone":null,"website":null,"wheelchair":false,"paid":null,"needsAddr":true},{"id":1464563714,"name":"大湖公園","lat":23.862862149999998,"lng":120.44383615000001,"address":null,"hasBabyChanging":false,"hasAccessible":false,"source":"OpenStreetMap","updatedAt":"2026-06-11T08:39:29.880Z","facilityType":"park","facilityLabel":"🌳 小型公園","phone":null,"website":null,"wheelchair":false,"paid":null,"needsAddr":true},{"id":602914234,"name":"大城運動公園","lat":23.8576784,"lng":120.321677,"address":null,"hasBabyChanging":false,"hasAccessible":false,"source":"OpenStreetMap","updatedAt":"2026-06-11T08:39:29.880Z","facilityType":"park","facilityLabel":"🌳 中型公園","phone":null,"website":null,"wheelchair":false,"paid":null,"needsAddr":true},{"id":832486319,"name":"大城演藝廳","lat":23.85315965,"lng":120.3204964,"address":null,"hasBabyChanging":false,"hasAccessible":false,"source":"OpenStreetMap","updatedAt":"2026-06-11T08:39:29.880Z","facilityType":"culture","facilityLabel":"🎨 文化","phone":null,"website":null,"wheelchair":false,"paid":null,"needsAddr":true},{"id":1213463988,"name":"大城追風公園","lat":23.859754600000002,"lng":120.32214635,"address":null,"hasBabyChanging":false,"hasAccessible":false,"source":"OpenStreetMap","updatedAt":"2026-06-11T08:39:29.880Z","facilityType":"park","facilityLabel":"🌳 中型公園","phone":null,"website":null,"wheelchair":false,"paid":null,"needsAddr":true},{"id":1233474503,"name":"興山公園","lat":23.83143305,"lng":120.31777825,"address":null,"hasBabyChanging":false,"hasAccessible":false,"source":"OpenStreetMap","updatedAt":"2026-06-11T08:39:29.880Z","facilityType":"park","facilityLabel":"🌳 小型公園","phone":null,"website":null,"wheelchair":false,"paid":null,"needsAddr":true},{"id":312430761,"name":"二溪路草二段435巷","lat":23.9592028,"lng":120.382223,"address":null,"hasBabyChanging":false,"hasAccessible":false,"source":"OpenStreetMap","updatedAt":"2026-06-11T08:39:29.880Z","facilityType":"culture","facilityLabel":"🎨 文化","phone":null,"website":null,"wheelchair":false,"paid":null,"needsAddr":true},{"id":480867299,"name":"芳苑運動公園","lat":23.9071376,"lng":120.3470765,"address":null,"hasBabyChanging":false,"hasAccessible":false,"source":"OpenStreetMap","updatedAt":"2026-06-11T08:39:29.880Z","facilityType":"park","facilityLabel":"🌳 小型公園","phone":null,"website":null,"wheelchair":false,"paid":null,"needsAddr":true},{"id":584410471,"name":"善牧牧場","lat":24.0075924,"lng":120.38765129999999,"address":null,"hasBabyChanging":false,"hasAccessible":false,"source":"OpenStreetMap","updatedAt":"2026-06-11T08:39:29.880Z","facilityType":"farm","facilityLabel":"🌾 休閒農場","phone":null,"website":null,"wheelchair":false,"paid":null,"needsAddr":true},{"id":691987871,"name":"草湖三角公園","lat":23.96032245,"lng":120.3822993,"address":null,"hasBabyChanging":false,"hasAccessible":false,"source":"OpenStreetMap","updatedAt":"2026-06-11T08:39:29.880Z","facilityType":"park","facilityLabel":"🌳 小型公園","phone":null,"website":null,"wheelchair":false,"paid":null,"needsAddr":true},{"id":1030251664,"name":"好厝邊風電廣場","lat":23.966583749999998,"lng":120.3396252,"address":null,"hasBabyChanging":false,"hasAccessible":false,"source":"OpenStreetMap","updatedAt":"2026-06-11T08:39:29.880Z","facilityType":"park","facilityLabel":"🌳 小型公園","phone":null,"website":null,"wheelchair":false,"paid":null,"needsAddr":true},{"id":1233469736,"name":"福海公園","lat":23.95360985,"lng":120.33472255000001,"address":null,"hasBabyChanging":false,"hasAccessible":false,"source":"OpenStreetMap","updatedAt":"2026-06-11T08:39:29.880Z","facilityType":"park","facilityLabel":"🌳 小型公園","phone":null,"website":null,"wheelchair":false,"paid":null,"needsAddr":true}]}