{"city":"花蓮縣","category":"family","updatedAt":"2026-06-11T08:39:29.880Z","rev":14,"count":238,"items":[{"id":3837462557,"name":"舊鐵道行人徒步區","lat":23.9780287,"lng":121.6064628,"address":null,"hasBabyChanging":false,"hasAccessible":true,"source":"OpenStreetMap","updatedAt":"2026-06-11T08:39:29.880Z","facilityType":"railway","facilityLabel":"🚂 鐵道交通","phone":null,"website":null,"wheelchair":true,"paid":null,"needsAddr":true},{"id":3878279445,"name":"漁產加工-觀光工廠","lat":23.9986911,"lng":121.6409646,"address":null,"hasBabyChanging":false,"hasAccessible":false,"source":"OpenStreetMap","updatedAt":"2026-06-11T08:39:29.880Z","facilityType":"factory","facilityLabel":"🏭 觀光工廠","phone":null,"website":null,"wheelchair":false,"paid":null,"needsAddr":true},{"id":1236776171,"name":"花蓮港親水遊憩區","lat":23.9935643,"lng":121.63631605,"address":null,"hasBabyChanging":false,"hasAccessible":false,"source":"OpenStreetMap","updatedAt":"2026-06-11T08:39:29.880Z","facilityType":"water","facilityLabel":"💧 戲水親水","phone":null,"website":null,"wheelchair":false,"paid":null,"needsAddr":true},{"id":4418490231,"name":"木樂館","lat":23.9769368,"lng":121.6041718,"address":null,"hasBabyChanging":false,"hasAccessible":false,"source":"OpenStreetMap","updatedAt":"2026-06-11T08:39:29.880Z","facilityType":"diy","facilityLabel":"🧶 手作DIY","phone":null,"website":null,"wheelchair":false,"paid":null,"needsAddr":true},{"id":4418490232,"name":"那魯灣手藝工坊","lat":23.9770177,"lng":121.604101,"address":null,"hasBabyChanging":false,"hasAccessible":false,"source":"OpenStreetMap","updatedAt":"2026-06-11T08:39:29.880Z","facilityType":"diy","facilityLabel":"🧶 手作DIY","phone":null,"website":null,"wheelchair":false,"paid":null,"needsAddr":true},{"id":6115545373,"name":"臺灣國寶美術館","lat":23.9922708,"lng":121.6260659,"address":"花蓮縣花蓮市永興路18號","hasBabyChanging":false,"hasAccessible":false,"source":"OpenStreetMap","updatedAt":"2026-06-11T08:39:29.880Z","facilityType":"culture","facilityLabel":"🖼️ 美術館","phone":"+886 3 822 5588","website":"http://hl-tntam.com","wheelchair":false,"paid":null,"needsAddr":false},{"id":13716363766,"name":"U手作","lat":23.9781985,"lng":121.6093674,"address":null,"hasBabyChanging":false,"hasAccessible":false,"source":"OpenStreetMap","updatedAt":"2026-06-11T08:39:29.880Z","facilityType":"diy","facilityLabel":"🧶 手作DIY","phone":null,"website":null,"wheelchair":false,"paid":null,"needsAddr":true},{"id":90964682,"name":"美崙海濱公園","lat":23.98504575,"lng":121.62654040000001,"address":null,"hasBabyChanging":false,"hasAccessible":false,"source":"OpenStreetMap","updatedAt":"2026-06-11T08:39:29.880Z","facilityType":"park","facilityLabel":"🌳 大型公園","phone":null,"website":null,"wheelchair":false,"paid":null,"needsAddr":true},{"id":91018424,"name":"北濱公園","lat":23.97763235,"lng":121.6180828,"address":null,"hasBabyChanging":false,"hasAccessible":false,"source":"OpenStreetMap","updatedAt":"2026-06-11T08:39:29.880Z","facilityType":"park","facilityLabel":"🌳 大型公園","phone":null,"website":null,"wheelchair":false,"paid":null,"needsAddr":true},{"id":91242667,"name":"南濱公園","lat":23.966863500000002,"lng":121.60960019999999,"address":null,"hasBabyChanging":false,"hasAccessible":false,"source":"OpenStreetMap","updatedAt":"2026-06-11T08:39:29.880Z","facilityType":"park","facilityLabel":"🌳 大型公園","phone":null,"website":null,"wheelchair":false,"paid":null,"needsAddr":true},{"id":91561567,"name":"白燈塔公園","lat":23.9951051,"lng":121.63050559999999,"address":null,"hasBabyChanging":false,"hasAccessible":false,"source":"OpenStreetMap","updatedAt":"2026-06-11T08:39:29.880Z","facilityType":"park","facilityLabel":"🌳 小型公園","phone":null,"website":null,"wheelchair":false,"paid":null,"needsAddr":true},{"id":92020274,"name":"中琉公園","lat":23.9971757,"lng":121.5999889,"address":"花蓮縣花蓮市富裕十一街","hasBabyChanging":false,"hasAccessible":false,"source":"OpenStreetMap","updatedAt":"2026-06-11T08:39:29.880Z","facilityType":"park","facilityLabel":"🌳 中型公園","phone":null,"website":null,"wheelchair":false,"paid":null,"needsAddr":false},{"id":96698639,"name":"花蓮縣石雕博物館","lat":23.989568849999998,"lng":121.62837515,"address":null,"hasBabyChanging":false,"hasAccessible":false,"source":"OpenStreetMap","updatedAt":"2026-06-11T08:39:29.880Z","facilityType":"science","facilityLabel":"🔬 科學館","phone":null,"website":null,"wheelchair":false,"paid":null,"needsAddr":true},{"id":132937556,"name":"花蓮站前公園","lat":23.991856,"lng":121.60168225000001,"address":null,"hasBabyChanging":false,"hasAccessible":false,"source":"OpenStreetMap","updatedAt":"2026-06-11T08:39:29.880Z","facilityType":"park","facilityLabel":"🌳 小型公園","phone":null,"website":null,"wheelchair":false,"paid":null,"needsAddr":true},{"id":145564265,"name":"中山公園","lat":23.9900175,"lng":121.600746,"address":null,"hasBabyChanging":false,"hasAccessible":false,"source":"OpenStreetMap","updatedAt":"2026-06-11T08:39:29.880Z","facilityType":"park","facilityLabel":"🌳 中型公園","phone":null,"website":null,"wheelchair":false,"paid":null,"needsAddr":true},{"id":246646953,"name":"舊鐵道行人徒步區","lat":23.977955450000003,"lng":121.605475,"address":null,"hasBabyChanging":false,"hasAccessible":false,"source":"OpenStreetMap","updatedAt":"2026-06-11T08:39:29.880Z","facilityType":"railway","facilityLabel":"🚂 鐵道交通","phone":null,"website":null,"wheelchair":false,"paid":null,"needsAddr":true},{"id":277758349,"name":"台肥花蓮深層海水園區","lat":24.006390449999998,"lng":121.6417634,"address":"970024花蓮縣花蓮市華東15號","hasBabyChanging":false,"hasAccessible":false,"source":"OpenStreetMap","updatedAt":"2026-06-11T08:39:29.880Z","facilityType":"water","facilityLabel":"💧 戲水親水","phone":"+886 3 822 3181","website":"https://www.taifer.com.tw/DPark","wheelchair":false,"paid":null,"needsAddr":false},{"id":289461188,"name":"圓環小公圓","lat":23.99144425,"lng":121.6264701,"address":null,"hasBabyChanging":false,"hasAccessible":false,"source":"OpenStreetMap","updatedAt":"2026-06-11T08:39:29.880Z","facilityType":"park","facilityLabel":"🌳 小型公園","phone":null,"website":null,"wheelchair":false,"paid":null,"needsAddr":true},{"id":311215841,"name":"科學館","lat":24.00955835,"lng":121.6198861,"address":null,"hasBabyChanging":false,"hasAccessible":false,"source":"OpenStreetMap","updatedAt":"2026-06-11T08:39:29.880Z","facilityType":"science","facilityLabel":"🔬 科學館","phone":null,"website":null,"wheelchair":false,"paid":null,"needsAddr":true},{"id":334643056,"name":"烏克麗麗公園","lat":23.9777831,"lng":121.61517975000001,"address":null,"hasBabyChanging":false,"hasAccessible":false,"source":"OpenStreetMap","updatedAt":"2026-06-11T08:39:29.880Z","facilityType":"park","facilityLabel":"🌳 小型公園","phone":null,"website":null,"wheelchair":false,"paid":null,"needsAddr":true},{"id":337006822,"name":"碧雲莊林芥公園","lat":23.99725695,"lng":121.57348915,"address":null,"hasBabyChanging":false,"hasAccessible":false,"source":"OpenStreetMap","updatedAt":"2026-06-11T08:39:29.880Z","facilityType":"park","facilityLabel":"🌳 中型公園","phone":null,"website":null,"wheelchair":false,"paid":null,"needsAddr":true},{"id":558121697,"name":"花蓮縣文化局園區","lat":23.98963925,"lng":121.6294494,"address":null,"hasBabyChanging":false,"hasAccessible":false,"source":"OpenStreetMap","updatedAt":"2026-06-11T08:39:29.880Z","facilityType":"park","facilityLabel":"🌳 中型公園","phone":null,"website":null,"wheelchair":false,"paid":null,"needsAddr":true},{"id":356785708,"name":"美崙溪畔日式宿舍","lat":23.980458300000002,"lng":121.61303645000001,"address":null,"hasBabyChanging":false,"hasAccessible":false,"source":"OpenStreetMap","updatedAt":"2026-06-11T08:39:29.880Z","facilityType":"park","facilityLabel":"🌳 中型公園","phone":null,"website":null,"wheelchair":false,"paid":null,"needsAddr":true},{"id":356785720,"name":"臥松園區","lat":23.9827721,"lng":121.61614505,"address":null,"hasBabyChanging":false,"hasAccessible":false,"source":"OpenStreetMap","updatedAt":"2026-06-11T08:39:29.880Z","facilityType":"park","facilityLabel":"🌳 小型公園","phone":null,"website":"https://www.facebook.com/wosonoldpine/","wheelchair":false,"paid":false,"needsAddr":true},{"id":372075405,"name":"德興運動公園","lat":24.00570135,"lng":121.5810404,"address":null,"hasBabyChanging":false,"hasAccessible":false,"source":"OpenStreetMap","updatedAt":"2026-06-11T08:39:29.880Z","facilityType":"park","facilityLabel":"🌳 大型公園","phone":null,"website":null,"wheelchair":false,"paid":null,"needsAddr":true},{"id":375814721,"name":"原野牧場","lat":24.02384645,"lng":121.6339401,"address":null,"hasBabyChanging":false,"hasAccessible":false,"source":"OpenStreetMap","updatedAt":"2026-06-11T08:39:29.880Z","facilityType":"farm","facilityLabel":"🌾 休閒農場","phone":null,"website":null,"wheelchair":false,"paid":null,"needsAddr":true},{"id":375886408,"name":"鐵道小舖(舊人事室)","lat":23.9749814,"lng":121.6101936,"address":null,"hasBabyChanging":false,"hasAccessible":false,"source":"OpenStreetMap","updatedAt":"2026-06-11T08:39:29.880Z","facilityType":"railway","facilityLabel":"🚂 鐵道交通","phone":null,"website":null,"wheelchair":false,"paid":null,"needsAddr":true},{"id":377074887,"name":"花蓮文化創意產業園區","lat":23.97674095,"lng":121.60439585,"address":null,"hasBabyChanging":false,"hasAccessible":false,"source":"OpenStreetMap","updatedAt":"2026-06-11T08:39:29.880Z","facilityType":"culture","facilityLabel":"🎨 文化","phone":null,"website":null,"wheelchair":false,"paid":null,"needsAddr":true},{"id":379303910,"name":"龍鳳公園","lat":23.9930923,"lng":121.62419840000001,"address":null,"hasBabyChanging":false,"hasAccessible":false,"source":"OpenStreetMap","updatedAt":"2026-06-11T08:39:29.880Z","facilityType":"park","facilityLabel":"🌳 小型公園","phone":null,"website":null,"wheelchair":false,"paid":null,"needsAddr":true},{"id":387834587,"name":"白色沙灘","lat":23.97466355,"lng":121.61576414999999,"address":"花蓮縣花蓮市海濱街85號","hasBabyChanging":false,"hasAccessible":false,"source":"OpenStreetMap","updatedAt":"2026-06-11T08:39:29.880Z","facilityType":"water","facilityLabel":"💧 戲水親水","phone":"+886 963 303 070","website":null,"wheelchair":false,"paid":null,"needsAddr":false},{"id":446123821,"name":"科學館","lat":23.98644265,"lng":121.6248869,"address":null,"hasBabyChanging":false,"hasAccessible":false,"source":"OpenStreetMap","updatedAt":"2026-06-11T08:39:29.880Z","facilityType":"science","facilityLabel":"🔬 科學館","phone":null,"website":null,"wheelchair":false,"paid":null,"needsAddr":true},{"id":493693317,"name":"曼波生態休閒園區","lat":24.02498405,"lng":121.63057205,"address":null,"hasBabyChanging":false,"hasAccessible":false,"source":"OpenStreetMap","updatedAt":"2026-06-11T08:39:29.880Z","facilityType":"park","facilityLabel":"🌳 中型公園","phone":null,"website":null,"wheelchair":false,"paid":null,"needsAddr":true},{"id":522125177,"name":"斑馬公園","lat":23.9788599,"lng":121.6020287,"address":null,"hasBabyChanging":false,"hasAccessible":false,"source":"OpenStreetMap","updatedAt":"2026-06-11T08:39:29.880Z","facilityType":"park","facilityLabel":"🌳 小型公園","phone":null,"website":null,"wheelchair":false,"paid":null,"needsAddr":true},{"id":523193065,"name":"長頸鹿親子公園","lat":23.983943699999998,"lng":121.6065873,"address":null,"hasBabyChanging":false,"hasAccessible":false,"source":"OpenStreetMap","updatedAt":"2026-06-11T08:39:29.880Z","facilityType":"park","facilityLabel":"🌳 小型公園","phone":null,"website":null,"wheelchair":false,"paid":null,"needsAddr":true},{"id":556485678,"name":"田埔生態公園","lat":23.9773009,"lng":121.596502,"address":null,"hasBabyChanging":false,"hasAccessible":false,"source":"OpenStreetMap","updatedAt":"2026-06-11T08:39:29.880Z","facilityType":"park","facilityLabel":"🌳 中型公園","phone":null,"website":null,"wheelchair":false,"paid":null,"needsAddr":true},{"id":558121696,"name":"美崙溪河濱公園","lat":23.98164115,"lng":121.61654444999999,"address":null,"hasBabyChanging":false,"hasAccessible":false,"source":"OpenStreetMap","updatedAt":"2026-06-11T08:39:29.880Z","facilityType":"park","facilityLabel":"🌳 中型公園","phone":null,"website":null,"wheelchair":false,"paid":null,"needsAddr":true},{"id":558121974,"name":"百榕田埔公園","lat":23.9741102,"lng":121.5914008,"address":null,"hasBabyChanging":false,"hasAccessible":false,"source":"OpenStreetMap","updatedAt":"2026-06-11T08:39:29.880Z","facilityType":"park","facilityLabel":"🌳 小型公園","phone":null,"website":null,"wheelchair":false,"paid":null,"needsAddr":true},{"id":558122301,"name":"主權公園","lat":23.9756431,"lng":121.59378075000001,"address":null,"hasBabyChanging":false,"hasAccessible":false,"source":"OpenStreetMap","updatedAt":"2026-06-11T08:39:29.880Z","facilityType":"park","facilityLabel":"🌳 小型公園","phone":null,"website":null,"wheelchair":false,"paid":null,"needsAddr":true},{"id":579424303,"name":"親子親水廣場","lat":23.97738575,"lng":121.61786430000001,"address":null,"hasBabyChanging":false,"hasAccessible":false,"source":"OpenStreetMap","updatedAt":"2026-06-11T08:39:29.880Z","facilityType":"water","facilityLabel":"💧 戲水親水","phone":null,"website":null,"wheelchair":false,"paid":null,"needsAddr":true},{"id":594122876,"name":"中韓扶輪公園","lat":23.9877248,"lng":121.60270485,"address":null,"hasBabyChanging":false,"hasAccessible":false,"source":"OpenStreetMap","updatedAt":"2026-06-11T08:39:29.880Z","facilityType":"park","facilityLabel":"🌳 小型公園","phone":null,"website":null,"wheelchair":false,"paid":null,"needsAddr":true},{"id":614358458,"name":"大本運動公園","lat":24.0036371,"lng":121.6331347,"address":null,"hasBabyChanging":false,"hasAccessible":false,"source":"OpenStreetMap","updatedAt":"2026-06-11T08:39:29.880Z","facilityType":"park","facilityLabel":"🌳 大型公園","phone":null,"website":null,"wheelchair":false,"paid":null,"needsAddr":true},{"id":639258103,"name":"科學館","lat":24.0003094,"lng":121.5755407,"address":null,"hasBabyChanging":false,"hasAccessible":false,"source":"OpenStreetMap","updatedAt":"2026-06-11T08:39:29.880Z","facilityType":"science","facilityLabel":"🔬 科學館","phone":null,"website":null,"wheelchair":false,"paid":null,"needsAddr":true},{"id":659641026,"name":"德興運動公園","lat":24.0051298,"lng":121.58398305,"address":null,"hasBabyChanging":false,"hasAccessible":false,"source":"OpenStreetMap","updatedAt":"2026-06-11T08:39:29.880Z","facilityType":"park","facilityLabel":"🌳 中型公園","phone":null,"website":null,"wheelchair":false,"paid":null,"needsAddr":true},{"id":679495350,"name":"球崙運動公園","lat":23.9996752,"lng":121.62210010000001,"address":null,"hasBabyChanging":false,"hasAccessible":false,"source":"OpenStreetMap","updatedAt":"2026-06-11T08:39:29.880Z","facilityType":"park","facilityLabel":"🌳 中型公園","phone":null,"website":null,"wheelchair":false,"paid":null,"needsAddr":true},{"id":691548049,"name":"花女中庭","lat":23.9792337,"lng":121.61547015,"address":null,"hasBabyChanging":false,"hasAccessible":false,"source":"OpenStreetMap","updatedAt":"2026-06-11T08:39:29.880Z","facilityType":"park","facilityLabel":"🌳 小型公園","phone":null,"website":null,"wheelchair":false,"paid":null,"needsAddr":true},{"id":705047648,"name":"泗水園","lat":23.985945700000002,"lng":121.60316399999999,"address":null,"hasBabyChanging":false,"hasAccessible":false,"source":"OpenStreetMap","updatedAt":"2026-06-11T08:39:29.880Z","facilityType":"water","facilityLabel":"💧 戲水親水","phone":null,"website":null,"wheelchair":false,"paid":null,"needsAddr":true},{"id":730809293,"name":"環保公園","lat":24.0140659,"lng":121.64413504999999,"address":null,"hasBabyChanging":false,"hasAccessible":false,"source":"OpenStreetMap","updatedAt":"2026-06-11T08:39:29.880Z","facilityType":"park","facilityLabel":"🌳 中型公園","phone":null,"website":null,"wheelchair":false,"paid":null,"needsAddr":true},{"id":777634028,"name":"國富十街公園","lat":23.98867335,"lng":121.5969402,"address":null,"hasBabyChanging":false,"hasAccessible":false,"source":"OpenStreetMap","updatedAt":"2026-06-11T08:39:29.880Z","facilityType":"park","facilityLabel":"🌳 小型公園","phone":null,"website":null,"wheelchair":false,"paid":null,"needsAddr":true},{"id":922328533,"name":"府前石雕公園","lat":23.9917449,"lng":121.6213096,"address":null,"hasBabyChanging":false,"hasAccessible":false,"source":"OpenStreetMap","updatedAt":"2026-06-11T08:39:29.880Z","facilityType":"park","facilityLabel":"🌳 小型公園","phone":null,"website":null,"wheelchair":false,"paid":null,"needsAddr":true},{"id":973607999,"name":"撒固兒文化祭祀廣場","lat":24.0118679,"lng":121.58324300000001,"address":"花蓮縣花蓮市中山路二段52號","hasBabyChanging":false,"hasAccessible":false,"source":"OpenStreetMap","updatedAt":"2026-06-11T08:39:29.880Z","facilityType":"park","facilityLabel":"🌳 小型公園","phone":null,"website":null,"wheelchair":false,"paid":null,"needsAddr":false},{"id":973608000,"name":"撒固兒國福養生休閒園區","lat":24.01232245,"lng":121.58435475,"address":null,"hasBabyChanging":false,"hasAccessible":false,"source":"OpenStreetMap","updatedAt":"2026-06-11T08:39:29.880Z","facilityType":"park","facilityLabel":"🌳 中型公園","phone":null,"website":null,"wheelchair":false,"paid":null,"needsAddr":true},{"id":999351030,"name":"自由廣場","lat":23.9847258,"lng":121.6043083,"address":null,"hasBabyChanging":false,"hasAccessible":false,"source":"OpenStreetMap","updatedAt":"2026-06-11T08:39:29.880Z","facilityType":"park","facilityLabel":"🌳 小型公園","phone":null,"website":null,"wheelchair":false,"paid":null,"needsAddr":true},{"id":1080860665,"name":"根努夷公園","lat":23.9916225,"lng":121.59441684999999,"address":null,"hasBabyChanging":false,"hasAccessible":false,"source":"OpenStreetMap","updatedAt":"2026-06-11T08:39:29.880Z","facilityType":"park","facilityLabel":"🌳 小型公園","phone":null,"website":null,"wheelchair":false,"paid":null,"needsAddr":true},{"id":1234781381,"name":"花蓮後備軍人公園","lat":23.9902706,"lng":121.63373275000001,"address":null,"hasBabyChanging":false,"hasAccessible":false,"source":"OpenStreetMap","updatedAt":"2026-06-11T08:39:29.880Z","facilityType":"park","facilityLabel":"🌳 小型公園","phone":null,"website":null,"wheelchair":false,"paid":null,"needsAddr":true},{"id":1234784157,"name":"花蓮港觀海平台","lat":23.9797045,"lng":121.62042545,"address":null,"hasBabyChanging":false,"hasAccessible":false,"source":"OpenStreetMap","updatedAt":"2026-06-11T08:39:29.880Z","facilityType":"park","facilityLabel":"🌳 小型公園","phone":null,"website":null,"wheelchair":false,"paid":null,"needsAddr":true},{"id":1234786196,"name":"花蓮縣和平廣場","lat":23.97972705,"lng":121.61895974999999,"address":null,"hasBabyChanging":false,"hasAccessible":false,"source":"OpenStreetMap","updatedAt":"2026-06-11T08:39:29.880Z","facilityType":"park","facilityLabel":"🌳 小型公園","phone":null,"website":null,"wheelchair":false,"paid":null,"needsAddr":true},{"id":1234786198,"name":"花蓮港小公園","lat":23.9803902,"lng":121.6193091,"address":null,"hasBabyChanging":false,"hasAccessible":false,"source":"OpenStreetMap","updatedAt":"2026-06-11T08:39:29.880Z","facilityType":"park","facilityLabel":"🌳 小型公園","phone":null,"website":null,"wheelchair":false,"paid":null,"needsAddr":true},{"id":1236763468,"name":"東大門共融公園","lat":23.97132955,"lng":121.61195355000001,"address":null,"hasBabyChanging":false,"hasAccessible":false,"source":"OpenStreetMap","updatedAt":"2026-06-11T08:39:29.880Z","facilityType":"park","facilityLabel":"🌳 中型公園","phone":null,"website":null,"wheelchair":false,"paid":null,"needsAddr":true},{"id":1241315054,"name":"美崙林園公園","lat":24.00225085,"lng":121.63083525,"address":null,"hasBabyChanging":false,"hasAccessible":false,"source":"OpenStreetMap","updatedAt":"2026-06-11T08:39:29.880Z","facilityType":"park","facilityLabel":"🌳 小型公園","phone":null,"website":null,"wheelchair":false,"paid":null,"needsAddr":true},{"id":1348251269,"name":"萬壽公園","lat":23.98780825,"lng":121.6068126,"address":null,"hasBabyChanging":false,"hasAccessible":false,"source":"OpenStreetMap","updatedAt":"2026-06-11T08:39:29.880Z","facilityType":"park","facilityLabel":"🌳 小型公園","phone":null,"website":null,"wheelchair":false,"paid":null,"needsAddr":true},{"id":1348964022,"name":"花崗山運動公園","lat":23.977009000000002,"lng":121.61432235,"address":null,"hasBabyChanging":false,"hasAccessible":false,"source":"OpenStreetMap","updatedAt":"2026-06-11T08:39:29.880Z","facilityType":"park","facilityLabel":"🌳 中型公園","phone":null,"website":null,"wheelchair":false,"paid":null,"needsAddr":true},{"id":1349959263,"name":"憲兵公園","lat":23.9779015,"lng":121.6111773,"address":null,"hasBabyChanging":false,"hasAccessible":false,"source":"OpenStreetMap","updatedAt":"2026-06-11T08:39:29.880Z","facilityType":"park","facilityLabel":"🌳 小型公園","phone":null,"website":null,"wheelchair":false,"paid":null,"needsAddr":true},{"id":1350322978,"name":"中正公園","lat":23.9847383,"lng":121.61169285,"address":null,"hasBabyChanging":false,"hasAccessible":false,"source":"OpenStreetMap","updatedAt":"2026-06-11T08:39:29.880Z","facilityType":"park","facilityLabel":"🌳 小型公園","phone":null,"website":null,"wheelchair":false,"paid":null,"needsAddr":true},{"id":1442006887,"name":"七腳川公園","lat":23.963841600000002,"lng":121.6047964,"address":null,"hasBabyChanging":false,"hasAccessible":false,"source":"OpenStreetMap","updatedAt":"2026-06-11T08:39:29.880Z","facilityType":"park","facilityLabel":"🌳 小型公園","phone":null,"website":null,"wheelchair":false,"paid":null,"needsAddr":true},{"id":1458309044,"name":"美崙溪畔寵物公園","lat":24.007188749999997,"lng":121.57885575,"address":null,"hasBabyChanging":false,"hasAccessible":false,"source":"OpenStreetMap","updatedAt":"2026-06-11T08:39:29.880Z","facilityType":"park","facilityLabel":"🌳 大型公園","phone":null,"website":null,"wheelchair":false,"paid":null,"needsAddr":true},{"id":3326569,"name":"陽光電城園區","lat":23.972496900000003,"lng":121.6109845,"address":null,"hasBabyChanging":false,"hasAccessible":false,"source":"OpenStreetMap","updatedAt":"2026-06-11T08:39:29.880Z","facilityType":"park","facilityLabel":"🌳 中型公園","phone":null,"website":null,"wheelchair":false,"paid":null,"needsAddr":true},{"id":8199567,"name":"江口良三郎紀念公園","lat":23.987987,"lng":121.62961435,"address":null,"hasBabyChanging":false,"hasAccessible":false,"source":"OpenStreetMap","updatedAt":"2026-06-11T08:39:29.880Z","facilityType":"park","facilityLabel":"🌳 中型公園","phone":null,"website":null,"wheelchair":false,"paid":null,"needsAddr":true},{"id":16863496,"name":"花蓮地檢署森林公園","lat":23.98936295,"lng":121.62051915,"address":null,"hasBabyChanging":false,"hasAccessible":false,"source":"OpenStreetMap","updatedAt":"2026-06-11T08:39:29.880Z","facilityType":"park","facilityLabel":"🌳 中型公園","phone":null,"website":null,"wheelchair":false,"paid":null,"needsAddr":true},{"id":18504360,"name":"美崙山休閒運動公園","lat":23.996262950000002,"lng":121.61706255,"address":null,"hasBabyChanging":false,"hasAccessible":false,"source":"OpenStreetMap","updatedAt":"2026-06-11T08:39:29.880Z","facilityType":"park","facilityLabel":"🌳 中型公園","phone":null,"website":null,"wheelchair":false,"paid":null,"needsAddr":true},{"id":3837322959,"name":"林田山-上徒步區","lat":23.7185634,"lng":121.4015704,"address":null,"hasBabyChanging":false,"hasAccessible":true,"source":"OpenStreetMap","updatedAt":"2026-06-11T08:39:29.880Z","facilityType":"theme_park","facilityLabel":"🎡 遊樂園","phone":null,"website":null,"wheelchair":true,"paid":null,"needsAddr":true},{"id":3837332893,"name":"林田山-林業展示館","lat":23.7181852,"lng":121.3995749,"address":null,"hasBabyChanging":false,"hasAccessible":true,"source":"OpenStreetMap","updatedAt":"2026-06-11T08:39:29.880Z","facilityType":"theme_park","facilityLabel":"🎡 遊樂園","phone":null,"website":null,"wheelchair":true,"paid":null,"needsAddr":true},{"id":3837362457,"name":"林田山-下徒步區","lat":23.7180329,"lng":121.3992208,"address":null,"hasBabyChanging":false,"hasAccessible":true,"source":"OpenStreetMap","updatedAt":"2026-06-11T08:39:29.880Z","facilityType":"theme_park","facilityLabel":"🎡 遊樂園","phone":null,"website":null,"wheelchair":true,"paid":null,"needsAddr":true},{"id":8871262574,"name":"華哥雕刻工坊","lat":23.752826,"lng":121.4674849,"address":null,"hasBabyChanging":false,"hasAccessible":false,"source":"OpenStreetMap","updatedAt":"2026-06-11T08:39:29.880Z","facilityType":"diy","facilityLabel":"🧶 手作DIY","phone":null,"website":null,"wheelchair":false,"paid":null,"needsAddr":true},{"id":288037665,"name":"鳳凰公園","lat":23.755771449999997,"lng":121.430825,"address":null,"hasBabyChanging":false,"hasAccessible":false,"source":"OpenStreetMap","updatedAt":"2026-06-11T08:39:29.880Z","facilityType":"park","facilityLabel":"🌳 中型公園","phone":null,"website":null,"wheelchair":false,"paid":null,"needsAddr":true},{"id":420303039,"name":"教育公園","lat":23.7472864,"lng":121.45023405,"address":null,"hasBabyChanging":false,"hasAccessible":false,"source":"OpenStreetMap","updatedAt":"2026-06-11T08:39:29.880Z","facilityType":"park","facilityLabel":"🌳 小型公園","phone":null,"website":null,"wheelchair":false,"paid":null,"needsAddr":true},{"id":557611491,"name":"大榮一村公園","lat":23.745142700000002,"lng":121.4593462,"address":null,"hasBabyChanging":false,"hasAccessible":false,"source":"OpenStreetMap","updatedAt":"2026-06-11T08:39:29.880Z","facilityType":"park","facilityLabel":"🌳 小型公園","phone":null,"website":null,"wheelchair":false,"paid":null,"needsAddr":true},{"id":558121088,"name":"鳳林公園","lat":23.747110999999997,"lng":121.45155940000001,"address":null,"hasBabyChanging":false,"hasAccessible":false,"source":"OpenStreetMap","updatedAt":"2026-06-11T08:39:29.880Z","facilityType":"park","facilityLabel":"🌳 小型公園","phone":null,"website":null,"wheelchair":false,"paid":null,"needsAddr":true},{"id":558121155,"name":"鳳林公路公園","lat":23.76173235,"lng":121.45535985000001,"address":null,"hasBabyChanging":false,"hasAccessible":false,"source":"OpenStreetMap","updatedAt":"2026-06-11T08:39:29.880Z","facilityType":"park","facilityLabel":"🌳 中型公園","phone":null,"website":null,"wheelchair":false,"paid":null,"needsAddr":true},{"id":771024302,"name":"新光兆豐休閒農場遊客中心","lat":23.80134925,"lng":121.4645209,"address":null,"hasBabyChanging":false,"hasAccessible":false,"source":"OpenStreetMap","updatedAt":"2026-06-11T08:39:29.880Z","facilityType":"farm","facilityLabel":"🌾 休閒農場","phone":null,"website":null,"wheelchair":false,"paid":null,"needsAddr":true},{"id":771190246,"name":"林田山林業文化園區","lat":23.71730145,"lng":121.3992904,"address":"花蓮縣鳳林鎮鳳林鎮森榮里林森路99巷99號","hasBabyChanging":false,"hasAccessible":false,"source":"OpenStreetMap","updatedAt":"2026-06-11T08:39:29.880Z","facilityType":"park","facilityLabel":"🌳 大型公園","phone":"+886 3 875 2378","website":"https://www.forest.gov.tw/0000221","wheelchair":false,"paid":null,"needsAddr":false},{"id":771190259,"name":"林田山森林鐵道步道","lat":23.71755865,"lng":121.40080235,"address":null,"hasBabyChanging":false,"hasAccessible":false,"source":"OpenStreetMap","updatedAt":"2026-06-11T08:39:29.880Z","facilityType":"railway","facilityLabel":"🚂 鐵道交通","phone":null,"website":null,"wheelchair":false,"paid":null,"needsAddr":true},{"id":968666850,"name":"箭瑛公園","lat":23.731546899999998,"lng":121.4908891,"address":null,"hasBabyChanging":false,"hasAccessible":false,"source":"OpenStreetMap","updatedAt":"2026-06-11T08:39:29.880Z","facilityType":"park","facilityLabel":"🌳 小型公園","phone":null,"website":null,"wheelchair":false,"paid":null,"needsAddr":true},{"id":1192595347,"name":"林榮火車公園","lat":23.80347165,"lng":121.45143,"address":null,"hasBabyChanging":false,"hasAccessible":false,"source":"OpenStreetMap","updatedAt":"2026-06-11T08:39:29.880Z","facilityType":"park","facilityLabel":"🌳 小型公園","phone":null,"website":null,"wheelchair":false,"paid":null,"needsAddr":true},{"id":1214844717,"name":"新光動物園","lat":23.7984195,"lng":121.46859265,"address":null,"hasBabyChanging":false,"hasAccessible":false,"source":"OpenStreetMap","updatedAt":"2026-06-11T08:39:29.880Z","facilityType":"zoo","facilityLabel":"🦁 動物園","phone":null,"website":null,"wheelchair":false,"paid":null,"needsAddr":true},{"id":1352949208,"name":"鳳林溪畔公園","lat":23.7633363,"lng":121.4602062,"address":null,"hasBabyChanging":false,"hasAccessible":false,"source":"OpenStreetMap","updatedAt":"2026-06-11T08:39:29.880Z","facilityType":"park","facilityLabel":"🌳 小型公園","phone":null,"website":null,"wheelchair":false,"paid":null,"needsAddr":true},{"id":6992614,"name":"林田史蹟公園","lat":23.748782650000003,"lng":121.4658187,"address":null,"hasBabyChanging":false,"hasAccessible":false,"source":"OpenStreetMap","updatedAt":"2026-06-11T08:39:29.880Z","facilityType":"park","facilityLabel":"🌳 中型公園","phone":null,"website":"https://travel.network.com.tw/main/travel/point/showpage/105189.html","wheelchair":false,"paid":null,"needsAddr":true},{"id":5246614723,"name":"東豐露營區","lat":23.3361209,"lng":121.339839,"address":null,"hasBabyChanging":false,"hasAccessible":false,"source":"OpenStreetMap","updatedAt":"2026-06-11T08:39:29.880Z","facilityType":"camp","facilityLabel":"⛺ 露營休閒","phone":"0972 838 351","website":null,"wheelchair":false,"paid":null,"needsAddr":true},{"id":360889189,"name":"玉里運動公園","lat":23.3429258,"lng":121.3197392,"address":null,"hasBabyChanging":false,"hasAccessible":false,"source":"OpenStreetMap","updatedAt":"2026-06-11T08:39:29.880Z","facilityType":"park","facilityLabel":"🌳 大型公園","phone":null,"website":null,"wheelchair":false,"paid":null,"needsAddr":true},{"id":924636472,"name":"璞石閣公園","lat":23.335164749999997,"lng":121.31931560000001,"address":null,"hasBabyChanging":false,"hasAccessible":false,"source":"OpenStreetMap","updatedAt":"2026-06-11T08:39:29.880Z","facilityType":"park","facilityLabel":"🌳 小型公園","phone":null,"website":null,"wheelchair":false,"paid":null,"needsAddr":true},{"id":924636490,"name":"玉城公園","lat":23.330727500000002,"lng":121.31910500000001,"address":null,"hasBabyChanging":false,"hasAccessible":false,"source":"OpenStreetMap","updatedAt":"2026-06-11T08:39:29.880Z","facilityType":"park","facilityLabel":"🌳 小型公園","phone":null,"website":null,"wheelchair":false,"paid":null,"needsAddr":true},{"id":924636547,"name":"玉璞公園","lat":23.3257666,"lng":121.3202689,"address":null,"hasBabyChanging":false,"hasAccessible":false,"source":"OpenStreetMap","updatedAt":"2026-06-11T08:39:29.880Z","facilityType":"park","facilityLabel":"🌳 小型公園","phone":null,"website":null,"wheelchair":false,"paid":null,"needsAddr":true},{"id":1290196470,"name":"啟模溼地公園","lat":23.3453674,"lng":121.32969929999999,"address":null,"hasBabyChanging":false,"hasAccessible":false,"source":"OpenStreetMap","updatedAt":"2026-06-11T08:39:29.880Z","facilityType":"park","facilityLabel":"🌳 大型公園","phone":null,"website":null,"wheelchair":false,"paid":null,"needsAddr":true},{"id":4338589716,"name":"B&B 海洋微風之家","lat":24.040857,"lng":121.6215888,"address":"花蓮縣新城鄉德莊街3號","hasBabyChanging":false,"hasAccessible":false,"source":"OpenStreetMap","updatedAt":"2026-06-11T08:39:29.880Z","facilityType":"mall","facilityLabel":"🛍 商場親子","phone":null,"website":null,"wheelchair":false,"paid":null,"needsAddr":false},{"id":6080279443,"name":"花蓮港教會新城營地","lat":24.1257231,"lng":121.6526426,"address":null,"hasBabyChanging":false,"hasAccessible":false,"source":"OpenStreetMap","updatedAt":"2026-06-11T08:39:29.880Z","facilityType":"camp","facilityLabel":"⛺ 露營休閒","phone":null,"website":null,"wheelchair":false,"paid":null,"needsAddr":true},{"id":92385599,"name":"龍泉親水公園","lat":24.01710275,"lng":121.603298,"address":null,"hasBabyChanging":false,"hasAccessible":false,"source":"OpenStreetMap","updatedAt":"2026-06-11T08:39:29.880Z","facilityType":"water","facilityLabel":"💧 戲水親水","phone":null,"website":null,"wheelchair":false,"paid":null,"needsAddr":true},{"id":93460244,"name":"溪畔公園","lat":24.0195345,"lng":121.6044849,"address":null,"hasBabyChanging":false,"hasAccessible":false,"source":"OpenStreetMap","updatedAt":"2026-06-11T08:39:29.880Z","facilityType":"park","facilityLabel":"🌳 小型公園","phone":null,"website":null,"wheelchair":false,"paid":null,"needsAddr":true},{"id":197568202,"name":"漫波海灘","lat":24.1162764,"lng":121.64217355,"address":null,"hasBabyChanging":false,"hasAccessible":false,"source":"OpenStreetMap","updatedAt":"2026-06-11T08:39:29.880Z","facilityType":"water","facilityLabel":"💧 戲水親水","phone":null,"website":null,"wheelchair":false,"paid":null,"needsAddr":true},{"id":493693317,"name":"曼波生態休閒園區","lat":24.02498405,"lng":121.63057205,"address":null,"hasBabyChanging":false,"hasAccessible":false,"source":"OpenStreetMap","updatedAt":"2026-06-11T08:39:29.880Z","facilityType":"park","facilityLabel":"🌳 中型公園","phone":null,"website":null,"wheelchair":false,"paid":null,"needsAddr":true},{"id":537455328,"name":"廣安宮前廣場","lat":24.05361885,"lng":121.60958565,"address":null,"hasBabyChanging":false,"hasAccessible":false,"source":"OpenStreetMap","updatedAt":"2026-06-11T08:39:29.880Z","facilityType":"park","facilityLabel":"🌳 小型公園","phone":null,"website":null,"wheelchair":false,"paid":null,"needsAddr":true},{"id":552591706,"name":"榕樹下","lat":24.00878435,"lng":121.61372895,"address":null,"hasBabyChanging":false,"hasAccessible":false,"source":"OpenStreetMap","updatedAt":"2026-06-11T08:39:29.880Z","facilityType":"park","facilityLabel":"🌳 小型公園","phone":null,"website":null,"wheelchair":false,"paid":null,"needsAddr":true},{"id":584890942,"name":"靜思陶藝坊","lat":24.05447075,"lng":121.60314299999999,"address":null,"hasBabyChanging":false,"hasAccessible":false,"source":"OpenStreetMap","updatedAt":"2026-06-11T08:39:29.880Z","facilityType":"diy","facilityLabel":"🧶 手作DIY","phone":null,"website":null,"wheelchair":false,"paid":null,"needsAddr":true},{"id":742078832,"name":"金彩玫瑰石博物館","lat":24.00573285,"lng":121.61454705,"address":null,"hasBabyChanging":false,"hasAccessible":false,"source":"OpenStreetMap","updatedAt":"2026-06-11T08:39:29.880Z","facilityType":"science","facilityLabel":"🔬 科學館","phone":null,"website":null,"wheelchair":false,"paid":null,"needsAddr":true},{"id":770552914,"name":"七星潭河濱公園","lat":24.0348164,"lng":121.6254288,"address":null,"hasBabyChanging":false,"hasAccessible":false,"source":"OpenStreetMap","updatedAt":"2026-06-11T08:39:29.880Z","facilityType":"park","facilityLabel":"🌳 大型公園","phone":null,"website":null,"wheelchair":false,"paid":null,"needsAddr":true},{"id":804059473,"name":"新城公園","lat":24.12903845,"lng":121.6496473,"address":null,"hasBabyChanging":false,"hasAccessible":false,"source":"OpenStreetMap","updatedAt":"2026-06-11T08:39:29.880Z","facilityType":"park","facilityLabel":"🌳 小型公園","phone":null,"website":null,"wheelchair":false,"paid":null,"needsAddr":true},{"id":968672320,"name":"嘎比烏姆寵物親善公園","lat":24.0276816,"lng":121.6027583,"address":null,"hasBabyChanging":false,"hasAccessible":false,"source":"OpenStreetMap","updatedAt":"2026-06-11T08:39:29.880Z","facilityType":"park","facilityLabel":"🌳 小型公園","phone":null,"website":null,"wheelchair":false,"paid":null,"needsAddr":true},{"id":993081486,"name":"嘉里村環保公園","lat":24.01887055,"lng":121.6066238,"address":null,"hasBabyChanging":false,"hasAccessible":false,"source":"OpenStreetMap","updatedAt":"2026-06-11T08:39:29.880Z","facilityType":"park","facilityLabel":"🌳 小型公園","phone":null,"website":null,"wheelchair":false,"paid":null,"needsAddr":true},{"id":1233310196,"name":"民有園區","lat":24.036860349999998,"lng":121.61229975,"address":null,"hasBabyChanging":false,"hasAccessible":false,"source":"OpenStreetMap","updatedAt":"2026-06-11T08:39:29.880Z","facilityType":"park","facilityLabel":"🌳 中型公園","phone":null,"website":null,"wheelchair":false,"paid":null,"needsAddr":true},{"id":1233324136,"name":"秀芳園休閒農場","lat":24.04211375,"lng":121.60241975,"address":null,"hasBabyChanging":false,"hasAccessible":false,"source":"OpenStreetMap","updatedAt":"2026-06-11T08:39:29.880Z","facilityType":"farm","facilityLabel":"🌾 休閒農場","phone":null,"website":null,"wheelchair":false,"paid":null,"needsAddr":true},{"id":1233390316,"name":"楊英風紀念公園","lat":24.024082800000002,"lng":121.6079082,"address":null,"hasBabyChanging":false,"hasAccessible":false,"source":"OpenStreetMap","updatedAt":"2026-06-11T08:39:29.880Z","facilityType":"park","facilityLabel":"🌳 小型公園","phone":null,"website":null,"wheelchair":false,"paid":null,"needsAddr":true},{"id":1276017775,"name":"光隆博物館","lat":24.057782500000002,"lng":121.60903809999999,"address":"花蓮縣新城鄉加灣1-2號","hasBabyChanging":false,"hasAccessible":false,"source":"OpenStreetMap","updatedAt":"2026-06-11T08:39:29.880Z","facilityType":"science","facilityLabel":"🔬 科學館","phone":"+886 3 826 8688","website":"http://www.klmm.com.tw/","wheelchair":false,"paid":null,"needsAddr":false},{"id":5529607684,"name":"初英親水生態公園","lat":23.9544778,"lng":121.5422198,"address":null,"hasBabyChanging":false,"hasAccessible":false,"source":"OpenStreetMap","updatedAt":"2026-06-11T08:39:29.880Z","facilityType":"water","facilityLabel":"💧 戲水親水","phone":null,"website":null,"wheelchair":false,"paid":null,"needsAddr":true},{"id":13508756540,"name":"劉銘侮美術館","lat":23.9449798,"lng":121.5866759,"address":"花蓮縣吉安鄉仁和村25鄰南海九街202巷30號","hasBabyChanging":false,"hasAccessible":false,"source":"OpenStreetMap","updatedAt":"2026-06-11T08:39:29.880Z","facilityType":"culture","facilityLabel":"🖼️ 美術館","phone":null,"website":null,"wheelchair":false,"paid":null,"needsAddr":false},{"id":92837532,"name":"知卡宣森林公園","lat":23.95219565,"lng":121.58396715,"address":null,"hasBabyChanging":false,"hasAccessible":false,"source":"OpenStreetMap","updatedAt":"2026-06-11T08:39:29.880Z","facilityType":"park","facilityLabel":"🌳 大型公園","phone":null,"website":null,"wheelchair":false,"paid":null,"needsAddr":true},{"id":333383031,"name":"鬱金香花園","lat":23.973931450000002,"lng":121.5707181,"address":null,"hasBabyChanging":false,"hasAccessible":false,"source":"OpenStreetMap","updatedAt":"2026-06-11T08:39:29.880Z","facilityType":"park","facilityLabel":"🌳 中型公園","phone":null,"website":null,"wheelchair":false,"paid":null,"needsAddr":true},{"id":355129867,"name":"希望公園","lat":23.972585000000002,"lng":121.56210250000001,"address":null,"hasBabyChanging":false,"hasAccessible":false,"source":"OpenStreetMap","updatedAt":"2026-06-11T08:39:29.880Z","facilityType":"park","facilityLabel":"🌳 小型公園","phone":null,"website":null,"wheelchair":false,"paid":null,"needsAddr":true},{"id":358601160,"name":"南埔公園","lat":23.963954,"lng":121.58847965,"address":null,"hasBabyChanging":false,"hasAccessible":false,"source":"OpenStreetMap","updatedAt":"2026-06-11T08:39:29.880Z","facilityType":"park","facilityLabel":"🌳 中型公園","phone":null,"website":null,"wheelchair":false,"paid":null,"needsAddr":true},{"id":420464644,"name":"初音驛公園","lat":23.942138,"lng":121.54498015,"address":null,"hasBabyChanging":false,"hasAccessible":false,"source":"OpenStreetMap","updatedAt":"2026-06-11T08:39:29.880Z","facilityType":"park","facilityLabel":"🌳 中型公園","phone":null,"website":null,"wheelchair":false,"paid":null,"needsAddr":true},{"id":434285085,"name":"知卡宣親水公園","lat":23.95073415,"lng":121.58335565,"address":null,"hasBabyChanging":false,"hasAccessible":false,"source":"OpenStreetMap","updatedAt":"2026-06-11T08:39:29.880Z","facilityType":"water","facilityLabel":"💧 戲水親水","phone":null,"website":null,"wheelchair":false,"paid":null,"needsAddr":true},{"id":691548538,"name":"榮安公園","lat":23.9904418,"lng":121.5725477,"address":null,"hasBabyChanging":false,"hasAccessible":false,"source":"OpenStreetMap","updatedAt":"2026-06-11T08:39:29.880Z","facilityType":"park","facilityLabel":"🌳 小型公園","phone":null,"website":null,"wheelchair":false,"paid":null,"needsAddr":true},{"id":832993934,"name":"戲水區","lat":23.9501917,"lng":121.5829554,"address":null,"hasBabyChanging":false,"hasAccessible":false,"source":"OpenStreetMap","updatedAt":"2026-06-11T08:39:29.880Z","facilityType":"water","facilityLabel":"💧 戲水親水","phone":null,"website":null,"wheelchair":false,"paid":null,"needsAddr":true},{"id":1074423100,"name":"溜冰場","lat":23.9383572,"lng":121.5706594,"address":null,"hasBabyChanging":false,"hasAccessible":false,"source":"OpenStreetMap","updatedAt":"2026-06-11T08:39:29.880Z","facilityType":"park","facilityLabel":"🌳 小型公園","phone":null,"website":null,"wheelchair":false,"paid":null,"needsAddr":true},{"id":1083078038,"name":"花蓮縣吉安鄉阿美族文物館","lat":23.969878,"lng":121.58086195,"address":"花蓮縣吉安鄉文化五街43號","hasBabyChanging":false,"hasAccessible":false,"source":"OpenStreetMap","updatedAt":"2026-06-11T08:39:29.880Z","facilityType":"culture","facilityLabel":"🎨 文化","phone":null,"website":null,"wheelchair":false,"paid":null,"needsAddr":false},{"id":1083395955,"name":"仁里公園","lat":23.96951185,"lng":121.58595245000001,"address":null,"hasBabyChanging":false,"hasAccessible":false,"source":"OpenStreetMap","updatedAt":"2026-06-11T08:39:29.880Z","facilityType":"park","facilityLabel":"🌳 小型公園","phone":null,"website":null,"wheelchair":false,"paid":null,"needsAddr":true},{"id":1083395956,"name":"仁愛新城運動公園","lat":23.9656498,"lng":121.5903171,"address":null,"hasBabyChanging":false,"hasAccessible":false,"source":"OpenStreetMap","updatedAt":"2026-06-11T08:39:29.880Z","facilityType":"park","facilityLabel":"🌳 小型公園","phone":null,"website":null,"wheelchair":false,"paid":null,"needsAddr":true},{"id":1092591079,"name":"不要臉公園","lat":23.95216285,"lng":121.5476144,"address":null,"hasBabyChanging":false,"hasAccessible":false,"source":"OpenStreetMap","updatedAt":"2026-06-11T08:39:29.880Z","facilityType":"park","facilityLabel":"🌳 小型公園","phone":null,"website":null,"wheelchair":false,"paid":null,"needsAddr":true},{"id":1092591080,"name":"阿巴魯公園","lat":23.947258599999998,"lng":121.54027815,"address":null,"hasBabyChanging":false,"hasAccessible":false,"source":"OpenStreetMap","updatedAt":"2026-06-11T08:39:29.880Z","facilityType":"park","facilityLabel":"🌳 小型公園","phone":null,"website":null,"wheelchair":false,"paid":null,"needsAddr":true},{"id":1105246310,"name":"北昌活動中心","lat":23.987078,"lng":121.5948071,"address":null,"hasBabyChanging":false,"hasAccessible":false,"source":"OpenStreetMap","updatedAt":"2026-06-11T08:39:29.880Z","facilityType":"park","facilityLabel":"🌳 小型公園","phone":null,"website":null,"wheelchair":false,"paid":null,"needsAddr":true},{"id":1267929423,"name":"光華運動公園","lat":23.9286025,"lng":121.5947007,"address":null,"hasBabyChanging":false,"hasAccessible":false,"source":"OpenStreetMap","updatedAt":"2026-06-11T08:39:29.880Z","facilityType":"park","facilityLabel":"🌳 中型公園","phone":null,"website":null,"wheelchair":false,"paid":null,"needsAddr":true},{"id":1338615008,"name":"花蓮縣運動休閒園區","lat":23.96818855,"lng":121.58511735,"address":null,"hasBabyChanging":false,"hasAccessible":false,"source":"OpenStreetMap","updatedAt":"2026-06-11T08:39:29.880Z","facilityType":"park","facilityLabel":"🌳 中型公園","phone":null,"website":null,"wheelchair":false,"paid":null,"needsAddr":true},{"id":2055654757,"name":"藝術中心(電梯)","lat":23.8959637,"lng":121.5433803,"address":null,"hasBabyChanging":false,"hasAccessible":true,"source":"OpenStreetMap","updatedAt":"2026-06-11T08:39:29.880Z","facilityType":"culture","facilityLabel":"🎨 文化","phone":null,"website":null,"wheelchair":true,"paid":null,"needsAddr":true},{"id":5150954425,"name":"Niu Shan","lat":23.7635878,"lng":121.569242,"address":null,"hasBabyChanging":false,"hasAccessible":false,"source":"OpenStreetMap","updatedAt":"2026-06-11T08:39:29.880Z","facilityType":"camp","facilityLabel":"⛺ 露營休閒","phone":null,"website":null,"wheelchair":false,"paid":null,"needsAddr":true},{"id":164663942,"name":"中正公園","lat":23.8387371,"lng":121.5010015,"address":null,"hasBabyChanging":false,"hasAccessible":false,"source":"OpenStreetMap","updatedAt":"2026-06-11T08:39:29.880Z","facilityType":"park","facilityLabel":"🌳 中型公園","phone":null,"website":null,"wheelchair":false,"paid":null,"needsAddr":true},{"id":202041271,"name":"花蓮縣考古博物館","lat":23.8484578,"lng":121.49362885,"address":null,"hasBabyChanging":false,"hasAccessible":false,"source":"OpenStreetMap","updatedAt":"2026-06-11T08:39:29.880Z","facilityType":"science","facilityLabel":"🔬 科學館","phone":null,"website":null,"wheelchair":false,"paid":null,"needsAddr":true},{"id":203326198,"name":"豐田文史館","lat":23.84534695,"lng":121.50292725,"address":null,"hasBabyChanging":false,"hasAccessible":false,"source":"OpenStreetMap","updatedAt":"2026-06-11T08:39:29.880Z","facilityType":"park","facilityLabel":"🌳 小型公園","phone":null,"website":null,"wheelchair":false,"paid":null,"needsAddr":true},{"id":313210456,"name":"遠雄海洋公園","lat":23.900970649999998,"lng":121.60142644999999,"address":"974花蓮縣壽豐鄉鹽寮村福德189號","hasBabyChanging":false,"hasAccessible":false,"source":"OpenStreetMap","updatedAt":"2026-06-11T08:39:29.880Z","facilityType":"theme_park","facilityLabel":"🎡 遊樂園","phone":null,"website":"https://www.farglory-oceanpark.com.tw/","wheelchair":false,"paid":null,"needsAddr":false},{"id":335697886,"name":"志學新邨公園","lat":23.900621299999997,"lng":121.52575605000001,"address":null,"hasBabyChanging":false,"hasAccessible":false,"source":"OpenStreetMap","updatedAt":"2026-06-11T08:39:29.880Z","facilityType":"park","facilityLabel":"🌳 小型公園","phone":null,"website":null,"wheelchair":false,"paid":null,"needsAddr":true},{"id":464101550,"name":"中山公園","lat":23.86890515,"lng":121.5049265,"address":null,"hasBabyChanging":false,"hasAccessible":false,"source":"OpenStreetMap","updatedAt":"2026-06-11T08:39:29.880Z","facilityType":"park","facilityLabel":"🌳 中型公園","phone":null,"website":null,"wheelchair":false,"paid":null,"needsAddr":true},{"id":1233840156,"name":"鯉魚潭露營區 (綠野鄉)","lat":23.91618815,"lng":121.50427155,"address":null,"hasBabyChanging":false,"hasAccessible":false,"source":"OpenStreetMap","updatedAt":"2026-06-11T08:39:29.880Z","facilityType":"camp","facilityLabel":"⛺ 露營休閒","phone":null,"website":null,"wheelchair":false,"paid":null,"needsAddr":true},{"id":1376404649,"name":"隙光樹林","lat":23.8914776,"lng":121.54248405,"address":null,"hasBabyChanging":false,"hasAccessible":false,"source":"OpenStreetMap","updatedAt":"2026-06-11T08:39:29.880Z","facilityType":"park","facilityLabel":"🌳 小型公園","phone":null,"website":null,"wheelchair":false,"paid":null,"needsAddr":true},{"id":2634139,"name":"豐之谷生態公園","lat":23.86378795,"lng":121.52797240000001,"address":null,"hasBabyChanging":false,"hasAccessible":false,"source":"OpenStreetMap","updatedAt":"2026-06-11T08:39:29.880Z","facilityType":"park","facilityLabel":"🌳 大型公園","phone":null,"website":null,"wheelchair":false,"paid":null,"needsAddr":true},{"id":5948178092,"name":"孟公園農場露營區","lat":23.5960081,"lng":121.4095442,"address":"花蓮縣光復鄉建國路一段16號","hasBabyChanging":false,"hasAccessible":true,"source":"OpenStreetMap","updatedAt":"2026-06-11T08:39:29.880Z","facilityType":"camp","facilityLabel":"⛺ 露營休閒","phone":null,"website":null,"wheelchair":true,"paid":null,"needsAddr":false},{"id":369964509,"name":"大富大農平地森林園區","lat":23.614516950000002,"lng":121.41512854999999,"address":null,"hasBabyChanging":false,"hasAccessible":false,"source":"OpenStreetMap","updatedAt":"2026-06-11T08:39:29.880Z","facilityType":"theme_park","facilityLabel":"🎡 遊樂園","phone":"+886 3 870 0870","website":null,"wheelchair":false,"paid":null,"needsAddr":true},{"id":649401309,"name":"洪華公園","lat":23.66683005,"lng":121.42326424999999,"address":null,"hasBabyChanging":false,"hasAccessible":false,"source":"OpenStreetMap","updatedAt":"2026-06-11T08:39:29.880Z","facilityType":"park","facilityLabel":"🌳 小型公園","phone":null,"website":null,"wheelchair":false,"paid":null,"needsAddr":true},{"id":1073283698,"name":"Tafalong文化祭祀廣場","lat":23.65635985,"lng":121.4550858,"address":null,"hasBabyChanging":false,"hasAccessible":false,"source":"OpenStreetMap","updatedAt":"2026-06-11T08:39:29.880Z","facilityType":"park","facilityLabel":"🌳 中型公園","phone":null,"website":null,"wheelchair":false,"paid":null,"needsAddr":true},{"id":1434068796,"name":"太平保安公園","lat":23.67191715,"lng":121.43558755000001,"address":null,"hasBabyChanging":false,"hasAccessible":false,"source":"OpenStreetMap","updatedAt":"2026-06-11T08:39:29.880Z","facilityType":"park","facilityLabel":"🌳 中型公園","phone":null,"website":null,"wheelchair":false,"paid":null,"needsAddr":true},{"id":1434289595,"name":"光復獅子公園","lat":23.68388745,"lng":121.40986914999999,"address":null,"hasBabyChanging":false,"hasAccessible":false,"source":"OpenStreetMap","updatedAt":"2026-06-11T08:39:29.880Z","facilityType":"park","facilityLabel":"🌳 中型公園","phone":null,"website":null,"wheelchair":false,"paid":null,"needsAddr":true},{"id":4784283821,"name":"光織屋 - 巴特虹岸手作坊","lat":23.6410035,"lng":121.5328762,"address":null,"hasBabyChanging":false,"hasAccessible":false,"source":"OpenStreetMap","updatedAt":"2026-06-11T08:39:29.880Z","facilityType":"diy","facilityLabel":"🧶 手作DIY","phone":null,"website":null,"wheelchair":false,"paid":null,"needsAddr":true},{"id":504330423,"name":"太陽廣場","lat":23.46176635,"lng":121.49894800000001,"address":null,"hasBabyChanging":false,"hasAccessible":false,"source":"OpenStreetMap","updatedAt":"2026-06-11T08:39:29.880Z","facilityType":"park","facilityLabel":"🌳 小型公園","phone":null,"website":null,"wheelchair":false,"paid":null,"needsAddr":true},{"id":518136018,"name":"石梯坪露營區","lat":23.4860771,"lng":121.51154115,"address":null,"hasBabyChanging":false,"hasAccessible":false,"source":"OpenStreetMap","updatedAt":"2026-06-11T08:39:29.880Z","facilityType":"camp","facilityLabel":"⛺ 露營休閒","phone":null,"website":null,"wheelchair":false,"paid":null,"needsAddr":true},{"id":806406563,"name":"貓公河濱公園","lat":23.596918600000002,"lng":121.51956185,"address":null,"hasBabyChanging":false,"hasAccessible":false,"source":"OpenStreetMap","updatedAt":"2026-06-11T08:39:29.880Z","facilityType":"park","facilityLabel":"🌳 小型公園","phone":null,"website":null,"wheelchair":false,"paid":null,"needsAddr":true},{"id":1050459517,"name":"立德廣場公園","lat":23.571293150000002,"lng":121.5208979,"address":null,"hasBabyChanging":false,"hasAccessible":false,"source":"OpenStreetMap","updatedAt":"2026-06-11T08:39:29.880Z","facilityType":"park","facilityLabel":"🌳 小型公園","phone":null,"website":null,"wheelchair":false,"paid":null,"needsAddr":true},{"id":1050465279,"name":"石門班哨角休憩區","lat":23.5202865,"lng":121.5024195,"address":null,"hasBabyChanging":false,"hasAccessible":false,"source":"OpenStreetMap","updatedAt":"2026-06-11T08:39:29.880Z","facilityType":"park","facilityLabel":"🌳 小型公園","phone":null,"website":null,"wheelchair":false,"paid":null,"needsAddr":true},{"id":1050702655,"name":"石梯坪露營區","lat":23.4842543,"lng":121.51173955,"address":null,"hasBabyChanging":false,"hasAccessible":false,"source":"OpenStreetMap","updatedAt":"2026-06-11T08:39:29.880Z","facilityType":"camp","facilityLabel":"⛺ 露營休閒","phone":null,"website":null,"wheelchair":false,"paid":null,"needsAddr":true},{"id":1051541428,"name":"加利利海石梯坪露營區","lat":23.4820673,"lng":121.5090868,"address":"花蓮縣豐濱鄉石梯坪45-2號","hasBabyChanging":false,"hasAccessible":false,"source":"OpenStreetMap","updatedAt":"2026-06-11T08:39:29.880Z","facilityType":"camp","facilityLabel":"⛺ 露營休閒","phone":null,"website":null,"wheelchair":false,"paid":null,"needsAddr":false},{"id":1058297327,"name":"噶瑪蘭牧場","lat":23.641925999999998,"lng":121.53080714999999,"address":"花蓮縣豐濱鄉新社202-1號","hasBabyChanging":false,"hasAccessible":false,"source":"OpenStreetMap","updatedAt":"2026-06-11T08:39:29.880Z","facilityType":"farm","facilityLabel":"🌾 休閒農場","phone":null,"website":null,"wheelchair":false,"paid":null,"needsAddr":false},{"id":1204786371,"name":"立德 廣場公園","lat":23.5712065,"lng":121.5210039,"address":null,"hasBabyChanging":false,"hasAccessible":false,"source":"OpenStreetMap","updatedAt":"2026-06-11T08:39:29.880Z","facilityType":"park","facilityLabel":"🌳 小型公園","phone":null,"website":null,"wheelchair":false,"paid":null,"needsAddr":true},{"id":5246393633,"name":"camping/hotspring 300ntd/pax","lat":23.4902952,"lng":121.3506247,"address":null,"hasBabyChanging":false,"hasAccessible":false,"source":"OpenStreetMap","updatedAt":"2026-06-11T08:39:29.880Z","facilityType":"camp","facilityLabel":"⛺ 露營休閒","phone":null,"website":null,"wheelchair":false,"paid":null,"needsAddr":true},{"id":10796214005,"name":"瑞穗牧場","lat":23.4783052,"lng":121.3478166,"address":null,"hasBabyChanging":false,"hasAccessible":false,"source":"OpenStreetMap","updatedAt":"2026-06-11T08:39:29.880Z","facilityType":"farm","facilityLabel":"🌾 休閒農場","phone":null,"website":null,"wheelchair":false,"paid":null,"needsAddr":true},{"id":132937591,"name":"瑞北富源舊鐵道自行車道","lat":23.552050299999998,"lng":121.3760605,"address":null,"hasBabyChanging":false,"hasAccessible":false,"source":"OpenStreetMap","updatedAt":"2026-06-11T08:39:29.880Z","facilityType":"railway","facilityLabel":"🚂 鐵道交通","phone":null,"website":null,"wheelchair":false,"paid":null,"needsAddr":true},{"id":389517157,"name":"北回歸線標誌公園","lat":23.46559525,"lng":121.35756190000001,"address":null,"hasBabyChanging":false,"hasAccessible":false,"source":"OpenStreetMap","updatedAt":"2026-06-11T08:39:29.880Z","facilityType":"park","facilityLabel":"🌳 小型公園","phone":null,"website":null,"wheelchair":false,"paid":null,"needsAddr":true},{"id":463384252,"name":"瑞穗鄉公墓公園","lat":23.48656305,"lng":121.38122915,"address":null,"hasBabyChanging":false,"hasAccessible":false,"source":"OpenStreetMap","updatedAt":"2026-06-11T08:39:29.880Z","facilityType":"park","facilityLabel":"🌳 大型公園","phone":null,"website":null,"wheelchair":false,"paid":null,"needsAddr":true},{"id":463589268,"name":"瑞穗牧場","lat":23.4813924,"lng":121.34594225000001,"address":"花蓮縣瑞穗鄉舞鶴村6鄰157號","hasBabyChanging":false,"hasAccessible":true,"source":"OpenStreetMap","updatedAt":"2026-06-11T08:39:29.880Z","facilityType":"farm","facilityLabel":"🌾 休閒農場","phone":"+886 3 887 6611","website":"http://www.rareseed.com.tw/nougat/about_us.html","wheelchair":true,"paid":null,"needsAddr":false},{"id":467100029,"name":"吉蒸牧場","lat":23.4825974,"lng":121.3967825,"address":"花蓮縣瑞穗鄉中山路三段230號","hasBabyChanging":false,"hasAccessible":false,"source":"OpenStreetMap","updatedAt":"2026-06-11T08:39:29.880Z","facilityType":"farm","facilityLabel":"🌾 休閒農場","phone":"+886 3 887 5588","website":"http://www.jjfarm.com.tw/","wheelchair":false,"paid":null,"needsAddr":false},{"id":519249245,"name":"瑞穗露營區","lat":23.48901595,"lng":121.4007252,"address":null,"hasBabyChanging":false,"hasAccessible":false,"source":"OpenStreetMap","updatedAt":"2026-06-11T08:39:29.880Z","facilityType":"camp","facilityLabel":"⛺ 露營休閒","phone":null,"website":null,"wheelchair":false,"paid":null,"needsAddr":true},{"id":542873164,"name":"瑞美運動公園","lat":23.49298625,"lng":121.3894593,"address":null,"hasBabyChanging":false,"hasAccessible":false,"source":"OpenStreetMap","updatedAt":"2026-06-11T08:39:29.880Z","facilityType":"park","facilityLabel":"🌳 小型公園","phone":null,"website":null,"wheelchair":false,"paid":null,"needsAddr":true},{"id":577925164,"name":"瑞北富源舊鐵道自行車道","lat":23.5619787,"lng":121.3778738,"address":null,"hasBabyChanging":false,"hasAccessible":false,"source":"OpenStreetMap","updatedAt":"2026-06-11T08:39:29.880Z","facilityType":"railway","facilityLabel":"🚂 鐵道交通","phone":null,"website":null,"wheelchair":false,"paid":null,"needsAddr":true},{"id":577925165,"name":"瑞北富源舊鐵道自行車道","lat":23.55648095,"lng":121.3760224,"address":null,"hasBabyChanging":false,"hasAccessible":false,"source":"OpenStreetMap","updatedAt":"2026-06-11T08:39:29.880Z","facilityType":"railway","facilityLabel":"🚂 鐵道交通","phone":null,"website":null,"wheelchair":false,"paid":null,"needsAddr":true},{"id":577925166,"name":"瑞北富源舊鐵道自行車道","lat":23.513678849999998,"lng":121.3748171,"address":null,"hasBabyChanging":false,"hasAccessible":false,"source":"OpenStreetMap","updatedAt":"2026-06-11T08:39:29.880Z","facilityType":"railway","facilityLabel":"🚂 鐵道交通","phone":null,"website":null,"wheelchair":false,"paid":null,"needsAddr":true},{"id":836956602,"name":"瑞北富源舊鐵道自行車道","lat":23.52223915,"lng":121.3764575,"address":null,"hasBabyChanging":false,"hasAccessible":false,"source":"OpenStreetMap","updatedAt":"2026-06-11T08:39:29.880Z","facilityType":"railway","facilityLabel":"🚂 鐵道交通","phone":null,"website":null,"wheelchair":false,"paid":null,"needsAddr":true},{"id":836956604,"name":"瑞北富源舊鐵道自行車道","lat":23.53464755,"lng":121.3771813,"address":null,"hasBabyChanging":false,"hasAccessible":false,"source":"OpenStreetMap","updatedAt":"2026-06-11T08:39:29.880Z","facilityType":"railway","facilityLabel":"🚂 鐵道交通","phone":null,"website":null,"wheelchair":false,"paid":null,"needsAddr":true},{"id":836956605,"name":"瑞北富源舊鐵道自行車道","lat":23.5306882,"lng":121.37730685,"address":null,"hasBabyChanging":false,"hasAccessible":false,"source":"OpenStreetMap","updatedAt":"2026-06-11T08:39:29.880Z","facilityType":"railway","facilityLabel":"🚂 鐵道交通","phone":null,"website":null,"wheelchair":false,"paid":null,"needsAddr":true},{"id":840594962,"name":"瑞北富源舊鐵道自行車道","lat":23.5588093,"lng":121.3771033,"address":null,"hasBabyChanging":false,"hasAccessible":false,"source":"OpenStreetMap","updatedAt":"2026-06-11T08:39:29.880Z","facilityType":"railway","facilityLabel":"🚂 鐵道交通","phone":null,"website":null,"wheelchair":false,"paid":null,"needsAddr":true},{"id":1286537933,"name":"瑞北富源舊鐵道自行車道","lat":23.54599615,"lng":121.3767811,"address":null,"hasBabyChanging":false,"hasAccessible":false,"source":"OpenStreetMap","updatedAt":"2026-06-11T08:39:29.880Z","facilityType":"railway","facilityLabel":"🚂 鐵道交通","phone":null,"website":null,"wheelchair":false,"paid":null,"needsAddr":true},{"id":1286537934,"name":"瑞北富源舊鐵道自行車道","lat":23.5398292,"lng":121.37702195,"address":null,"hasBabyChanging":false,"hasAccessible":false,"source":"OpenStreetMap","updatedAt":"2026-06-11T08:39:29.880Z","facilityType":"railway","facilityLabel":"🚂 鐵道交通","phone":null,"website":null,"wheelchair":false,"paid":null,"needsAddr":true},{"id":1323777024,"name":"瑞北富源舊鐵道自行車道","lat":23.5425089,"lng":121.37692535,"address":null,"hasBabyChanging":false,"hasAccessible":false,"source":"OpenStreetMap","updatedAt":"2026-06-11T08:39:29.880Z","facilityType":"railway","facilityLabel":"🚂 鐵道交通","phone":null,"website":null,"wheelchair":false,"paid":null,"needsAddr":true},{"id":3800307165,"name":"益順休閒農場","lat":23.2200577,"lng":121.3108237,"address":null,"hasBabyChanging":false,"hasAccessible":false,"source":"OpenStreetMap","updatedAt":"2026-06-11T08:39:29.880Z","facilityType":"farm","facilityLabel":"🌾 休閒農場","phone":null,"website":null,"wheelchair":false,"paid":null,"needsAddr":true},{"id":407205009,"name":"羅山大池","lat":23.186316400000003,"lng":121.2860671,"address":null,"hasBabyChanging":false,"hasAccessible":false,"source":"OpenStreetMap","updatedAt":"2026-06-11T08:39:29.880Z","facilityType":"water","facilityLabel":"💧 戲水親水","phone":null,"website":null,"wheelchair":false,"paid":null,"needsAddr":true},{"id":931633833,"name":"合流營地","lat":24.1778149,"lng":121.5128683,"address":null,"hasBabyChanging":false,"hasAccessible":false,"source":"OpenStreetMap","updatedAt":"2026-06-11T08:39:29.880Z","facilityType":"camp","facilityLabel":"⛺ 露營休閒","phone":null,"website":null,"wheelchair":false,"paid":null,"needsAddr":true},{"id":2297213032,"name":"合歡金礦營地","lat":24.144382,"lng":121.3254274,"address":null,"hasBabyChanging":false,"hasAccessible":false,"source":"OpenStreetMap","updatedAt":"2026-06-11T08:39:29.880Z","facilityType":"camp","facilityLabel":"⛺ 露營休閒","phone":null,"website":null,"wheelchair":false,"paid":null,"needsAddr":true},{"id":2297213303,"name":"鐵線橋營地","lat":24.1674636,"lng":121.3254503,"address":null,"hasBabyChanging":false,"hasAccessible":false,"source":"OpenStreetMap","updatedAt":"2026-06-11T08:39:29.880Z","facilityType":"camp","facilityLabel":"⛺ 露營休閒","phone":null,"website":null,"wheelchair":false,"paid":null,"needsAddr":true},{"id":2302643561,"name":"奇萊山屋","lat":24.1087104,"lng":121.3269175,"address":null,"hasBabyChanging":false,"hasAccessible":false,"source":"OpenStreetMap","updatedAt":"2026-06-11T08:39:29.880Z","facilityType":"camp","facilityLabel":"⛺ 露營休閒","phone":null,"website":null,"wheelchair":false,"paid":null,"needsAddr":true},{"id":4117910586,"name":"巴沙灣營地","lat":23.9585605,"lng":121.313886,"address":null,"hasBabyChanging":false,"hasAccessible":false,"source":"OpenStreetMap","updatedAt":"2026-06-11T08:39:29.880Z","facilityType":"camp","facilityLabel":"⛺ 露營休閒","phone":null,"website":null,"wheelchair":false,"paid":null,"needsAddr":true},{"id":4131026149,"name":"松針營地","lat":24.1620997,"lng":121.3249442,"address":null,"hasBabyChanging":false,"hasAccessible":false,"source":"OpenStreetMap","updatedAt":"2026-06-11T08:39:29.880Z","facilityType":"camp","facilityLabel":"⛺ 露營休閒","phone":null,"website":null,"wheelchair":false,"paid":null,"needsAddr":true},{"id":4832473529,"name":"佐久間台灣總督露營之跡碑","lat":24.1604396,"lng":121.4216181,"address":null,"hasBabyChanging":false,"hasAccessible":false,"source":"OpenStreetMap","updatedAt":"2026-06-11T08:39:29.880Z","facilityType":"camp","facilityLabel":"⛺ 露營休閒","phone":null,"website":null,"wheelchair":false,"paid":null,"needsAddr":true},{"id":4973676684,"name":"乾水池營地","lat":24.1261639,"lng":121.451772,"address":null,"hasBabyChanging":false,"hasAccessible":false,"source":"OpenStreetMap","updatedAt":"2026-06-11T08:39:29.880Z","facilityType":"camp","facilityLabel":"⛺ 露營休閒","phone":null,"website":null,"wheelchair":false,"paid":null,"needsAddr":true},{"id":4973676685,"name":"三岔營地","lat":24.1180603,"lng":121.4632398,"address":null,"hasBabyChanging":false,"hasAccessible":false,"source":"OpenStreetMap","updatedAt":"2026-06-11T08:39:29.880Z","facilityType":"camp","facilityLabel":"⛺ 露營休閒","phone":null,"website":null,"wheelchair":false,"paid":null,"needsAddr":true},{"id":5070609090,"name":"能高南峰南鞍營地","lat":23.9595919,"lng":121.2752354,"address":null,"hasBabyChanging":false,"hasAccessible":false,"source":"OpenStreetMap","updatedAt":"2026-06-11T08:39:29.880Z","facilityType":"camp","facilityLabel":"⛺ 露營休閒","phone":null,"website":null,"wheelchair":false,"paid":null,"needsAddr":true},{"id":5113369854,"name":"倒木營地","lat":24.1045707,"lng":121.3804945,"address":null,"hasBabyChanging":false,"hasAccessible":false,"source":"OpenStreetMap","updatedAt":"2026-06-11T08:39:29.880Z","facilityType":"camp","facilityLabel":"⛺ 露營休閒","phone":null,"website":null,"wheelchair":false,"paid":null,"needsAddr":true},{"id":5113369855,"name":"鐵線前營地","lat":24.1044352,"lng":121.3950109,"address":null,"hasBabyChanging":false,"hasAccessible":false,"source":"OpenStreetMap","updatedAt":"2026-06-11T08:39:29.880Z","facilityType":"camp","facilityLabel":"⛺ 露營休閒","phone":null,"website":null,"wheelchair":false,"paid":null,"needsAddr":true},{"id":5113369857,"name":"鐵線後營地","lat":24.1043271,"lng":121.4019475,"address":null,"hasBabyChanging":false,"hasAccessible":false,"source":"OpenStreetMap","updatedAt":"2026-06-11T08:39:29.880Z","facilityType":"camp","facilityLabel":"⛺ 露營休閒","phone":null,"website":null,"wheelchair":false,"paid":null,"needsAddr":true},{"id":5113369858,"name":"上下舖營地","lat":24.101832,"lng":121.4068836,"address":null,"hasBabyChanging":false,"hasAccessible":false,"source":"OpenStreetMap","updatedAt":"2026-06-11T08:39:29.880Z","facilityType":"camp","facilityLabel":"⛺ 露營休閒","phone":null,"website":null,"wheelchair":false,"paid":null,"needsAddr":true},{"id":5113369874,"name":"最低鞍營地","lat":24.1142049,"lng":121.4398527,"address":null,"hasBabyChanging":false,"hasAccessible":false,"source":"OpenStreetMap","updatedAt":"2026-06-11T08:39:29.880Z","facilityType":"camp","facilityLabel":"⛺ 露營休閒","phone":null,"website":null,"wheelchair":false,"paid":null,"needsAddr":true},{"id":5113369875,"name":"廣寒宮","lat":24.1223023,"lng":121.4453317,"address":null,"hasBabyChanging":false,"hasAccessible":false,"source":"OpenStreetMap","updatedAt":"2026-06-11T08:39:29.880Z","facilityType":"camp","facilityLabel":"⛺ 露營休閒","phone":null,"website":null,"wheelchair":false,"paid":null,"needsAddr":true},{"id":5844904986,"name":"北鞍營地","lat":24.0893439,"lng":121.4199352,"address":null,"hasBabyChanging":false,"hasAccessible":false,"source":"OpenStreetMap","updatedAt":"2026-06-11T08:39:29.880Z","facilityType":"camp","facilityLabel":"⛺ 露營休閒","phone":null,"website":null,"wheelchair":false,"paid":null,"needsAddr":true},{"id":5844917285,"name":"合流露營區","lat":24.1776204,"lng":121.5131673,"address":null,"hasBabyChanging":false,"hasAccessible":false,"source":"OpenStreetMap","updatedAt":"2026-06-11T08:39:29.880Z","facilityType":"camp","facilityLabel":"⛺ 露營休閒","phone":null,"website":null,"wheelchair":false,"paid":null,"needsAddr":true},{"id":5847417785,"name":"月形池營地","lat":24.1175391,"lng":121.3454361,"address":null,"hasBabyChanging":false,"hasAccessible":false,"source":"OpenStreetMap","updatedAt":"2026-06-11T08:39:29.880Z","facilityType":"camp","facilityLabel":"⛺ 露營休閒","phone":null,"website":null,"wheelchair":false,"paid":null,"needsAddr":true},{"id":5847417885,"name":"驚嘆號池營地","lat":24.1095046,"lng":121.3571019,"address":null,"hasBabyChanging":false,"hasAccessible":false,"source":"OpenStreetMap","updatedAt":"2026-06-11T08:39:29.880Z","facilityType":"camp","facilityLabel":"⛺ 露營休閒","phone":null,"website":null,"wheelchair":false,"paid":null,"needsAddr":true},{"id":5847417985,"name":"平安池營地","lat":24.1048438,"lng":121.4295792,"address":null,"hasBabyChanging":false,"hasAccessible":false,"source":"OpenStreetMap","updatedAt":"2026-06-11T08:39:29.880Z","facilityType":"camp","facilityLabel":"⛺ 露營休閒","phone":null,"website":null,"wheelchair":false,"paid":null,"needsAddr":true},{"id":6613086187,"name":"Mona","lat":24.1555159,"lng":121.6566679,"address":null,"hasBabyChanging":false,"hasAccessible":false,"source":"OpenStreetMap","updatedAt":"2026-06-11T08:39:29.880Z","facilityType":"camp","facilityLabel":"⛺ 露營休閒","phone":null,"website":null,"wheelchair":false,"paid":null,"needsAddr":true},{"id":7138154385,"name":"板下海灘","lat":24.1780199,"lng":121.6580945,"address":null,"hasBabyChanging":false,"hasAccessible":false,"source":"OpenStreetMap","updatedAt":"2026-06-11T08:39:29.880Z","facilityType":"water","facilityLabel":"💧 戲水親水","phone":null,"website":null,"wheelchair":false,"paid":null,"needsAddr":true},{"id":7169063986,"name":"聽海戶外休閒","lat":24.1302748,"lng":121.6576367,"address":null,"hasBabyChanging":false,"hasAccessible":false,"source":"OpenStreetMap","updatedAt":"2026-06-11T08:39:29.880Z","facilityType":"camp","facilityLabel":"⛺ 露營休閒","phone":null,"website":null,"wheelchair":false,"paid":null,"needsAddr":true},{"id":7473798685,"name":"崇德 瑩農場","lat":24.1456992,"lng":121.6622305,"address":null,"hasBabyChanging":false,"hasAccessible":false,"source":"OpenStreetMap","updatedAt":"2026-06-11T08:39:29.880Z","facilityType":"camp","facilityLabel":"⛺ 露營休閒","phone":null,"website":null,"wheelchair":false,"paid":false,"needsAddr":true},{"id":7718880685,"name":"石洞營地","lat":24.1418417,"lng":121.514389,"address":null,"hasBabyChanging":false,"hasAccessible":false,"source":"OpenStreetMap","updatedAt":"2026-06-11T08:39:29.880Z","facilityType":"camp","facilityLabel":"⛺ 露營休閒","phone":null,"website":null,"wheelchair":false,"paid":null,"needsAddr":true},{"id":7763559385,"name":"大陸池營地","lat":23.9781801,"lng":121.2641956,"address":null,"hasBabyChanging":false,"hasAccessible":false,"source":"OpenStreetMap","updatedAt":"2026-06-11T08:39:29.880Z","facilityType":"camp","facilityLabel":"⛺ 露營休閒","phone":null,"website":null,"wheelchair":false,"paid":null,"needsAddr":true},{"id":8076035995,"name":"白板營地","lat":24.298508,"lng":121.4028519,"address":null,"hasBabyChanging":false,"hasAccessible":false,"source":"OpenStreetMap","updatedAt":"2026-06-11T08:39:29.880Z","facilityType":"camp","facilityLabel":"⛺ 露營休閒","phone":null,"website":null,"wheelchair":false,"paid":null,"needsAddr":true},{"id":9838693130,"name":"鞍部水池下營地","lat":24.3226218,"lng":121.4344512,"address":null,"hasBabyChanging":false,"hasAccessible":false,"source":"OpenStreetMap","updatedAt":"2026-06-11T08:39:29.880Z","facilityType":"camp","facilityLabel":"⛺ 露營休閒","phone":null,"website":null,"wheelchair":false,"paid":null,"needsAddr":true},{"id":11245004171,"name":"甘薯南峰營地","lat":24.2799881,"lng":121.3801341,"address":null,"hasBabyChanging":false,"hasAccessible":false,"source":"OpenStreetMap","updatedAt":"2026-06-11T08:39:29.880Z","facilityType":"camp","facilityLabel":"⛺ 露營休閒","phone":null,"website":null,"wheelchair":false,"paid":null,"needsAddr":true},{"id":197568202,"name":"漫波海灘","lat":24.1162764,"lng":121.64217355,"address":null,"hasBabyChanging":false,"hasAccessible":false,"source":"OpenStreetMap","updatedAt":"2026-06-11T08:39:29.880Z","facilityType":"water","facilityLabel":"💧 戲水親水","phone":null,"website":null,"wheelchair":false,"paid":null,"needsAddr":true},{"id":211250576,"name":"和仁礫灘","lat":24.23755165,"lng":121.71368845,"address":null,"hasBabyChanging":false,"hasAccessible":false,"source":"OpenStreetMap","updatedAt":"2026-06-11T08:39:29.880Z","facilityType":"water","facilityLabel":"💧 戲水親水","phone":null,"website":null,"wheelchair":false,"paid":null,"needsAddr":true},{"id":409996031,"name":"綠水營地","lat":24.177834249999997,"lng":121.50765815,"address":null,"hasBabyChanging":false,"hasAccessible":false,"source":"OpenStreetMap","updatedAt":"2026-06-11T08:39:29.880Z","facilityType":"camp","facilityLabel":"⛺ 露營休閒","phone":null,"website":null,"wheelchair":false,"paid":false,"needsAddr":true},{"id":535403603,"name":"清水","lat":24.21575965,"lng":121.6885844,"address":null,"hasBabyChanging":false,"hasAccessible":false,"source":"OpenStreetMap","updatedAt":"2026-06-11T08:39:29.880Z","facilityType":"water","facilityLabel":"💧 戲水親水","phone":null,"website":null,"wheelchair":false,"paid":null,"needsAddr":true},{"id":535403606,"name":"大清水遊憩區","lat":24.2189604,"lng":121.68914559999999,"address":null,"hasBabyChanging":false,"hasAccessible":false,"source":"OpenStreetMap","updatedAt":"2026-06-11T08:39:29.880Z","facilityType":"park","facilityLabel":"🌳 小型公園","phone":null,"website":null,"wheelchair":false,"paid":null,"needsAddr":true},{"id":1086185482,"name":"靳珩公園","lat":24.17202785,"lng":121.56116845,"address":null,"hasBabyChanging":false,"hasAccessible":false,"source":"OpenStreetMap","updatedAt":"2026-06-11T08:39:29.880Z","facilityType":"park","facilityLabel":"🌳 小型公園","phone":null,"website":null,"wheelchair":false,"paid":null,"needsAddr":true},{"id":1089999497,"name":"高巢休閒農場","lat":24.155398650000002,"lng":121.66119245,"address":null,"hasBabyChanging":false,"hasAccessible":false,"source":"OpenStreetMap","updatedAt":"2026-06-11T08:39:29.880Z","facilityType":"farm","facilityLabel":"🌾 休閒農場","phone":null,"website":null,"wheelchair":false,"paid":null,"needsAddr":true},{"id":1117720902,"name":"環流丘景觀公園","lat":24.171979,"lng":121.57418415000001,"address":null,"hasBabyChanging":false,"hasAccessible":false,"source":"OpenStreetMap","updatedAt":"2026-06-11T08:39:29.880Z","facilityType":"park","facilityLabel":"🌳 小型公園","phone":null,"website":null,"wheelchair":false,"paid":null,"needsAddr":true},{"id":1121560667,"name":"天祥梅園","lat":24.18207115,"lng":121.49435775,"address":null,"hasBabyChanging":false,"hasAccessible":false,"source":"OpenStreetMap","updatedAt":"2026-06-11T08:39:29.880Z","facilityType":"park","facilityLabel":"🌳 小型公園","phone":null,"website":null,"wheelchair":false,"paid":null,"needsAddr":true},{"id":1121560676,"name":"文天祥公園","lat":24.1825409,"lng":121.4934472,"address":null,"hasBabyChanging":false,"hasAccessible":false,"source":"OpenStreetMap","updatedAt":"2026-06-11T08:39:29.880Z","facilityType":"park","facilityLabel":"🌳 小型公園","phone":null,"website":null,"wheelchair":false,"paid":null,"needsAddr":true},{"id":1122529559,"name":"文山公園","lat":24.197924,"lng":121.49186835,"address":null,"hasBabyChanging":false,"hasAccessible":false,"source":"OpenStreetMap","updatedAt":"2026-06-11T08:39:29.880Z","facilityType":"park","facilityLabel":"🌳 小型公園","phone":null,"website":null,"wheelchair":false,"paid":null,"needsAddr":true},{"id":1233292772,"name":"台灣電力公司","lat":24.01500195,"lng":121.39558525000001,"address":null,"hasBabyChanging":false,"hasAccessible":false,"source":"OpenStreetMap","updatedAt":"2026-06-11T08:39:29.880Z","facilityType":"camp","facilityLabel":"⛺ 露營休閒","phone":null,"website":null,"wheelchair":false,"paid":null,"needsAddr":true},{"id":1246236547,"name":"木工房","lat":24.0373263,"lng":121.47201480000001,"address":null,"hasBabyChanging":false,"hasAccessible":false,"source":"OpenStreetMap","updatedAt":"2026-06-11T08:39:29.880Z","facilityType":"diy","facilityLabel":"🧶 手作DIY","phone":null,"website":null,"wheelchair":false,"paid":null,"needsAddr":true},{"id":1272709083,"name":"resort homes","lat":24.1457637,"lng":121.66174545,"address":null,"hasBabyChanging":false,"hasAccessible":false,"source":"OpenStreetMap","updatedAt":"2026-06-11T08:39:29.880Z","facilityType":"park","facilityLabel":"🌳 小型公園","phone":null,"website":null,"wheelchair":false,"paid":null,"needsAddr":true},{"id":3224950,"name":"崇德海灘","lat":24.17998905,"lng":121.66078195,"address":null,"hasBabyChanging":false,"hasAccessible":false,"source":"OpenStreetMap","updatedAt":"2026-06-11T08:39:29.880Z","facilityType":"water","facilityLabel":"💧 戲水親水","phone":null,"website":null,"wheelchair":false,"paid":null,"needsAddr":true},{"id":11829549669,"name":"營地","lat":23.6325494,"lng":121.2241941,"address":null,"hasBabyChanging":false,"hasAccessible":false,"source":"OpenStreetMap","updatedAt":"2026-06-11T08:39:29.880Z","facilityType":"camp","facilityLabel":"⛺ 露營休閒","phone":null,"website":null,"wheelchair":false,"paid":null,"needsAddr":true},{"id":132937591,"name":"瑞北富源舊鐵道自行車道","lat":23.552050299999998,"lng":121.3760605,"address":null,"hasBabyChanging":false,"hasAccessible":false,"source":"OpenStreetMap","updatedAt":"2026-06-11T08:39:29.880Z","facilityType":"railway","facilityLabel":"🚂 鐵道交通","phone":null,"website":null,"wheelchair":false,"paid":null,"needsAddr":true},{"id":771190246,"name":"林田山林業文化園區","lat":23.71730145,"lng":121.3992904,"address":"花蓮縣鳳林鎮鳳林鎮森榮里林森路99巷99號","hasBabyChanging":false,"hasAccessible":false,"source":"OpenStreetMap","updatedAt":"2026-06-11T08:39:29.880Z","facilityType":"park","facilityLabel":"🌳 大型公園","phone":"+886 3 875 2378","website":"https://www.forest.gov.tw/0000221","wheelchair":false,"paid":null,"needsAddr":false},{"id":843638428,"name":"萬榮鄉立綜合運動公園","lat":23.811872450000003,"lng":121.44192115,"address":null,"hasBabyChanging":false,"hasAccessible":false,"source":"OpenStreetMap","updatedAt":"2026-06-11T08:39:29.880Z","facilityType":"park","facilityLabel":"🌳 小型公園","phone":null,"website":null,"wheelchair":false,"paid":null,"needsAddr":true},{"id":3062565165,"name":"布新營地","lat":23.2933853,"lng":121.0562398,"address":null,"hasBabyChanging":false,"hasAccessible":false,"source":"OpenStreetMap","updatedAt":"2026-06-11T08:39:29.880Z","facilityType":"camp","facilityLabel":"⛺ 露營休閒","phone":null,"website":null,"wheelchair":false,"paid":null,"needsAddr":true},{"id":3064382521,"name":"桃源營地","lat":23.3108034,"lng":121.0933713,"address":null,"hasBabyChanging":false,"hasAccessible":false,"source":"OpenStreetMap","updatedAt":"2026-06-11T08:39:29.880Z","facilityType":"camp","facilityLabel":"⛺ 露營休閒","phone":null,"website":null,"wheelchair":false,"paid":null,"needsAddr":true},{"id":3064383048,"name":"連理山西峰營地","lat":23.3075904,"lng":121.0702021,"address":null,"hasBabyChanging":false,"hasAccessible":false,"source":"OpenStreetMap","updatedAt":"2026-06-11T08:39:29.880Z","facilityType":"camp","facilityLabel":"⛺ 露營休閒","phone":null,"website":null,"wheelchair":false,"paid":null,"needsAddr":true},{"id":3066362605,"name":"新仙山前營地","lat":23.3204164,"lng":121.1153152,"address":null,"hasBabyChanging":false,"hasAccessible":false,"source":"OpenStreetMap","updatedAt":"2026-06-11T08:39:29.880Z","facilityType":"camp","facilityLabel":"⛺ 露營休閒","phone":null,"website":null,"wheelchair":false,"paid":null,"needsAddr":true},{"id":3066365707,"name":"新仙山營地","lat":23.3207978,"lng":121.117167,"address":null,"hasBabyChanging":false,"hasAccessible":false,"source":"OpenStreetMap","updatedAt":"2026-06-11T08:39:29.880Z","facilityType":"camp","facilityLabel":"⛺ 露營休閒","phone":null,"website":null,"wheelchair":false,"paid":null,"needsAddr":true},{"id":4542480289,"name":"太平溪營地","lat":23.5907698,"lng":121.1938409,"address":null,"hasBabyChanging":false,"hasAccessible":false,"source":"OpenStreetMap","updatedAt":"2026-06-11T08:39:29.880Z","facilityType":"camp","facilityLabel":"⛺ 露營休閒","phone":null,"website":null,"wheelchair":false,"paid":null,"needsAddr":true},{"id":6990148649,"name":"看天池營地","lat":23.5788556,"lng":121.2175387,"address":null,"hasBabyChanging":false,"hasAccessible":false,"source":"OpenStreetMap","updatedAt":"2026-06-11T08:39:29.880Z","facilityType":"camp","facilityLabel":"⛺ 露營休閒","phone":null,"website":null,"wheelchair":false,"paid":null,"needsAddr":true},{"id":6990148650,"name":"杜鵑營地","lat":23.5841137,"lng":121.2046453,"address":null,"hasBabyChanging":false,"hasAccessible":false,"source":"OpenStreetMap","updatedAt":"2026-06-11T08:39:29.880Z","facilityType":"camp","facilityLabel":"⛺ 露營休閒","phone":null,"website":null,"wheelchair":false,"paid":null,"needsAddr":true},{"id":6990148651,"name":"乾溪谷營地","lat":23.5774187,"lng":121.2055097,"address":null,"hasBabyChanging":false,"hasAccessible":false,"source":"OpenStreetMap","updatedAt":"2026-06-11T08:39:29.880Z","facilityType":"camp","facilityLabel":"⛺ 露營休閒","phone":null,"website":null,"wheelchair":false,"paid":null,"needsAddr":true},{"id":6990148652,"name":"內嶺爾前營地","lat":23.581953,"lng":121.1903894,"address":null,"hasBabyChanging":false,"hasAccessible":false,"source":"OpenStreetMap","updatedAt":"2026-06-11T08:39:29.880Z","facilityType":"camp","facilityLabel":"⛺ 露營休閒","phone":null,"website":null,"wheelchair":false,"paid":null,"needsAddr":true},{"id":11823186070,"name":"內嶺爾營地（無水）","lat":23.5812758,"lng":121.191546,"address":null,"hasBabyChanging":false,"hasAccessible":false,"source":"OpenStreetMap","updatedAt":"2026-06-11T08:39:29.880Z","facilityType":"camp","facilityLabel":"⛺ 露營休閒","phone":null,"website":null,"wheelchair":false,"paid":null,"needsAddr":true},{"id":13508756541,"name":"太平谷營地","lat":23.454528,"lng":121.1894956,"address":null,"hasBabyChanging":false,"hasAccessible":false,"source":"OpenStreetMap","updatedAt":"2026-06-11T08:39:29.880Z","facilityType":"camp","facilityLabel":"⛺ 露營休閒","phone":null,"website":null,"wheelchair":false,"paid":null,"needsAddr":true}]}