{"city":"花蓮縣","category":"family","updatedAt":"2026-06-16T15:54:24.202Z","rev":24,"count":512,"items":[{"id":3300653576,"name":"曙光橋","lat":23.9794913,"lng":121.6182125,"address":null,"hasBabyChanging":false,"hasAccessible":true,"source":"OpenStreetMap","updatedAt":"2026-06-16T15:54:24.202Z","facilityType":"tourist_attraction","facilityLabel":"🧭 旅遊景點","phone":null,"website":null,"wheelchair":true,"paid":null,"needsAddr":true},{"id":3755918935,"name":"四八高地","lat":24.0222916,"lng":121.6348905,"address":null,"hasBabyChanging":false,"hasAccessible":false,"source":"OpenStreetMap","updatedAt":"2026-06-16T15:54:24.202Z","facilityType":"tourist_attraction","facilityLabel":"🧭 旅遊景點","phone":null,"website":null,"wheelchair":false,"paid":null,"needsAddr":true},{"id":3837462557,"name":"舊鐵道行人徒步區","lat":23.9780287,"lng":121.6064628,"address":null,"hasBabyChanging":false,"hasAccessible":true,"source":"OpenStreetMap","updatedAt":"2026-06-16T15:54:24.202Z","facilityType":"tourist_attraction","facilityLabel":"🧭 旅遊景點","phone":null,"website":null,"wheelchair":true,"paid":null,"needsAddr":true},{"id":3878115679,"name":"海礦探索館","lat":24.0065931,"lng":121.6426962,"address":null,"hasBabyChanging":false,"hasAccessible":false,"source":"OpenStreetMap","updatedAt":"2026-06-16T15:54:24.202Z","facilityType":"tourist_attraction","facilityLabel":"🧭 旅遊景點","phone":null,"website":null,"wheelchair":false,"paid":null,"needsAddr":true},{"id":3878279445,"name":"漁產加工-觀光工廠","lat":23.9986911,"lng":121.6409646,"address":null,"hasBabyChanging":false,"hasAccessible":false,"source":"OpenStreetMap","updatedAt":"2026-06-16T15:54:24.202Z","facilityType":"factory","facilityLabel":"🏭 觀光工廠","phone":null,"website":null,"wheelchair":false,"paid":null,"needsAddr":true},{"id":4264443511,"name":"鯨世界賞鯨","lat":23.9992667,"lng":121.6325611,"address":null,"hasBabyChanging":false,"hasAccessible":false,"source":"OpenStreetMap","updatedAt":"2026-06-16T15:54:24.202Z","facilityType":"tourist_attraction","facilityLabel":"🧭 旅遊景點","phone":"+886 3 822 2718","website":null,"wheelchair":false,"paid":null,"needsAddr":true},{"id":4418490231,"name":"木樂館","lat":23.9769368,"lng":121.6041718,"address":null,"hasBabyChanging":false,"hasAccessible":false,"source":"OpenStreetMap","updatedAt":"2026-06-16T15:54:24.202Z","facilityType":"diy","facilityLabel":"🧶 DIY手作","phone":null,"website":null,"wheelchair":false,"paid":null,"needsAddr":true},{"id":4418490232,"name":"那魯灣手藝工坊","lat":23.9770177,"lng":121.604101,"address":null,"hasBabyChanging":false,"hasAccessible":false,"source":"OpenStreetMap","updatedAt":"2026-06-16T15:54:24.202Z","facilityType":"diy","facilityLabel":"🧶 DIY手作","phone":null,"website":null,"wheelchair":false,"paid":null,"needsAddr":true},{"id":6115545373,"name":"臺灣國寶美術館","lat":23.9922708,"lng":121.6260659,"address":"花蓮縣花蓮市永興路18號","hasBabyChanging":false,"hasAccessible":false,"source":"OpenStreetMap","updatedAt":"2026-06-16T15:54:24.202Z","facilityType":"culture","facilityLabel":"🎨 藝文場館","phone":"+886 3 822 5588","website":"http://hl-tntam.com","wheelchair":false,"paid":null,"needsAddr":false},{"id":7672866784,"name":"超好拍IG熱門景點","lat":24.0197969,"lng":121.640338,"address":null,"hasBabyChanging":false,"hasAccessible":false,"source":"OpenStreetMap","updatedAt":"2026-06-16T15:54:24.202Z","facilityType":"tourist_attraction","facilityLabel":"🧭 旅遊景點","phone":null,"website":null,"wheelchair":false,"paid":null,"needsAddr":true},{"id":10228669194,"name":"花蓮港燈塔","lat":23.9747328,"lng":121.6135476,"address":null,"hasBabyChanging":false,"hasAccessible":false,"source":"OpenStreetMap","updatedAt":"2026-06-16T15:54:24.202Z","facilityType":"tourist_attraction","facilityLabel":"🧭 旅遊景點","phone":null,"website":null,"wheelchair":false,"paid":null,"needsAddr":true},{"id":11416732269,"name":"觀景平台","lat":24.025065,"lng":121.6319179,"address":null,"hasBabyChanging":false,"hasAccessible":false,"source":"OpenStreetMap","updatedAt":"2026-06-16T15:54:24.202Z","facilityType":"tourist_attraction","facilityLabel":"🧭 旅遊景點","phone":null,"website":null,"wheelchair":false,"paid":null,"needsAddr":true},{"id":11453290676,"name":"花蓮港正門","lat":23.9811257,"lng":121.6203464,"address":null,"hasBabyChanging":false,"hasAccessible":false,"source":"OpenStreetMap","updatedAt":"2026-06-16T15:54:24.202Z","facilityType":"tourist_attraction","facilityLabel":"🧭 旅遊景點","phone":null,"website":null,"wheelchair":false,"paid":null,"needsAddr":true},{"id":11453298297,"name":"美崙車站舊址","lat":23.9867256,"lng":121.6275398,"address":null,"hasBabyChanging":false,"hasAccessible":false,"source":"OpenStreetMap","updatedAt":"2026-06-16T15:54:24.202Z","facilityType":"tourist_attraction","facilityLabel":"🧭 旅遊景點","phone":null,"website":null,"wheelchair":false,"paid":null,"needsAddr":true},{"id":11453298298,"name":"新村車站舊址","lat":23.9830852,"lng":121.6238049,"address":null,"hasBabyChanging":false,"hasAccessible":false,"source":"OpenStreetMap","updatedAt":"2026-06-16T15:54:24.202Z","facilityType":"tourist_attraction","facilityLabel":"🧭 旅遊景點","phone":null,"website":null,"wheelchair":false,"paid":null,"needsAddr":true},{"id":11459504540,"name":"原住民文化歷史館","lat":23.9889968,"lng":121.6277316,"address":null,"hasBabyChanging":false,"hasAccessible":false,"source":"OpenStreetMap","updatedAt":"2026-06-16T15:54:24.202Z","facilityType":"science","facilityLabel":"🔬 博物館","phone":null,"website":null,"wheelchair":false,"paid":null,"needsAddr":true},{"id":699477200,"name":"奇萊鼻燈塔","lat":24.015959799999997,"lng":121.64384695,"address":null,"hasBabyChanging":false,"hasAccessible":false,"source":"OpenStreetMap","updatedAt":"2026-06-16T15:54:24.202Z","facilityType":"tourist_attraction","facilityLabel":"🧭 旅遊景點","phone":null,"website":null,"wheelchair":false,"paid":null,"needsAddr":true},{"id":12492085854,"name":"後山水起水資源文物館","lat":23.9845023,"lng":121.6184284,"address":null,"hasBabyChanging":false,"hasAccessible":false,"source":"OpenStreetMap","updatedAt":"2026-06-16T15:54:24.202Z","facilityType":"culture","facilityLabel":"🎨 藝文場館","phone":"+886 3 835 1141 #7","website":null,"wheelchair":false,"paid":null,"needsAddr":true},{"id":13716363766,"name":"U手作","lat":23.9781985,"lng":121.6093674,"address":null,"hasBabyChanging":false,"hasAccessible":false,"source":"OpenStreetMap","updatedAt":"2026-06-16T15:54:24.202Z","facilityType":"diy","facilityLabel":"🧶 DIY手作","phone":null,"website":null,"wheelchair":false,"paid":null,"needsAddr":true},{"id":13851166487,"name":"Visitor Information Center","lat":23.9925453,"lng":121.6013675,"address":null,"hasBabyChanging":false,"hasAccessible":true,"source":"OpenStreetMap","updatedAt":"2026-06-16T15:54:24.202Z","facilityType":"visitor_center","facilityLabel":"🛎 旅客中心","phone":"+886 3860634","website":null,"wheelchair":true,"paid":null,"needsAddr":true},{"id":90964682,"name":"美崙海濱公園","lat":23.98504575,"lng":121.62654040000001,"address":null,"hasBabyChanging":false,"hasAccessible":false,"source":"OpenStreetMap","updatedAt":"2026-06-16T15:54:24.202Z","facilityType":"park","facilityLabel":"🌳 大型公園","phone":null,"website":null,"wheelchair":false,"paid":null,"needsAddr":true},{"id":91018424,"name":"北濱公園","lat":23.97763235,"lng":121.6180828,"address":null,"hasBabyChanging":false,"hasAccessible":false,"source":"OpenStreetMap","updatedAt":"2026-06-16T15:54:24.202Z","facilityType":"park","facilityLabel":"🌳 大型公園","phone":null,"website":null,"wheelchair":false,"paid":null,"needsAddr":true},{"id":91242667,"name":"南濱公園","lat":23.966863500000002,"lng":121.60960019999999,"address":null,"hasBabyChanging":false,"hasAccessible":false,"source":"OpenStreetMap","updatedAt":"2026-06-16T15:54:24.202Z","facilityType":"park","facilityLabel":"🌳 大型公園","phone":null,"website":null,"wheelchair":false,"paid":null,"needsAddr":true},{"id":91561567,"name":"白燈塔公園","lat":23.9951051,"lng":121.63050559999999,"address":null,"hasBabyChanging":false,"hasAccessible":false,"source":"OpenStreetMap","updatedAt":"2026-06-16T15:54:24.202Z","facilityType":"tourist_attraction","facilityLabel":"🧭 旅遊景點","phone":null,"website":null,"wheelchair":false,"paid":null,"needsAddr":true},{"id":92020274,"name":"中琉公園","lat":23.9971757,"lng":121.5999889,"address":"花蓮縣花蓮市富裕十一街","hasBabyChanging":false,"hasAccessible":false,"source":"OpenStreetMap","updatedAt":"2026-06-16T15:54:24.202Z","facilityType":"park","facilityLabel":"🌳 中型公園","phone":null,"website":null,"wheelchair":false,"paid":null,"needsAddr":false},{"id":96698639,"name":"花蓮縣石雕博物館","lat":23.989568849999998,"lng":121.62837515,"address":null,"hasBabyChanging":false,"hasAccessible":false,"source":"OpenStreetMap","updatedAt":"2026-06-16T15:54:24.202Z","facilityType":"science","facilityLabel":"🔬 博物館","phone":null,"website":null,"wheelchair":false,"paid":null,"needsAddr":true},{"id":132937556,"name":"花蓮站前公園","lat":23.991856,"lng":121.60168225000001,"address":null,"hasBabyChanging":false,"hasAccessible":false,"source":"OpenStreetMap","updatedAt":"2026-06-16T15:54:24.202Z","facilityType":"park","facilityLabel":"🌳 小型公園","phone":null,"website":null,"wheelchair":false,"paid":null,"needsAddr":true},{"id":145564265,"name":"中山公園","lat":23.9900175,"lng":121.600746,"address":null,"hasBabyChanging":false,"hasAccessible":false,"source":"OpenStreetMap","updatedAt":"2026-06-16T15:54:24.202Z","facilityType":"park","facilityLabel":"🌳 中型公園","phone":null,"website":null,"wheelchair":false,"paid":null,"needsAddr":true},{"id":145564275,"name":"忘憂亭","lat":23.969616000000002,"lng":121.61276565,"address":null,"hasBabyChanging":false,"hasAccessible":false,"source":"OpenStreetMap","updatedAt":"2026-06-16T15:54:24.202Z","facilityType":"tourist_attraction","facilityLabel":"🧭 旅遊景點","phone":null,"website":null,"wheelchair":false,"paid":null,"needsAddr":true},{"id":246820496,"name":"36號燈塔民宿","lat":23.9724761,"lng":121.61446025000001,"address":null,"hasBabyChanging":false,"hasAccessible":false,"source":"OpenStreetMap","updatedAt":"2026-06-16T15:54:24.202Z","facilityType":"tourist_attraction","facilityLabel":"🧭 旅遊景點","phone":null,"website":null,"wheelchair":false,"paid":null,"needsAddr":true},{"id":277758349,"name":"台肥花蓮深層海水園區","lat":24.006390449999998,"lng":121.6417634,"address":"970024花蓮縣花蓮市華東15號","hasBabyChanging":false,"hasAccessible":false,"source":"OpenStreetMap","updatedAt":"2026-06-16T15:54:24.202Z","facilityType":"spot","facilityLabel":"📍 親子景點","phone":"+886 3 822 3181","website":"https://www.taifer.com.tw/DPark","wheelchair":false,"paid":null,"needsAddr":false},{"id":289461188,"name":"圓環小公圓","lat":23.99144425,"lng":121.6264701,"address":null,"hasBabyChanging":false,"hasAccessible":false,"source":"OpenStreetMap","updatedAt":"2026-06-16T15:54:24.202Z","facilityType":"park","facilityLabel":"🌳 小型公園","phone":null,"website":null,"wheelchair":false,"paid":null,"needsAddr":true},{"id":311215841,"name":"科學館","lat":24.00955835,"lng":121.6198861,"address":null,"hasBabyChanging":false,"hasAccessible":false,"source":"OpenStreetMap","updatedAt":"2026-06-16T15:54:24.202Z","facilityType":"science","facilityLabel":"🔬 博物館","phone":null,"website":null,"wheelchair":false,"paid":null,"needsAddr":true},{"id":334643056,"name":"烏克麗麗公園","lat":23.9777831,"lng":121.61517975000001,"address":null,"hasBabyChanging":false,"hasAccessible":false,"source":"OpenStreetMap","updatedAt":"2026-06-16T15:54:24.202Z","facilityType":"park","facilityLabel":"🌳 小型公園","phone":null,"website":null,"wheelchair":false,"paid":null,"needsAddr":true},{"id":337006822,"name":"碧雲莊林芥公園","lat":23.99725695,"lng":121.57348915,"address":null,"hasBabyChanging":false,"hasAccessible":false,"source":"OpenStreetMap","updatedAt":"2026-06-16T15:54:24.202Z","facilityType":"park","facilityLabel":"🌳 中型公園","phone":null,"website":null,"wheelchair":false,"paid":null,"needsAddr":true},{"id":339293785,"name":"花蓮縣文化局美術館","lat":23.98963775,"lng":121.62958745,"address":null,"hasBabyChanging":false,"hasAccessible":false,"source":"OpenStreetMap","updatedAt":"2026-06-16T15:54:24.202Z","facilityType":"culture","facilityLabel":"🎨 藝文場館","phone":null,"website":null,"wheelchair":false,"paid":null,"needsAddr":true},{"id":356785720,"name":"臥松園區","lat":23.9827721,"lng":121.61614505,"address":null,"hasBabyChanging":false,"hasAccessible":false,"source":"OpenStreetMap","updatedAt":"2026-06-16T15:54:24.202Z","facilityType":"park","facilityLabel":"🌳 小型公園","phone":null,"website":"https://www.facebook.com/wosonoldpine/","wheelchair":false,"paid":false,"needsAddr":true},{"id":372075405,"name":"德興運動公園","lat":24.00570135,"lng":121.5810404,"address":null,"hasBabyChanging":false,"hasAccessible":false,"source":"OpenStreetMap","updatedAt":"2026-06-16T15:54:24.202Z","facilityType":"park","facilityLabel":"🌳 大型公園","phone":null,"website":null,"wheelchair":false,"paid":null,"needsAddr":true},{"id":375814721,"name":"原野牧場","lat":24.02384645,"lng":121.6339401,"address":null,"hasBabyChanging":false,"hasAccessible":false,"source":"OpenStreetMap","updatedAt":"2026-06-16T15:54:24.202Z","facilityType":"farm","facilityLabel":"🌾 農場","phone":null,"website":null,"wheelchair":false,"paid":null,"needsAddr":true},{"id":375886402,"name":"LFT7602 窄軌糖蜜車展示","lat":23.975105149999997,"lng":121.61028300000001,"address":null,"hasBabyChanging":false,"hasAccessible":false,"source":"OpenStreetMap","updatedAt":"2026-06-16T15:54:24.202Z","facilityType":"tourist_attraction","facilityLabel":"🧭 旅遊景點","phone":null,"website":null,"wheelchair":false,"paid":null,"needsAddr":true},{"id":375886408,"name":"鐵道小舖(舊人事室)","lat":23.9749814,"lng":121.6101936,"address":null,"hasBabyChanging":false,"hasAccessible":false,"source":"OpenStreetMap","updatedAt":"2026-06-16T15:54:24.202Z","facilityType":"spot","facilityLabel":"📍 親子景點","phone":null,"website":null,"wheelchair":false,"paid":null,"needsAddr":true},{"id":377074887,"name":"花蓮文化創意產業園區","lat":23.97674095,"lng":121.60439585,"address":null,"hasBabyChanging":false,"hasAccessible":false,"source":"OpenStreetMap","updatedAt":"2026-06-16T15:54:24.202Z","facilityType":"culture","facilityLabel":"🎨 藝文場館","phone":null,"website":null,"wheelchair":false,"paid":null,"needsAddr":true},{"id":377259274,"name":"花蓮市政館","lat":23.987548500000003,"lng":121.60542874999999,"address":null,"hasBabyChanging":false,"hasAccessible":false,"source":"OpenStreetMap","updatedAt":"2026-06-16T15:54:24.202Z","facilityType":"science","facilityLabel":"🔬 博物館","phone":null,"website":null,"wheelchair":false,"paid":null,"needsAddr":true},{"id":379303910,"name":"龍鳳公園","lat":23.9930923,"lng":121.62419840000001,"address":null,"hasBabyChanging":false,"hasAccessible":false,"source":"OpenStreetMap","updatedAt":"2026-06-16T15:54:24.202Z","facilityType":"park","facilityLabel":"🌳 小型公園","phone":null,"website":null,"wheelchair":false,"paid":null,"needsAddr":true},{"id":384521293,"name":"遊客中心","lat":24.0066883,"lng":121.6399127,"address":null,"hasBabyChanging":false,"hasAccessible":false,"source":"OpenStreetMap","updatedAt":"2026-06-16T15:54:24.202Z","facilityType":"visitor_center","facilityLabel":"🛎 旅客中心","phone":null,"website":null,"wheelchair":false,"paid":null,"needsAddr":true},{"id":384532690,"name":"機槍堡","lat":24.025583750000003,"lng":121.63103244999999,"address":null,"hasBabyChanging":false,"hasAccessible":false,"source":"OpenStreetMap","updatedAt":"2026-06-16T15:54:24.202Z","facilityType":"tourist_attraction","facilityLabel":"🧭 旅遊景點","phone":null,"website":null,"wheelchair":false,"paid":null,"needsAddr":true},{"id":387834587,"name":"白色沙灘","lat":23.97466355,"lng":121.61576414999999,"address":"花蓮縣花蓮市海濱街85號","hasBabyChanging":false,"hasAccessible":false,"source":"OpenStreetMap","updatedAt":"2026-06-16T15:54:24.202Z","facilityType":"beach","facilityLabel":"🏖 沙灘","phone":"+886 963 303 070","website":null,"wheelchair":false,"paid":null,"needsAddr":false},{"id":435944268,"name":"砲陣地","lat":24.02481245,"lng":121.6316823,"address":null,"hasBabyChanging":false,"hasAccessible":false,"source":"OpenStreetMap","updatedAt":"2026-06-16T15:54:24.202Z","facilityType":"tourist_attraction","facilityLabel":"🧭 旅遊景點","phone":null,"website":null,"wheelchair":false,"paid":null,"needsAddr":true},{"id":446123821,"name":"科學館","lat":23.98644265,"lng":121.6248869,"address":null,"hasBabyChanging":false,"hasAccessible":false,"source":"OpenStreetMap","updatedAt":"2026-06-16T15:54:24.202Z","facilityType":"science","facilityLabel":"🔬 博物館","phone":null,"website":null,"wheelchair":false,"paid":null,"needsAddr":true},{"id":493693317,"name":"曼波生態休閒園區","lat":24.02498405,"lng":121.63057205,"address":null,"hasBabyChanging":false,"hasAccessible":false,"source":"OpenStreetMap","updatedAt":"2026-06-16T15:54:24.202Z","facilityType":"park","facilityLabel":"🌳 中型公園","phone":null,"website":null,"wheelchair":false,"paid":null,"needsAddr":true},{"id":522125177,"name":"斑馬公園","lat":23.9788599,"lng":121.6020287,"address":null,"hasBabyChanging":false,"hasAccessible":false,"source":"OpenStreetMap","updatedAt":"2026-06-16T15:54:24.202Z","facilityType":"park","facilityLabel":"🌳 小型公園","phone":null,"website":null,"wheelchair":false,"paid":null,"needsAddr":true},{"id":523193065,"name":"長頸鹿親子公園","lat":23.983943699999998,"lng":121.6065873,"address":null,"hasBabyChanging":false,"hasAccessible":false,"source":"OpenStreetMap","updatedAt":"2026-06-16T15:54:24.202Z","facilityType":"park","facilityLabel":"🌳 小型公園","phone":null,"website":null,"wheelchair":false,"paid":null,"needsAddr":true},{"id":556485678,"name":"田埔生態公園","lat":23.9773009,"lng":121.596502,"address":null,"hasBabyChanging":false,"hasAccessible":false,"source":"OpenStreetMap","updatedAt":"2026-06-16T15:54:24.202Z","facilityType":"park","facilityLabel":"🌳 中型公園","phone":null,"website":null,"wheelchair":false,"paid":null,"needsAddr":true},{"id":558121696,"name":"美崙溪河濱公園","lat":23.98164115,"lng":121.61654444999999,"address":null,"hasBabyChanging":false,"hasAccessible":false,"source":"OpenStreetMap","updatedAt":"2026-06-16T15:54:24.202Z","facilityType":"park","facilityLabel":"🌳 中型公園","phone":null,"website":null,"wheelchair":false,"paid":null,"needsAddr":true},{"id":558121697,"name":"花蓮縣文化局園區","lat":23.98963925,"lng":121.6294494,"address":null,"hasBabyChanging":false,"hasAccessible":false,"source":"OpenStreetMap","updatedAt":"2026-06-16T15:54:24.202Z","facilityType":"park","facilityLabel":"🌳 中型公園","phone":null,"website":null,"wheelchair":false,"paid":null,"needsAddr":true},{"id":558121974,"name":"百榕田埔公園","lat":23.9741102,"lng":121.5914008,"address":null,"hasBabyChanging":false,"hasAccessible":false,"source":"OpenStreetMap","updatedAt":"2026-06-16T15:54:24.202Z","facilityType":"park","facilityLabel":"🌳 小型公園","phone":null,"website":null,"wheelchair":false,"paid":null,"needsAddr":true},{"id":558122301,"name":"主權公園","lat":23.9756431,"lng":121.59378075000001,"address":null,"hasBabyChanging":false,"hasAccessible":false,"source":"OpenStreetMap","updatedAt":"2026-06-16T15:54:24.202Z","facilityType":"park","facilityLabel":"🌳 小型公園","phone":null,"website":null,"wheelchair":false,"paid":null,"needsAddr":true},{"id":579424303,"name":"親子親水廣場","lat":23.97738575,"lng":121.61786430000001,"address":null,"hasBabyChanging":false,"hasAccessible":false,"source":"OpenStreetMap","updatedAt":"2026-06-16T15:54:24.202Z","facilityType":"water","facilityLabel":"💧 戲水親水","phone":null,"website":null,"wheelchair":false,"paid":null,"needsAddr":true},{"id":594122876,"name":"中韓扶輪公園","lat":23.9877248,"lng":121.60270485,"address":null,"hasBabyChanging":false,"hasAccessible":false,"source":"OpenStreetMap","updatedAt":"2026-06-16T15:54:24.202Z","facilityType":"park","facilityLabel":"🌳 小型公園","phone":null,"website":null,"wheelchair":false,"paid":null,"needsAddr":true},{"id":614358458,"name":"大本運動公園","lat":24.0036371,"lng":121.6331347,"address":null,"hasBabyChanging":false,"hasAccessible":false,"source":"OpenStreetMap","updatedAt":"2026-06-16T15:54:24.202Z","facilityType":"park","facilityLabel":"🌳 大型公園","phone":null,"website":null,"wheelchair":false,"paid":null,"needsAddr":true},{"id":639258103,"name":"科學館","lat":24.0003094,"lng":121.5755407,"address":null,"hasBabyChanging":false,"hasAccessible":false,"source":"OpenStreetMap","updatedAt":"2026-06-16T15:54:24.202Z","facilityType":"science","facilityLabel":"🔬 博物館","phone":null,"website":null,"wheelchair":false,"paid":null,"needsAddr":true},{"id":659641026,"name":"德興運動公園","lat":24.0051298,"lng":121.58398305,"address":null,"hasBabyChanging":false,"hasAccessible":false,"source":"OpenStreetMap","updatedAt":"2026-06-16T15:54:24.202Z","facilityType":"park","facilityLabel":"🌳 中型公園","phone":null,"website":null,"wheelchair":false,"paid":null,"needsAddr":true},{"id":679495350,"name":"球崙運動公園","lat":23.9996752,"lng":121.62210010000001,"address":null,"hasBabyChanging":false,"hasAccessible":false,"source":"OpenStreetMap","updatedAt":"2026-06-16T15:54:24.202Z","facilityType":"park","facilityLabel":"🌳 中型公園","phone":null,"website":null,"wheelchair":false,"paid":null,"needsAddr":true},{"id":691548049,"name":"花女中庭","lat":23.9792337,"lng":121.61547015,"address":null,"hasBabyChanging":false,"hasAccessible":false,"source":"OpenStreetMap","updatedAt":"2026-06-16T15:54:24.202Z","facilityType":"park","facilityLabel":"🌳 小型公園","phone":null,"website":null,"wheelchair":false,"paid":null,"needsAddr":true},{"id":698192079,"name":"觀音台","lat":23.96816845,"lng":121.61148969999999,"address":null,"hasBabyChanging":false,"hasAccessible":false,"source":"OpenStreetMap","updatedAt":"2026-06-16T15:54:24.202Z","facilityType":"tourist_attraction","facilityLabel":"🧭 旅遊景點","phone":null,"website":null,"wheelchair":false,"paid":null,"needsAddr":true},{"id":705047648,"name":"泗水園","lat":23.985945700000002,"lng":121.60316399999999,"address":null,"hasBabyChanging":false,"hasAccessible":false,"source":"OpenStreetMap","updatedAt":"2026-06-16T15:54:24.202Z","facilityType":"spot","facilityLabel":"📍 親子景點","phone":null,"website":null,"wheelchair":false,"paid":null,"needsAddr":true},{"id":712215293,"name":"普照橋","lat":23.962941899999997,"lng":121.60748989999999,"address":null,"hasBabyChanging":false,"hasAccessible":false,"source":"OpenStreetMap","updatedAt":"2026-06-16T15:54:24.202Z","facilityType":"tourist_attraction","facilityLabel":"🧭 旅遊景點","phone":null,"website":null,"wheelchair":false,"paid":null,"needsAddr":true},{"id":730809293,"name":"環保公園","lat":24.0140659,"lng":121.64413504999999,"address":null,"hasBabyChanging":false,"hasAccessible":false,"source":"OpenStreetMap","updatedAt":"2026-06-16T15:54:24.202Z","facilityType":"park","facilityLabel":"🌳 中型公園","phone":null,"website":null,"wheelchair":false,"paid":null,"needsAddr":true},{"id":777634028,"name":"國富十街公園","lat":23.98867335,"lng":121.5969402,"address":null,"hasBabyChanging":false,"hasAccessible":false,"source":"OpenStreetMap","updatedAt":"2026-06-16T15:54:24.202Z","facilityType":"park","facilityLabel":"🌳 小型公園","phone":null,"website":null,"wheelchair":false,"paid":null,"needsAddr":true},{"id":916071002,"name":"郭子究音樂文化館","lat":23.9871616,"lng":121.6247338,"address":"花蓮縣花蓮市民權七街一巷10號","hasBabyChanging":false,"hasAccessible":false,"source":"OpenStreetMap","updatedAt":"2026-06-16T15:54:24.202Z","facilityType":"science","facilityLabel":"🔬 博物館","phone":null,"website":null,"wheelchair":false,"paid":null,"needsAddr":false},{"id":918983192,"name":"中國廣播股份有限公司花蓮電台","lat":23.9830267,"lng":121.6147063,"address":"花蓮縣花蓮市松園街96號","hasBabyChanging":false,"hasAccessible":false,"source":"OpenStreetMap","updatedAt":"2026-06-16T15:54:24.202Z","facilityType":"science","facilityLabel":"🔬 博物館","phone":null,"website":null,"wheelchair":false,"paid":null,"needsAddr":false},{"id":922328533,"name":"府前石雕公園","lat":23.9917449,"lng":121.6213096,"address":null,"hasBabyChanging":false,"hasAccessible":false,"source":"OpenStreetMap","updatedAt":"2026-06-16T15:54:24.202Z","facilityType":"park","facilityLabel":"🌳 小型公園","phone":null,"website":null,"wheelchair":false,"paid":null,"needsAddr":true},{"id":973607999,"name":"撒固兒文化祭祀廣場","lat":24.0118679,"lng":121.58324300000001,"address":"花蓮縣花蓮市中山路二段52號","hasBabyChanging":false,"hasAccessible":false,"source":"OpenStreetMap","updatedAt":"2026-06-16T15:54:24.202Z","facilityType":"park","facilityLabel":"🌳 小型公園","phone":null,"website":null,"wheelchair":false,"paid":null,"needsAddr":false},{"id":973608000,"name":"撒固兒國福養生休閒園區","lat":24.01232245,"lng":121.58435475,"address":null,"hasBabyChanging":false,"hasAccessible":false,"source":"OpenStreetMap","updatedAt":"2026-06-16T15:54:24.202Z","facilityType":"park","facilityLabel":"🌳 中型公園","phone":null,"website":null,"wheelchair":false,"paid":null,"needsAddr":true},{"id":999351030,"name":"自由廣場","lat":23.9847258,"lng":121.6043083,"address":null,"hasBabyChanging":false,"hasAccessible":false,"source":"OpenStreetMap","updatedAt":"2026-06-16T15:54:24.202Z","facilityType":"park","facilityLabel":"🌳 小型公園","phone":null,"website":null,"wheelchair":false,"paid":null,"needsAddr":true},{"id":1079152657,"name":"大陳故事館","lat":24.004456849999997,"lng":121.6172083,"address":"花蓮縣花蓮市民光71-1號","hasBabyChanging":false,"hasAccessible":false,"source":"OpenStreetMap","updatedAt":"2026-06-16T15:54:24.202Z","facilityType":"science","facilityLabel":"🔬 博物館","phone":null,"website":null,"wheelchair":false,"paid":null,"needsAddr":false},{"id":1079152660,"name":"美崙山公園生態展示館","lat":23.99209525,"lng":121.6112059,"address":null,"hasBabyChanging":false,"hasAccessible":false,"source":"OpenStreetMap","updatedAt":"2026-06-16T15:54:24.202Z","facilityType":"eco_center","facilityLabel":"🌱 生態館","phone":null,"website":null,"wheelchair":false,"paid":null,"needsAddr":true},{"id":1080860665,"name":"根努夷公園","lat":23.9916225,"lng":121.59441684999999,"address":null,"hasBabyChanging":false,"hasAccessible":false,"source":"OpenStreetMap","updatedAt":"2026-06-16T15:54:24.202Z","facilityType":"park","facilityLabel":"🌳 小型公園","phone":null,"website":null,"wheelchair":false,"paid":null,"needsAddr":true},{"id":1177997469,"name":"花蓮農好基地","lat":24.023741299999998,"lng":121.6307591,"address":"花蓮市花蓮市海岸路118號","hasBabyChanging":false,"hasAccessible":false,"source":"OpenStreetMap","updatedAt":"2026-06-16T15:54:24.202Z","facilityType":"tourist_attraction","facilityLabel":"🧭 旅遊景點","phone":null,"website":null,"wheelchair":false,"paid":null,"needsAddr":false},{"id":1234781381,"name":"花蓮後備軍人公園","lat":23.9902706,"lng":121.63373275000001,"address":null,"hasBabyChanging":false,"hasAccessible":false,"source":"OpenStreetMap","updatedAt":"2026-06-16T15:54:24.202Z","facilityType":"park","facilityLabel":"🌳 小型公園","phone":null,"website":null,"wheelchair":false,"paid":null,"needsAddr":true},{"id":1234784157,"name":"花蓮港觀海平台","lat":23.9797045,"lng":121.62042545,"address":null,"hasBabyChanging":false,"hasAccessible":false,"source":"OpenStreetMap","updatedAt":"2026-06-16T15:54:24.202Z","facilityType":"park","facilityLabel":"🌳 小型公園","phone":null,"website":null,"wheelchair":false,"paid":null,"needsAddr":true},{"id":1234786196,"name":"花蓮縣和平廣場","lat":23.97972705,"lng":121.61895974999999,"address":null,"hasBabyChanging":false,"hasAccessible":false,"source":"OpenStreetMap","updatedAt":"2026-06-16T15:54:24.202Z","facilityType":"park","facilityLabel":"🌳 小型公園","phone":null,"website":null,"wheelchair":false,"paid":null,"needsAddr":true},{"id":1234786198,"name":"花蓮港小公園","lat":23.9803902,"lng":121.6193091,"address":null,"hasBabyChanging":false,"hasAccessible":false,"source":"OpenStreetMap","updatedAt":"2026-06-16T15:54:24.202Z","facilityType":"park","facilityLabel":"🌳 小型公園","phone":null,"website":null,"wheelchair":false,"paid":null,"needsAddr":true},{"id":1236763468,"name":"東大門共融公園","lat":23.97132955,"lng":121.61195355000001,"address":null,"hasBabyChanging":false,"hasAccessible":false,"source":"OpenStreetMap","updatedAt":"2026-06-16T15:54:24.202Z","facilityType":"park","facilityLabel":"🌳 中型公園","phone":null,"website":null,"wheelchair":false,"paid":null,"needsAddr":true},{"id":1236776171,"name":"花蓮港親水遊憩區","lat":23.9935643,"lng":121.63631605,"address":null,"hasBabyChanging":false,"hasAccessible":false,"source":"OpenStreetMap","updatedAt":"2026-06-16T15:54:24.202Z","facilityType":"water","facilityLabel":"💧 戲水親水","phone":null,"website":null,"wheelchair":false,"paid":null,"needsAddr":true},{"id":1241315054,"name":"美崙林園公園","lat":24.00225085,"lng":121.63083525,"address":null,"hasBabyChanging":false,"hasAccessible":false,"source":"OpenStreetMap","updatedAt":"2026-06-16T15:54:24.202Z","facilityType":"park","facilityLabel":"🌳 小型公園","phone":null,"website":null,"wheelchair":false,"paid":null,"needsAddr":true},{"id":1241402410,"name":"計量與綠能探索館","lat":23.990127899999997,"lng":121.63242485,"address":null,"hasBabyChanging":false,"hasAccessible":false,"source":"OpenStreetMap","updatedAt":"2026-06-16T15:54:24.202Z","facilityType":"science","facilityLabel":"🔬 博物館","phone":null,"website":null,"wheelchair":false,"paid":null,"needsAddr":true},{"id":1295717354,"name":"觀景平台","lat":23.99432825,"lng":121.61488320000001,"address":null,"hasBabyChanging":false,"hasAccessible":false,"source":"OpenStreetMap","updatedAt":"2026-06-16T15:54:24.202Z","facilityType":"tourist_attraction","facilityLabel":"🧭 旅遊景點","phone":null,"website":null,"wheelchair":false,"paid":null,"needsAddr":true},{"id":1347596928,"name":"花蓮縣防災教育館","lat":24.0202343,"lng":121.6319158,"address":"花蓮縣花蓮市民心里華西127號","hasBabyChanging":false,"hasAccessible":false,"source":"OpenStreetMap","updatedAt":"2026-06-16T15:54:24.202Z","facilityType":"science","facilityLabel":"🔬 博物館","phone":"+886 3 823 0119","website":"https://hldp.hlcfd.gov.tw/","wheelchair":false,"paid":null,"needsAddr":false},{"id":1348251269,"name":"萬壽公園","lat":23.98780825,"lng":121.6068126,"address":null,"hasBabyChanging":false,"hasAccessible":false,"source":"OpenStreetMap","updatedAt":"2026-06-16T15:54:24.202Z","facilityType":"park","facilityLabel":"🌳 小型公園","phone":null,"website":null,"wheelchair":false,"paid":null,"needsAddr":true},{"id":1348964022,"name":"花崗山運動公園","lat":23.977009000000002,"lng":121.61432235,"address":null,"hasBabyChanging":false,"hasAccessible":false,"source":"OpenStreetMap","updatedAt":"2026-06-16T15:54:24.202Z","facilityType":"park","facilityLabel":"🌳 中型公園","phone":null,"website":null,"wheelchair":false,"paid":null,"needsAddr":true},{"id":1349959263,"name":"憲兵公園","lat":23.9779015,"lng":121.6111773,"address":null,"hasBabyChanging":false,"hasAccessible":false,"source":"OpenStreetMap","updatedAt":"2026-06-16T15:54:24.202Z","facilityType":"park","facilityLabel":"🌳 小型公園","phone":null,"website":null,"wheelchair":false,"paid":null,"needsAddr":true},{"id":1350322978,"name":"中正公園","lat":23.9847383,"lng":121.61169285,"address":null,"hasBabyChanging":false,"hasAccessible":false,"source":"OpenStreetMap","updatedAt":"2026-06-16T15:54:24.202Z","facilityType":"park","facilityLabel":"🌳 小型公園","phone":null,"website":null,"wheelchair":false,"paid":null,"needsAddr":true},{"id":1442006887,"name":"七腳川公園","lat":23.963841600000002,"lng":121.6047964,"address":null,"hasBabyChanging":false,"hasAccessible":false,"source":"OpenStreetMap","updatedAt":"2026-06-16T15:54:24.202Z","facilityType":"park","facilityLabel":"🌳 小型公園","phone":null,"website":null,"wheelchair":false,"paid":null,"needsAddr":true},{"id":1458309044,"name":"美崙溪畔寵物公園","lat":24.007188749999997,"lng":121.57885575,"address":null,"hasBabyChanging":false,"hasAccessible":false,"source":"OpenStreetMap","updatedAt":"2026-06-16T15:54:24.202Z","facilityType":"park","facilityLabel":"🌳 大型公園","phone":null,"website":null,"wheelchair":false,"paid":null,"needsAddr":true},{"id":3326569,"name":"陽光電城園區","lat":23.972496900000003,"lng":121.6109845,"address":null,"hasBabyChanging":false,"hasAccessible":false,"source":"OpenStreetMap","updatedAt":"2026-06-16T15:54:24.202Z","facilityType":"park","facilityLabel":"🌳 中型公園","phone":null,"website":null,"wheelchair":false,"paid":null,"needsAddr":true},{"id":8199567,"name":"江口良三郎紀念公園","lat":23.987987,"lng":121.62961435,"address":null,"hasBabyChanging":false,"hasAccessible":false,"source":"OpenStreetMap","updatedAt":"2026-06-16T15:54:24.202Z","facilityType":"park","facilityLabel":"🌳 中型公園","phone":null,"website":null,"wheelchair":false,"paid":null,"needsAddr":true},{"id":16863496,"name":"花蓮地檢署森林公園","lat":23.98936295,"lng":121.62051915,"address":null,"hasBabyChanging":false,"hasAccessible":false,"source":"OpenStreetMap","updatedAt":"2026-06-16T15:54:24.202Z","facilityType":"park","facilityLabel":"🌳 中型公園","phone":null,"website":null,"wheelchair":false,"paid":null,"needsAddr":true},{"id":18492124,"name":"花蓮港放送局1944","lat":23.98300935,"lng":121.61468335,"address":"花蓮縣花蓮市民勤里1鄰松園街96號","hasBabyChanging":false,"hasAccessible":false,"source":"OpenStreetMap","updatedAt":"2026-06-16T15:54:24.202Z","facilityType":"science","facilityLabel":"🔬 博物館","phone":null,"website":"https://www.facebook.com/profile.php?id=61565990859508","wheelchair":false,"paid":null,"needsAddr":false},{"id":18504360,"name":"美崙山休閒運動公園","lat":23.996262950000002,"lng":121.61706255,"address":null,"hasBabyChanging":false,"hasAccessible":false,"source":"OpenStreetMap","updatedAt":"2026-06-16T15:54:24.202Z","facilityType":"park","facilityLabel":"🌳 中型公園","phone":null,"website":null,"wheelchair":false,"paid":null,"needsAddr":true},{"id":3835143757,"name":"移民村警察廳","lat":23.7524224,"lng":121.4676923,"address":"975花蓮縣鳳林鎮復興路71號","hasBabyChanging":false,"hasAccessible":false,"source":"OpenStreetMap","updatedAt":"2026-06-16T15:54:24.202Z","facilityType":"tourist_attraction","facilityLabel":"🧭 旅遊景點","phone":null,"website":"http://www.smartimc.com.tw/fonglintraveling/article.aspx?t=2&id=18","wheelchair":false,"paid":null,"needsAddr":false},{"id":3835148764,"name":"廖快菸樓","lat":23.7534215,"lng":121.4682367,"address":"975花蓮縣鳳林鎮復興路81號","hasBabyChanging":false,"hasAccessible":false,"source":"OpenStreetMap","updatedAt":"2026-06-16T15:54:24.202Z","facilityType":"tourist_attraction","facilityLabel":"🧭 旅遊景點","phone":null,"website":"https://www.facebook.com/ju1042002/","wheelchair":false,"paid":null,"needsAddr":false},{"id":3835167857,"name":"校長夢工廠","lat":23.7475884,"lng":121.4502338,"address":"975花蓮縣鳳林鎮民生街16號","hasBabyChanging":false,"hasAccessible":false,"source":"OpenStreetMap","updatedAt":"2026-06-16T15:54:24.202Z","facilityType":"tourist_attraction","facilityLabel":"🧭 旅遊景點","phone":null,"website":"https://travel.network.com.tw/main/travel/point/showpage/105147.html","wheelchair":false,"paid":null,"needsAddr":false},{"id":3835179857,"name":"鳳凰瀑布風景區","lat":23.7567186,"lng":121.4261261,"address":"花蓮縣鳳林鎮","hasBabyChanging":false,"hasAccessible":false,"source":"OpenStreetMap","updatedAt":"2026-06-16T15:54:24.202Z","facilityType":"scenic_area","facilityLabel":"🏞 風景區","phone":null,"website":null,"wheelchair":false,"paid":null,"needsAddr":false},{"id":3837322959,"name":"林田山-上徒步區","lat":23.7185634,"lng":121.4015704,"address":null,"hasBabyChanging":false,"hasAccessible":true,"source":"OpenStreetMap","updatedAt":"2026-06-16T15:54:24.202Z","facilityType":"theme_park","facilityLabel":"🎡 遊樂場","phone":null,"website":null,"wheelchair":true,"paid":null,"needsAddr":true},{"id":3837332893,"name":"林田山-林業展示館","lat":23.7181852,"lng":121.3995749,"address":null,"hasBabyChanging":false,"hasAccessible":true,"source":"OpenStreetMap","updatedAt":"2026-06-16T15:54:24.202Z","facilityType":"theme_park","facilityLabel":"🎡 遊樂場","phone":null,"website":null,"wheelchair":true,"paid":null,"needsAddr":true},{"id":3837362457,"name":"林田山-下徒步區","lat":23.7180329,"lng":121.3992208,"address":null,"hasBabyChanging":false,"hasAccessible":true,"source":"OpenStreetMap","updatedAt":"2026-06-16T15:54:24.202Z","facilityType":"theme_park","facilityLabel":"🎡 遊樂場","phone":null,"website":null,"wheelchair":true,"paid":null,"needsAddr":true},{"id":4693550509,"name":"茄苳神木","lat":23.7701493,"lng":121.4528805,"address":null,"hasBabyChanging":false,"hasAccessible":false,"source":"OpenStreetMap","updatedAt":"2026-06-16T15:54:24.202Z","facilityType":"tourist_attraction","facilityLabel":"🧭 旅遊景點","phone":null,"website":null,"wheelchair":false,"paid":null,"needsAddr":true},{"id":8871262574,"name":"華哥雕刻工坊","lat":23.752826,"lng":121.4674849,"address":null,"hasBabyChanging":false,"hasAccessible":false,"source":"OpenStreetMap","updatedAt":"2026-06-16T15:54:24.202Z","facilityType":"diy","facilityLabel":"🧶 DIY手作","phone":null,"website":null,"wheelchair":false,"paid":null,"needsAddr":true},{"id":11254623454,"name":"兆豐故事館","lat":23.801352,"lng":121.4645675,"address":null,"hasBabyChanging":false,"hasAccessible":false,"source":"OpenStreetMap","updatedAt":"2026-06-16T15:54:24.202Z","facilityType":"science","facilityLabel":"🔬 博物館","phone":null,"website":null,"wheelchair":false,"paid":null,"needsAddr":true},{"id":11255404620,"name":"羊駝、水豚","lat":23.7996302,"lng":121.4680572,"address":null,"hasBabyChanging":false,"hasAccessible":false,"source":"OpenStreetMap","updatedAt":"2026-06-16T15:54:24.202Z","facilityType":"farm","facilityLabel":"🌾 農場","phone":null,"website":null,"wheelchair":false,"paid":null,"needsAddr":true},{"id":12518461609,"name":"林田圳虹吸式圳道","lat":23.7631135,"lng":121.4665335,"address":null,"hasBabyChanging":false,"hasAccessible":false,"source":"OpenStreetMap","updatedAt":"2026-06-16T15:54:24.202Z","facilityType":"tourist_attraction","facilityLabel":"🧭 旅遊景點","phone":null,"website":"https://nchdb.boch.gov.tw/city/HUN/assets/overview/historicalBuilding/20161221000003","wheelchair":false,"paid":null,"needsAddr":true},{"id":12518470695,"name":"平林圳過水橋","lat":23.7930293,"lng":121.449472,"address":null,"hasBabyChanging":false,"hasAccessible":false,"source":"OpenStreetMap","updatedAt":"2026-06-16T15:54:24.202Z","facilityType":"tourist_attraction","facilityLabel":"🧭 旅遊景點","phone":null,"website":"https://nchdb.boch.gov.tw/city/HUN/assets/overview/historicalBuilding/20161221000002","wheelchair":false,"paid":null,"needsAddr":true},{"id":288037665,"name":"鳳凰公園","lat":23.755771449999997,"lng":121.430825,"address":null,"hasBabyChanging":false,"hasAccessible":false,"source":"OpenStreetMap","updatedAt":"2026-06-16T15:54:24.202Z","facilityType":"park","facilityLabel":"🌳 中型公園","phone":null,"website":null,"wheelchair":false,"paid":null,"needsAddr":true},{"id":420303039,"name":"教育公園","lat":23.7472864,"lng":121.45023405,"address":null,"hasBabyChanging":false,"hasAccessible":false,"source":"OpenStreetMap","updatedAt":"2026-06-16T15:54:24.202Z","facilityType":"park","facilityLabel":"🌳 小型公園","phone":null,"website":null,"wheelchair":false,"paid":null,"needsAddr":true},{"id":557611491,"name":"大榮一村公園","lat":23.745142700000002,"lng":121.4593462,"address":null,"hasBabyChanging":false,"hasAccessible":false,"source":"OpenStreetMap","updatedAt":"2026-06-16T15:54:24.202Z","facilityType":"park","facilityLabel":"🌳 小型公園","phone":null,"website":null,"wheelchair":false,"paid":null,"needsAddr":true},{"id":558121088,"name":"鳳林公園","lat":23.747110999999997,"lng":121.45155940000001,"address":null,"hasBabyChanging":false,"hasAccessible":false,"source":"OpenStreetMap","updatedAt":"2026-06-16T15:54:24.202Z","facilityType":"park","facilityLabel":"🌳 小型公園","phone":null,"website":null,"wheelchair":false,"paid":null,"needsAddr":true},{"id":558121155,"name":"鳳林公路公園","lat":23.76173235,"lng":121.45535985000001,"address":null,"hasBabyChanging":false,"hasAccessible":false,"source":"OpenStreetMap","updatedAt":"2026-06-16T15:54:24.202Z","facilityType":"park","facilityLabel":"🌳 中型公園","phone":null,"website":null,"wheelchair":false,"paid":null,"needsAddr":true},{"id":675154878,"name":"鳳林蜜蜂生態教育館","lat":23.77920375,"lng":121.45827345000001,"address":null,"hasBabyChanging":false,"hasAccessible":false,"source":"OpenStreetMap","updatedAt":"2026-06-16T15:54:24.202Z","facilityType":"eco_center","facilityLabel":"🌱 生態館","phone":null,"website":null,"wheelchair":false,"paid":null,"needsAddr":true},{"id":750977326,"name":"中山堂","lat":23.71670645,"lng":121.39806279999999,"address":"花蓮縣鳳林鎮林安路22號","hasBabyChanging":false,"hasAccessible":false,"source":"OpenStreetMap","updatedAt":"2026-06-16T15:54:24.202Z","facilityType":"tourist_attraction","facilityLabel":"🧭 旅遊景點","phone":null,"website":null,"wheelchair":false,"paid":null,"needsAddr":false},{"id":771024302,"name":"新光兆豐休閒農場遊客中心","lat":23.80134925,"lng":121.4645209,"address":null,"hasBabyChanging":false,"hasAccessible":false,"source":"OpenStreetMap","updatedAt":"2026-06-16T15:54:24.202Z","facilityType":"farm","facilityLabel":"🌾 農場","phone":null,"website":null,"wheelchair":false,"paid":null,"needsAddr":true},{"id":771190246,"name":"林田山林業文化園區","lat":23.71730145,"lng":121.3992904,"address":"花蓮縣鳳林鎮鳳林鎮森榮里林森路99巷99號","hasBabyChanging":false,"hasAccessible":false,"source":"OpenStreetMap","updatedAt":"2026-06-16T15:54:24.202Z","facilityType":"tourist_attraction","facilityLabel":"🧭 旅遊景點","phone":"+886 3 875 2378","website":"https://www.forest.gov.tw/0000221","wheelchair":false,"paid":null,"needsAddr":false},{"id":968666850,"name":"箭瑛公園","lat":23.731546899999998,"lng":121.4908891,"address":null,"hasBabyChanging":false,"hasAccessible":false,"source":"OpenStreetMap","updatedAt":"2026-06-16T15:54:24.202Z","facilityType":"park","facilityLabel":"🌳 小型公園","phone":null,"website":null,"wheelchair":false,"paid":null,"needsAddr":true},{"id":1192595347,"name":"林榮火車公園","lat":23.80347165,"lng":121.45143,"address":null,"hasBabyChanging":false,"hasAccessible":false,"source":"OpenStreetMap","updatedAt":"2026-06-16T15:54:24.202Z","facilityType":"park","facilityLabel":"🌳 小型公園","phone":null,"website":null,"wheelchair":false,"paid":null,"needsAddr":true},{"id":1214844717,"name":"新光動物園","lat":23.7984195,"lng":121.46859265,"address":null,"hasBabyChanging":false,"hasAccessible":false,"source":"OpenStreetMap","updatedAt":"2026-06-16T15:54:24.202Z","facilityType":"zoo","facilityLabel":"🦁 動物園","phone":null,"website":null,"wheelchair":false,"paid":null,"needsAddr":true},{"id":1352949208,"name":"鳳林溪畔公園","lat":23.7633363,"lng":121.4602062,"address":null,"hasBabyChanging":false,"hasAccessible":false,"source":"OpenStreetMap","updatedAt":"2026-06-16T15:54:24.202Z","facilityType":"park","facilityLabel":"🌳 小型公園","phone":null,"website":null,"wheelchair":false,"paid":null,"needsAddr":true},{"id":6992614,"name":"林田史蹟公園","lat":23.748782650000003,"lng":121.4658187,"address":null,"hasBabyChanging":false,"hasAccessible":false,"source":"OpenStreetMap","updatedAt":"2026-06-16T15:54:24.202Z","facilityType":"park","facilityLabel":"🌳 中型公園","phone":null,"website":"https://travel.network.com.tw/main/travel/point/showpage/105189.html","wheelchair":false,"paid":null,"needsAddr":true},{"id":7075261,"name":"花東沿海保護區","lat":23.36054935,"lng":121.3802612,"address":null,"hasBabyChanging":false,"hasAccessible":false,"source":"OpenStreetMap","updatedAt":"2026-06-16T15:54:24.202Z","facilityType":"spot","facilityLabel":"📍 親子景點","phone":null,"website":"http://www.cpami.gov.tw/chinese/index.php?option=com_content&view=article&id=18327&Itemid=53","wheelchair":false,"paid":null,"needsAddr":true},{"id":3656286367,"name":"玉里社殘蹟","lat":23.3338107,"lng":121.307334,"address":null,"hasBabyChanging":false,"hasAccessible":false,"source":"OpenStreetMap","updatedAt":"2026-06-16T15:54:24.202Z","facilityType":"tourist_attraction","facilityLabel":"🧭 旅遊景點","phone":null,"website":null,"wheelchair":false,"paid":null,"needsAddr":true},{"id":4090193852,"name":"馬太林池","lat":23.4094467,"lng":121.4147283,"address":null,"hasBabyChanging":false,"hasAccessible":false,"source":"OpenStreetMap","updatedAt":"2026-06-16T15:54:24.202Z","facilityType":"tourist_attraction","facilityLabel":"🧭 旅遊景點","phone":null,"website":null,"wheelchair":false,"paid":null,"needsAddr":true},{"id":4911019922,"name":"歐亞-菲律賓海板塊交界處","lat":23.3212047,"lng":121.3303759,"address":null,"hasBabyChanging":false,"hasAccessible":false,"source":"OpenStreetMap","updatedAt":"2026-06-16T15:54:24.202Z","facilityType":"tourist_attraction","facilityLabel":"🧭 旅遊景點","phone":null,"website":null,"wheelchair":false,"paid":null,"needsAddr":true},{"id":5227357848,"name":"赤柯山千噸石龜","lat":23.4036757,"lng":121.4016455,"address":null,"hasBabyChanging":false,"hasAccessible":false,"source":"OpenStreetMap","updatedAt":"2026-06-16T15:54:24.202Z","facilityType":"tourist_attraction","facilityLabel":"🧭 旅遊景點","phone":null,"website":null,"wheelchair":false,"paid":null,"needsAddr":true},{"id":5227742731,"name":"哈拉灣神社鳥居","lat":23.3184199,"lng":121.3448885,"address":null,"hasBabyChanging":false,"hasAccessible":false,"source":"OpenStreetMap","updatedAt":"2026-06-16T15:54:24.202Z","facilityType":"tourist_attraction","facilityLabel":"🧭 旅遊景點","phone":null,"website":null,"wheelchair":false,"paid":null,"needsAddr":true},{"id":5246614723,"name":"東豐露營區","lat":23.3361209,"lng":121.339839,"address":null,"hasBabyChanging":false,"hasAccessible":false,"source":"OpenStreetMap","updatedAt":"2026-06-16T15:54:24.202Z","facilityType":"spot","facilityLabel":"📍 親子景點","phone":"0972 838 351","website":null,"wheelchair":false,"paid":null,"needsAddr":true},{"id":8044669296,"name":"鐵份瀑布","lat":23.3506779,"lng":121.3525987,"address":null,"hasBabyChanging":false,"hasAccessible":false,"source":"OpenStreetMap","updatedAt":"2026-06-16T15:54:24.202Z","facilityType":"tourist_attraction","facilityLabel":"🧭 旅遊景點","phone":null,"website":null,"wheelchair":false,"paid":null,"needsAddr":true},{"id":8072319823,"name":"玉里迪階陸橋殘蹟","lat":23.440729,"lng":121.3499419,"address":null,"hasBabyChanging":false,"hasAccessible":false,"source":"OpenStreetMap","updatedAt":"2026-06-16T15:54:24.202Z","facilityType":"tourist_attraction","facilityLabel":"🧭 旅遊景點","phone":null,"website":null,"wheelchair":false,"paid":null,"needsAddr":true},{"id":8410736319,"name":"客城鐵橋","lat":23.3198972,"lng":121.3108677,"address":null,"hasBabyChanging":false,"hasAccessible":false,"source":"OpenStreetMap","updatedAt":"2026-06-16T15:54:24.202Z","facilityType":"tourist_attraction","facilityLabel":"🧭 旅遊景點","phone":null,"website":null,"wheelchair":false,"paid":null,"needsAddr":true},{"id":360889189,"name":"玉里運動公園","lat":23.3429258,"lng":121.3197392,"address":null,"hasBabyChanging":false,"hasAccessible":false,"source":"OpenStreetMap","updatedAt":"2026-06-16T15:54:24.202Z","facilityType":"park","facilityLabel":"🌳 大型公園","phone":null,"website":null,"wheelchair":false,"paid":null,"needsAddr":true},{"id":360907170,"name":"玉里鎮休閒農漁園區遊客服務中心","lat":23.3384445,"lng":121.3151012,"address":null,"hasBabyChanging":false,"hasAccessible":false,"source":"OpenStreetMap","updatedAt":"2026-06-16T15:54:24.202Z","facilityType":"visitor_center","facilityLabel":"🛎 旅客中心","phone":null,"website":null,"wheelchair":false,"paid":null,"needsAddr":true},{"id":924636472,"name":"璞石閣公園","lat":23.335164749999997,"lng":121.31931560000001,"address":null,"hasBabyChanging":false,"hasAccessible":false,"source":"OpenStreetMap","updatedAt":"2026-06-16T15:54:24.202Z","facilityType":"park","facilityLabel":"🌳 小型公園","phone":null,"website":null,"wheelchair":false,"paid":null,"needsAddr":true},{"id":924636490,"name":"玉城公園","lat":23.330727500000002,"lng":121.31910500000001,"address":null,"hasBabyChanging":false,"hasAccessible":false,"source":"OpenStreetMap","updatedAt":"2026-06-16T15:54:24.202Z","facilityType":"park","facilityLabel":"🌳 小型公園","phone":null,"website":null,"wheelchair":false,"paid":null,"needsAddr":true},{"id":924636547,"name":"玉璞公園","lat":23.3257666,"lng":121.3202689,"address":null,"hasBabyChanging":false,"hasAccessible":false,"source":"OpenStreetMap","updatedAt":"2026-06-16T15:54:24.202Z","facilityType":"park","facilityLabel":"🌳 小型公園","phone":null,"website":null,"wheelchair":false,"paid":null,"needsAddr":true},{"id":1290196470,"name":"啟模溼地公園","lat":23.3453674,"lng":121.32969929999999,"address":null,"hasBabyChanging":false,"hasAccessible":false,"source":"OpenStreetMap","updatedAt":"2026-06-16T15:54:24.202Z","facilityType":"park","facilityLabel":"🌳 大型公園","phone":null,"website":null,"wheelchair":false,"paid":null,"needsAddr":true},{"id":7075261,"name":"花東沿海保護區","lat":23.36054935,"lng":121.3802612,"address":null,"hasBabyChanging":false,"hasAccessible":false,"source":"OpenStreetMap","updatedAt":"2026-06-16T15:54:24.202Z","facilityType":"spot","facilityLabel":"📍 親子景點","phone":null,"website":"http://www.cpami.gov.tw/chinese/index.php?option=com_content&view=article&id=18327&Itemid=53","wheelchair":false,"paid":null,"needsAddr":true},{"id":4338589716,"name":"B&B 海洋微風之家","lat":24.040857,"lng":121.6215888,"address":"花蓮縣新城鄉德莊街3號","hasBabyChanging":false,"hasAccessible":false,"source":"OpenStreetMap","updatedAt":"2026-06-16T15:54:24.202Z","facilityType":"mall","facilityLabel":"🛍 商場","phone":null,"website":null,"wheelchair":false,"paid":null,"needsAddr":false},{"id":5999282885,"name":"七星潭風景區","lat":24.0384359,"lng":121.6242035,"address":null,"hasBabyChanging":false,"hasAccessible":false,"source":"OpenStreetMap","updatedAt":"2026-06-16T15:54:24.202Z","facilityType":"scenic_area","facilityLabel":"🏞 風景區","phone":null,"website":null,"wheelchair":false,"paid":null,"needsAddr":true},{"id":6080279443,"name":"花蓮港教會新城營地","lat":24.1257231,"lng":121.6526426,"address":null,"hasBabyChanging":false,"hasAccessible":false,"source":"OpenStreetMap","updatedAt":"2026-06-16T15:54:24.202Z","facilityType":"spot","facilityLabel":"📍 親子景點","phone":null,"website":null,"wheelchair":false,"paid":null,"needsAddr":true},{"id":6820803915,"name":"七星潭","lat":24.0269075,"lng":121.6316795,"address":null,"hasBabyChanging":false,"hasAccessible":false,"source":"OpenStreetMap","updatedAt":"2026-06-16T15:54:24.202Z","facilityType":"visitor_center","facilityLabel":"🛎 旅客中心","phone":null,"website":null,"wheelchair":false,"paid":null,"needsAddr":true},{"id":11443658449,"name":"兩潭自行車道起點","lat":24.0416416,"lng":121.6224919,"address":null,"hasBabyChanging":false,"hasAccessible":false,"source":"OpenStreetMap","updatedAt":"2026-06-16T15:54:24.202Z","facilityType":"tourist_attraction","facilityLabel":"🧭 旅遊景點","phone":null,"website":null,"wheelchair":false,"paid":null,"needsAddr":true},{"id":92385599,"name":"龍泉親水公園","lat":24.01710275,"lng":121.603298,"address":null,"hasBabyChanging":false,"hasAccessible":false,"source":"OpenStreetMap","updatedAt":"2026-06-16T15:54:24.202Z","facilityType":"water","facilityLabel":"💧 戲水親水","phone":null,"website":null,"wheelchair":false,"paid":null,"needsAddr":true},{"id":93460244,"name":"溪畔公園","lat":24.0195345,"lng":121.6044849,"address":null,"hasBabyChanging":false,"hasAccessible":false,"source":"OpenStreetMap","updatedAt":"2026-06-16T15:54:24.202Z","facilityType":"park","facilityLabel":"🌳 小型公園","phone":null,"website":null,"wheelchair":false,"paid":null,"needsAddr":true},{"id":197568202,"name":"漫波海灘","lat":24.1162764,"lng":121.64217355,"address":null,"hasBabyChanging":false,"hasAccessible":false,"source":"OpenStreetMap","updatedAt":"2026-06-16T15:54:24.202Z","facilityType":"beach","facilityLabel":"🏖 沙灘","phone":null,"website":null,"wheelchair":false,"paid":null,"needsAddr":true},{"id":372428956,"name":"研海庄役場","lat":24.12644035,"lng":121.6535279,"address":null,"hasBabyChanging":false,"hasAccessible":false,"source":"OpenStreetMap","updatedAt":"2026-06-16T15:54:24.202Z","facilityType":"tourist_attraction","facilityLabel":"🧭 旅遊景點","phone":null,"website":null,"wheelchair":false,"paid":null,"needsAddr":true},{"id":384529893,"name":"觀測所","lat":24.0257712,"lng":121.63047775000001,"address":null,"hasBabyChanging":false,"hasAccessible":false,"source":"OpenStreetMap","updatedAt":"2026-06-16T15:54:24.202Z","facilityType":"tourist_attraction","facilityLabel":"🧭 旅遊景點","phone":null,"website":null,"wheelchair":false,"paid":null,"needsAddr":true},{"id":384552579,"name":"砲陣地","lat":24.025730449999998,"lng":121.63040365,"address":null,"hasBabyChanging":false,"hasAccessible":false,"source":"OpenStreetMap","updatedAt":"2026-06-16T15:54:24.202Z","facilityType":"tourist_attraction","facilityLabel":"🧭 旅遊景點","phone":null,"website":null,"wheelchair":false,"paid":null,"needsAddr":true},{"id":384553368,"name":"坑道內類似地下室的無窗戶空間","lat":24.02573925,"lng":121.6303633,"address":null,"hasBabyChanging":false,"hasAccessible":false,"source":"OpenStreetMap","updatedAt":"2026-06-16T15:54:24.202Z","facilityType":"tourist_attraction","facilityLabel":"🧭 旅遊景點","phone":null,"website":null,"wheelchair":false,"paid":null,"needsAddr":true},{"id":493693317,"name":"曼波生態休閒園區","lat":24.02498405,"lng":121.63057205,"address":null,"hasBabyChanging":false,"hasAccessible":false,"source":"OpenStreetMap","updatedAt":"2026-06-16T15:54:24.202Z","facilityType":"park","facilityLabel":"🌳 中型公園","phone":null,"website":null,"wheelchair":false,"paid":null,"needsAddr":true},{"id":533410584,"name":"地耕味-玩味蕃樂園","lat":24.0716987,"lng":121.60867735,"address":"花蓮縣秀林鄉加灣17-1號","hasBabyChanging":false,"hasAccessible":false,"source":"OpenStreetMap","updatedAt":"2026-06-16T15:54:24.202Z","facilityType":"science","facilityLabel":"🔬 博物館","phone":null,"website":null,"wheelchair":false,"paid":null,"needsAddr":false},{"id":537455328,"name":"廣安宮前廣場","lat":24.05361885,"lng":121.60958565,"address":null,"hasBabyChanging":false,"hasAccessible":false,"source":"OpenStreetMap","updatedAt":"2026-06-16T15:54:24.202Z","facilityType":"park","facilityLabel":"🌳 小型公園","phone":null,"website":null,"wheelchair":false,"paid":null,"needsAddr":true},{"id":552591706,"name":"榕樹下","lat":24.00878435,"lng":121.61372895,"address":null,"hasBabyChanging":false,"hasAccessible":false,"source":"OpenStreetMap","updatedAt":"2026-06-16T15:54:24.202Z","facilityType":"park","facilityLabel":"🌳 小型公園","phone":null,"website":null,"wheelchair":false,"paid":null,"needsAddr":true},{"id":584890942,"name":"靜思陶藝坊","lat":24.05447075,"lng":121.60314299999999,"address":null,"hasBabyChanging":false,"hasAccessible":false,"source":"OpenStreetMap","updatedAt":"2026-06-16T15:54:24.202Z","facilityType":"diy","facilityLabel":"🧶 DIY手作","phone":null,"website":null,"wheelchair":false,"paid":null,"needsAddr":true},{"id":646212368,"name":"新城老街民宿","lat":24.1267599,"lng":121.6516044,"address":null,"hasBabyChanging":false,"hasAccessible":false,"source":"OpenStreetMap","updatedAt":"2026-06-16T15:54:24.202Z","facilityType":"tourist_attraction","facilityLabel":"🧭 旅遊景點","phone":null,"website":null,"wheelchair":false,"paid":null,"needsAddr":true},{"id":742078832,"name":"金彩玫瑰石博物館","lat":24.00573285,"lng":121.61454705,"address":null,"hasBabyChanging":false,"hasAccessible":false,"source":"OpenStreetMap","updatedAt":"2026-06-16T15:54:24.202Z","facilityType":"science","facilityLabel":"🔬 博物館","phone":null,"website":null,"wheelchair":false,"paid":null,"needsAddr":true},{"id":770552914,"name":"七星潭河濱公園","lat":24.0348164,"lng":121.6254288,"address":null,"hasBabyChanging":false,"hasAccessible":false,"source":"OpenStreetMap","updatedAt":"2026-06-16T15:54:24.202Z","facilityType":"park","facilityLabel":"🌳 大型公園","phone":null,"website":null,"wheelchair":false,"paid":null,"needsAddr":true},{"id":804059473,"name":"新城公園","lat":24.12903845,"lng":121.6496473,"address":null,"hasBabyChanging":false,"hasAccessible":false,"source":"OpenStreetMap","updatedAt":"2026-06-16T15:54:24.202Z","facilityType":"park","facilityLabel":"🌳 小型公園","phone":null,"website":null,"wheelchair":false,"paid":null,"needsAddr":true},{"id":809969288,"name":"花東玉石有限公司","lat":24.0302572,"lng":121.6063106,"address":"971花蓮縣新城鄉光復路245號","hasBabyChanging":false,"hasAccessible":false,"source":"OpenStreetMap","updatedAt":"2026-06-16T15:54:24.202Z","facilityType":"science","facilityLabel":"🔬 博物館","phone":null,"website":null,"wheelchair":false,"paid":null,"needsAddr":false},{"id":968672320,"name":"嘎比烏姆寵物親善公園","lat":24.0276816,"lng":121.6027583,"address":null,"hasBabyChanging":false,"hasAccessible":false,"source":"OpenStreetMap","updatedAt":"2026-06-16T15:54:24.202Z","facilityType":"park","facilityLabel":"🌳 小型公園","phone":null,"website":null,"wheelchair":false,"paid":null,"needsAddr":true},{"id":993081486,"name":"嘉里村環保公園","lat":24.01887055,"lng":121.6066238,"address":null,"hasBabyChanging":false,"hasAccessible":false,"source":"OpenStreetMap","updatedAt":"2026-06-16T15:54:24.202Z","facilityType":"park","facilityLabel":"🌳 小型公園","phone":null,"website":null,"wheelchair":false,"paid":null,"needsAddr":true},{"id":1233310196,"name":"民有園區","lat":24.036860349999998,"lng":121.61229975,"address":null,"hasBabyChanging":false,"hasAccessible":false,"source":"OpenStreetMap","updatedAt":"2026-06-16T15:54:24.202Z","facilityType":"park","facilityLabel":"🌳 中型公園","phone":null,"website":null,"wheelchair":false,"paid":null,"needsAddr":true},{"id":1233324136,"name":"秀芳園休閒農場","lat":24.04211375,"lng":121.60241975,"address":null,"hasBabyChanging":false,"hasAccessible":false,"source":"OpenStreetMap","updatedAt":"2026-06-16T15:54:24.202Z","facilityType":"farm","facilityLabel":"🌾 農場","phone":null,"website":null,"wheelchair":false,"paid":null,"needsAddr":true},{"id":1233390316,"name":"楊英風紀念公園","lat":24.024082800000002,"lng":121.6079082,"address":null,"hasBabyChanging":false,"hasAccessible":false,"source":"OpenStreetMap","updatedAt":"2026-06-16T15:54:24.202Z","facilityType":"park","facilityLabel":"🌳 小型公園","phone":null,"website":null,"wheelchair":false,"paid":null,"needsAddr":true},{"id":1276017775,"name":"光隆博物館","lat":24.057782500000002,"lng":121.60903809999999,"address":"花蓮縣新城鄉加灣1-2號","hasBabyChanging":false,"hasAccessible":false,"source":"OpenStreetMap","updatedAt":"2026-06-16T15:54:24.202Z","facilityType":"science","facilityLabel":"🔬 博物館","phone":"+886 3 826 8688","website":"http://www.klmm.com.tw/","wheelchair":false,"paid":null,"needsAddr":false},{"id":3837347910,"name":"海祭廣場-步道舖面","lat":23.9455003,"lng":121.6065985,"address":null,"hasBabyChanging":false,"hasAccessible":false,"source":"OpenStreetMap","updatedAt":"2026-06-16T15:54:24.202Z","facilityType":"tourist_attraction","facilityLabel":"🧭 旅遊景點","phone":null,"website":null,"wheelchair":false,"paid":null,"needsAddr":true},{"id":4918624821,"name":"洄瀾灣開心農場","lat":23.9371297,"lng":121.598527,"address":null,"hasBabyChanging":false,"hasAccessible":false,"source":"OpenStreetMap","updatedAt":"2026-06-16T15:54:24.202Z","facilityType":"farm","facilityLabel":"🌾 農場","phone":null,"website":null,"wheelchair":false,"paid":null,"needsAddr":true},{"id":5071354346,"name":"弘法大師石像","lat":23.9734833,"lng":121.5647904,"address":null,"hasBabyChanging":false,"hasAccessible":false,"source":"OpenStreetMap","updatedAt":"2026-06-16T15:54:24.202Z","facilityType":"tourist_attraction","facilityLabel":"🧭 旅遊景點","phone":null,"website":null,"wheelchair":false,"paid":null,"needsAddr":true},{"id":5071354347,"name":"光明真言百萬遍石碑","lat":23.9734619,"lng":121.5646981,"address":null,"hasBabyChanging":false,"hasAccessible":false,"source":"OpenStreetMap","updatedAt":"2026-06-16T15:54:24.202Z","facilityType":"tourist_attraction","facilityLabel":"🧭 旅遊景點","phone":null,"website":null,"wheelchair":false,"paid":null,"needsAddr":true},{"id":5071354348,"name":"百度石","lat":23.9736118,"lng":121.5649005,"address":null,"hasBabyChanging":false,"hasAccessible":false,"source":"OpenStreetMap","updatedAt":"2026-06-16T15:54:24.202Z","facilityType":"tourist_attraction","facilityLabel":"🧭 旅遊景點","phone":null,"website":null,"wheelchair":false,"paid":null,"needsAddr":true},{"id":5529607684,"name":"初英親水生態公園","lat":23.9544778,"lng":121.5422198,"address":null,"hasBabyChanging":false,"hasAccessible":false,"source":"OpenStreetMap","updatedAt":"2026-06-16T15:54:24.202Z","facilityType":"water","facilityLabel":"💧 戲水親水","phone":null,"website":null,"wheelchair":false,"paid":null,"needsAddr":true},{"id":6585938786,"name":"夢想石","lat":23.9391412,"lng":121.6035416,"address":null,"hasBabyChanging":false,"hasAccessible":false,"source":"OpenStreetMap","updatedAt":"2026-06-16T15:54:24.202Z","facilityType":"tourist_attraction","facilityLabel":"🧭 旅遊景點","phone":null,"website":null,"wheelchair":false,"paid":null,"needsAddr":true},{"id":6802632796,"name":"統茂度假莊園","lat":23.9624994,"lng":121.5768045,"address":null,"hasBabyChanging":false,"hasAccessible":false,"source":"OpenStreetMap","updatedAt":"2026-06-16T15:54:24.202Z","facilityType":"farm","facilityLabel":"🌾 農場","phone":null,"website":null,"wheelchair":false,"paid":null,"needsAddr":true},{"id":7183711365,"name":"貨櫃星巴克","lat":23.9386418,"lng":121.5948594,"address":null,"hasBabyChanging":false,"hasAccessible":false,"source":"OpenStreetMap","updatedAt":"2026-06-16T15:54:24.202Z","facilityType":"tourist_attraction","facilityLabel":"🧭 旅遊景點","phone":null,"website":null,"wheelchair":false,"paid":null,"needsAddr":true},{"id":10159432517,"name":"靜心莊園","lat":23.9909462,"lng":121.563641,"address":null,"hasBabyChanging":false,"hasAccessible":false,"source":"OpenStreetMap","updatedAt":"2026-06-16T15:54:24.202Z","facilityType":"farm","facilityLabel":"🌾 農場","phone":null,"website":null,"wheelchair":false,"paid":null,"needsAddr":true},{"id":12045195565,"name":"花蓮台開風帆下水坡道暨賞鳥平台","lat":23.9374993,"lng":121.6027706,"address":null,"hasBabyChanging":false,"hasAccessible":false,"source":"OpenStreetMap","updatedAt":"2026-06-16T15:54:24.202Z","facilityType":"tourist_attraction","facilityLabel":"🧭 旅遊景點","phone":null,"website":null,"wheelchair":false,"paid":null,"needsAddr":true},{"id":13508756540,"name":"劉銘侮美術館","lat":23.9449798,"lng":121.5866759,"address":"花蓮縣吉安鄉仁和村25鄰南海九街202巷30號","hasBabyChanging":false,"hasAccessible":false,"source":"OpenStreetMap","updatedAt":"2026-06-16T15:54:24.202Z","facilityType":"culture","facilityLabel":"🎨 藝文場館","phone":null,"website":null,"wheelchair":false,"paid":null,"needsAddr":false},{"id":92837532,"name":"知卡宣森林公園","lat":23.95219565,"lng":121.58396715,"address":null,"hasBabyChanging":false,"hasAccessible":false,"source":"OpenStreetMap","updatedAt":"2026-06-16T15:54:24.202Z","facilityType":"park","facilityLabel":"🌳 大型公園","phone":null,"website":null,"wheelchair":false,"paid":null,"needsAddr":true},{"id":333383031,"name":"鬱金香花園","lat":23.973931450000002,"lng":121.5707181,"address":null,"hasBabyChanging":false,"hasAccessible":false,"source":"OpenStreetMap","updatedAt":"2026-06-16T15:54:24.202Z","facilityType":"park","facilityLabel":"🌳 中型公園","phone":null,"website":null,"wheelchair":false,"paid":null,"needsAddr":true},{"id":355129867,"name":"希望公園","lat":23.972585000000002,"lng":121.56210250000001,"address":null,"hasBabyChanging":false,"hasAccessible":false,"source":"OpenStreetMap","updatedAt":"2026-06-16T15:54:24.202Z","facilityType":"park","facilityLabel":"🌳 小型公園","phone":null,"website":null,"wheelchair":false,"paid":null,"needsAddr":true},{"id":358601160,"name":"南埔公園","lat":23.963954,"lng":121.58847965,"address":null,"hasBabyChanging":false,"hasAccessible":false,"source":"OpenStreetMap","updatedAt":"2026-06-16T15:54:24.202Z","facilityType":"park","facilityLabel":"🌳 中型公園","phone":null,"website":null,"wheelchair":false,"paid":null,"needsAddr":true},{"id":420464644,"name":"初音驛公園","lat":23.942138,"lng":121.54498015,"address":null,"hasBabyChanging":false,"hasAccessible":false,"source":"OpenStreetMap","updatedAt":"2026-06-16T15:54:24.202Z","facilityType":"park","facilityLabel":"🌳 中型公園","phone":null,"website":null,"wheelchair":false,"paid":null,"needsAddr":true},{"id":434285085,"name":"知卡宣親水公園","lat":23.95073415,"lng":121.58335565,"address":null,"hasBabyChanging":false,"hasAccessible":false,"source":"OpenStreetMap","updatedAt":"2026-06-16T15:54:24.202Z","facilityType":"water","facilityLabel":"💧 戲水親水","phone":null,"website":null,"wheelchair":false,"paid":null,"needsAddr":true},{"id":691548538,"name":"榮安公園","lat":23.9904418,"lng":121.5725477,"address":null,"hasBabyChanging":false,"hasAccessible":false,"source":"OpenStreetMap","updatedAt":"2026-06-16T15:54:24.202Z","facilityType":"park","facilityLabel":"🌳 小型公園","phone":null,"website":null,"wheelchair":false,"paid":null,"needsAddr":true},{"id":712215293,"name":"普照橋","lat":23.962941899999997,"lng":121.60748989999999,"address":null,"hasBabyChanging":false,"hasAccessible":false,"source":"OpenStreetMap","updatedAt":"2026-06-16T15:54:24.202Z","facilityType":"tourist_attraction","facilityLabel":"🧭 旅遊景點","phone":null,"website":null,"wheelchair":false,"paid":null,"needsAddr":true},{"id":832993934,"name":"戲水區","lat":23.9501917,"lng":121.5829554,"address":null,"hasBabyChanging":false,"hasAccessible":false,"source":"OpenStreetMap","updatedAt":"2026-06-16T15:54:24.202Z","facilityType":"water","facilityLabel":"💧 戲水親水","phone":null,"website":null,"wheelchair":false,"paid":null,"needsAddr":true},{"id":1074423100,"name":"溜冰場","lat":23.9383572,"lng":121.5706594,"address":null,"hasBabyChanging":false,"hasAccessible":false,"source":"OpenStreetMap","updatedAt":"2026-06-16T15:54:24.202Z","facilityType":"park","facilityLabel":"🌳 小型公園","phone":null,"website":null,"wheelchair":false,"paid":null,"needsAddr":true},{"id":1083078038,"name":"花蓮縣吉安鄉阿美族文物館","lat":23.969878,"lng":121.58086195,"address":"花蓮縣吉安鄉文化五街43號","hasBabyChanging":false,"hasAccessible":false,"source":"OpenStreetMap","updatedAt":"2026-06-16T15:54:24.202Z","facilityType":"culture","facilityLabel":"🎨 藝文場館","phone":null,"website":null,"wheelchair":false,"paid":null,"needsAddr":false},{"id":1083395955,"name":"仁里公園","lat":23.96951185,"lng":121.58595245000001,"address":null,"hasBabyChanging":false,"hasAccessible":false,"source":"OpenStreetMap","updatedAt":"2026-06-16T15:54:24.202Z","facilityType":"park","facilityLabel":"🌳 小型公園","phone":null,"website":null,"wheelchair":false,"paid":null,"needsAddr":true},{"id":1083395956,"name":"仁愛新城運動公園","lat":23.9656498,"lng":121.5903171,"address":null,"hasBabyChanging":false,"hasAccessible":false,"source":"OpenStreetMap","updatedAt":"2026-06-16T15:54:24.202Z","facilityType":"park","facilityLabel":"🌳 小型公園","phone":null,"website":null,"wheelchair":false,"paid":null,"needsAddr":true},{"id":1092591079,"name":"不要臉公園","lat":23.95216285,"lng":121.5476144,"address":null,"hasBabyChanging":false,"hasAccessible":false,"source":"OpenStreetMap","updatedAt":"2026-06-16T15:54:24.202Z","facilityType":"park","facilityLabel":"🌳 小型公園","phone":null,"website":null,"wheelchair":false,"paid":null,"needsAddr":true},{"id":1092591080,"name":"阿巴魯公園","lat":23.947258599999998,"lng":121.54027815,"address":null,"hasBabyChanging":false,"hasAccessible":false,"source":"OpenStreetMap","updatedAt":"2026-06-16T15:54:24.202Z","facilityType":"park","facilityLabel":"🌳 小型公園","phone":null,"website":null,"wheelchair":false,"paid":null,"needsAddr":true},{"id":1105246310,"name":"北昌活動中心","lat":23.987078,"lng":121.5948071,"address":null,"hasBabyChanging":false,"hasAccessible":false,"source":"OpenStreetMap","updatedAt":"2026-06-16T15:54:24.202Z","facilityType":"park","facilityLabel":"🌳 小型公園","phone":null,"website":null,"wheelchair":false,"paid":null,"needsAddr":true},{"id":1267929423,"name":"光華運動公園","lat":23.9286025,"lng":121.5947007,"address":null,"hasBabyChanging":false,"hasAccessible":false,"source":"OpenStreetMap","updatedAt":"2026-06-16T15:54:24.202Z","facilityType":"park","facilityLabel":"🌳 中型公園","phone":null,"website":null,"wheelchair":false,"paid":null,"needsAddr":true},{"id":1338615008,"name":"花蓮縣運動休閒園區","lat":23.96818855,"lng":121.58511735,"address":null,"hasBabyChanging":false,"hasAccessible":false,"source":"OpenStreetMap","updatedAt":"2026-06-16T15:54:24.202Z","facilityType":"park","facilityLabel":"🌳 中型公園","phone":null,"website":null,"wheelchair":false,"paid":null,"needsAddr":true},{"id":1460291916,"name":"砂庭","lat":23.973877350000002,"lng":121.56461239999999,"address":null,"hasBabyChanging":false,"hasAccessible":false,"source":"OpenStreetMap","updatedAt":"2026-06-16T15:54:24.202Z","facilityType":"tourist_attraction","facilityLabel":"🧭 旅遊景點","phone":null,"website":null,"wheelchair":false,"paid":null,"needsAddr":true},{"id":1762782473,"name":"立川漁場","lat":23.8645079,"lng":121.5221058,"address":null,"hasBabyChanging":false,"hasAccessible":false,"source":"OpenStreetMap","updatedAt":"2026-06-16T15:54:24.202Z","facilityType":"tourist_attraction","facilityLabel":"🧭 旅遊景點","phone":null,"website":null,"wheelchair":false,"paid":null,"needsAddr":true},{"id":1762782476,"name":"雲山水","lat":23.8277141,"lng":121.5136457,"address":null,"hasBabyChanging":false,"hasAccessible":false,"source":"OpenStreetMap","updatedAt":"2026-06-16T15:54:24.202Z","facilityType":"tourist_attraction","facilityLabel":"🧭 旅遊景點","phone":null,"website":null,"wheelchair":false,"paid":null,"needsAddr":true},{"id":2055654757,"name":"藝術中心(電梯)","lat":23.8959637,"lng":121.5433803,"address":null,"hasBabyChanging":false,"hasAccessible":true,"source":"OpenStreetMap","updatedAt":"2026-06-16T15:54:24.202Z","facilityType":"culture","facilityLabel":"🎨 藝文場館","phone":null,"website":null,"wheelchair":true,"paid":null,"needsAddr":true},{"id":2915880399,"name":"樹湖第二瀑","lat":23.846512,"lng":121.4612689,"address":null,"hasBabyChanging":false,"hasAccessible":false,"source":"OpenStreetMap","updatedAt":"2026-06-16T15:54:24.202Z","facilityType":"spot","facilityLabel":"📍 親子景點","phone":null,"website":null,"wheelchair":false,"paid":null,"needsAddr":true},{"id":3227509100,"name":"鯉魚潭","lat":23.934905,"lng":121.507544,"address":null,"hasBabyChanging":false,"hasAccessible":true,"source":"OpenStreetMap","updatedAt":"2026-06-16T15:54:24.202Z","facilityType":"tourist_attraction","facilityLabel":"🧭 旅遊景點","phone":null,"website":null,"wheelchair":true,"paid":null,"needsAddr":true},{"id":3837315660,"name":"鯉魚潭環潭步道","lat":23.9293841,"lng":121.5059969,"address":null,"hasBabyChanging":false,"hasAccessible":true,"source":"OpenStreetMap","updatedAt":"2026-06-16T15:54:24.202Z","facilityType":"tourist_attraction","facilityLabel":"🧭 旅遊景點","phone":null,"website":null,"wheelchair":true,"paid":null,"needsAddr":true},{"id":3904165311,"name":"葛莉絲莊園","lat":23.8589549,"lng":121.4931643,"address":null,"hasBabyChanging":false,"hasAccessible":false,"source":"OpenStreetMap","updatedAt":"2026-06-16T15:54:24.202Z","facilityType":"farm","facilityLabel":"🌾 農場","phone":null,"website":null,"wheelchair":false,"paid":null,"needsAddr":true},{"id":4592304505,"name":"觀景平台","lat":23.812901,"lng":121.543631,"address":null,"hasBabyChanging":false,"hasAccessible":false,"source":"OpenStreetMap","updatedAt":"2026-06-16T15:54:24.202Z","facilityType":"tourist_attraction","facilityLabel":"🧭 旅遊景點","phone":null,"website":null,"wheelchair":false,"paid":null,"needsAddr":true},{"id":5150954425,"name":"Niu Shan","lat":23.7635878,"lng":121.569242,"address":null,"hasBabyChanging":false,"hasAccessible":false,"source":"OpenStreetMap","updatedAt":"2026-06-16T15:54:24.202Z","facilityType":"spot","facilityLabel":"📍 親子景點","phone":null,"website":null,"wheelchair":false,"paid":null,"needsAddr":true},{"id":5366399727,"name":"七七高地","lat":23.9328018,"lng":121.6076758,"address":null,"hasBabyChanging":false,"hasAccessible":false,"source":"OpenStreetMap","updatedAt":"2026-06-16T15:54:24.202Z","facilityType":"tourist_attraction","facilityLabel":"🧭 旅遊景點","phone":null,"website":null,"wheelchair":false,"paid":null,"needsAddr":true},{"id":7193316569,"name":"跳石","lat":23.8268086,"lng":121.5161124,"address":null,"hasBabyChanging":false,"hasAccessible":false,"source":"OpenStreetMap","updatedAt":"2026-06-16T15:54:24.202Z","facilityType":"tourist_attraction","facilityLabel":"🧭 旅遊景點","phone":null,"website":null,"wheelchair":false,"paid":null,"needsAddr":true},{"id":9481467581,"name":"薩爾茲堡莊園民宿","lat":23.8682372,"lng":121.55994,"address":"974花蓮縣壽豐鄉月眉路三段127號","hasBabyChanging":false,"hasAccessible":false,"source":"OpenStreetMap","updatedAt":"2026-06-16T15:54:24.202Z","facilityType":"farm","facilityLabel":"🌾 農場","phone":"+886 921688139","website":"http://www.salzburg.com.tw/","wheelchair":false,"paid":null,"needsAddr":false},{"id":9577571125,"name":"觀景點","lat":23.8482435,"lng":121.4494484,"address":null,"hasBabyChanging":false,"hasAccessible":false,"source":"OpenStreetMap","updatedAt":"2026-06-16T15:54:24.202Z","facilityType":"tourist_attraction","facilityLabel":"🧭 旅遊景點","phone":null,"website":null,"wheelchair":false,"paid":null,"needsAddr":true},{"id":9896485117,"name":"花蓮-海涯谷","lat":23.9102343,"lng":121.603432,"address":null,"hasBabyChanging":false,"hasAccessible":false,"source":"OpenStreetMap","updatedAt":"2026-06-16T15:54:24.202Z","facilityType":"tourist_attraction","facilityLabel":"🧭 旅遊景點","phone":null,"website":null,"wheelchair":false,"paid":null,"needsAddr":true},{"id":11413848669,"name":"2k+000","lat":23.9260116,"lng":121.5140647,"address":null,"hasBabyChanging":false,"hasAccessible":false,"source":"OpenStreetMap","updatedAt":"2026-06-16T15:54:24.202Z","facilityType":"tourist_attraction","facilityLabel":"🧭 旅遊景點","phone":null,"website":null,"wheelchair":false,"paid":null,"needsAddr":true},{"id":11413865469,"name":"3k+000","lat":23.9227373,"lng":121.5080593,"address":null,"hasBabyChanging":false,"hasAccessible":false,"source":"OpenStreetMap","updatedAt":"2026-06-16T15:54:24.202Z","facilityType":"tourist_attraction","facilityLabel":"🧭 旅遊景點","phone":null,"website":null,"wheelchair":false,"paid":null,"needsAddr":true},{"id":11413943170,"name":"2k+800","lat":23.9180258,"lng":121.5209756,"address":null,"hasBabyChanging":false,"hasAccessible":false,"source":"OpenStreetMap","updatedAt":"2026-06-16T15:54:24.202Z","facilityType":"tourist_attraction","facilityLabel":"🧭 旅遊景點","phone":null,"website":null,"wheelchair":false,"paid":null,"needsAddr":true},{"id":11413984969,"name":"2k+600","lat":23.9194888,"lng":121.5210368,"address":null,"hasBabyChanging":false,"hasAccessible":false,"source":"OpenStreetMap","updatedAt":"2026-06-16T15:54:24.202Z","facilityType":"tourist_attraction","facilityLabel":"🧭 旅遊景點","phone":null,"website":null,"wheelchair":false,"paid":null,"needsAddr":true},{"id":11413984972,"name":"0k+400","lat":23.9230483,"lng":121.5216169,"address":null,"hasBabyChanging":false,"hasAccessible":false,"source":"OpenStreetMap","updatedAt":"2026-06-16T15:54:24.202Z","facilityType":"tourist_attraction","facilityLabel":"🧭 旅遊景點","phone":null,"website":null,"wheelchair":false,"paid":null,"needsAddr":true},{"id":11413993569,"name":"1k+000","lat":23.9259844,"lng":121.5204919,"address":null,"hasBabyChanging":false,"hasAccessible":false,"source":"OpenStreetMap","updatedAt":"2026-06-16T15:54:24.202Z","facilityType":"tourist_attraction","facilityLabel":"🧭 旅遊景點","phone":null,"website":null,"wheelchair":false,"paid":null,"needsAddr":true},{"id":11419768669,"name":"高架步道","lat":23.9214682,"lng":121.5126235,"address":null,"hasBabyChanging":false,"hasAccessible":false,"source":"OpenStreetMap","updatedAt":"2026-06-16T15:54:24.202Z","facilityType":"tourist_attraction","facilityLabel":"🧭 旅遊景點","phone":null,"website":null,"wheelchair":false,"paid":null,"needsAddr":true},{"id":11419768769,"name":"觀景平台","lat":23.9221453,"lng":121.5100957,"address":null,"hasBabyChanging":false,"hasAccessible":false,"source":"OpenStreetMap","updatedAt":"2026-06-16T15:54:24.202Z","facilityType":"tourist_attraction","facilityLabel":"🧭 旅遊景點","phone":null,"website":null,"wheelchair":false,"paid":null,"needsAddr":true},{"id":164663942,"name":"中正公園","lat":23.8387371,"lng":121.5010015,"address":null,"hasBabyChanging":false,"hasAccessible":false,"source":"OpenStreetMap","updatedAt":"2026-06-16T15:54:24.202Z","facilityType":"park","facilityLabel":"🌳 中型公園","phone":null,"website":null,"wheelchair":false,"paid":null,"needsAddr":true},{"id":202041271,"name":"花蓮縣考古博物館","lat":23.8484578,"lng":121.49362885,"address":null,"hasBabyChanging":false,"hasAccessible":false,"source":"OpenStreetMap","updatedAt":"2026-06-16T15:54:24.202Z","facilityType":"science","facilityLabel":"🔬 博物館","phone":null,"website":null,"wheelchair":false,"paid":null,"needsAddr":true},{"id":203326198,"name":"豐田文史館","lat":23.84534695,"lng":121.50292725,"address":null,"hasBabyChanging":false,"hasAccessible":false,"source":"OpenStreetMap","updatedAt":"2026-06-16T15:54:24.202Z","facilityType":"park","facilityLabel":"🌳 小型公園","phone":null,"website":null,"wheelchair":false,"paid":null,"needsAddr":true},{"id":203326507,"name":"豐田文史館","lat":23.84536915,"lng":121.5030304,"address":null,"hasBabyChanging":false,"hasAccessible":false,"source":"OpenStreetMap","updatedAt":"2026-06-16T15:54:24.202Z","facilityType":"science","facilityLabel":"🔬 博物館","phone":null,"website":null,"wheelchair":false,"paid":null,"needsAddr":true},{"id":313210456,"name":"遠雄海洋公園","lat":23.900970649999998,"lng":121.60142644999999,"address":"974花蓮縣壽豐鄉鹽寮村福德189號","hasBabyChanging":false,"hasAccessible":false,"source":"OpenStreetMap","updatedAt":"2026-06-16T15:54:24.202Z","facilityType":"theme_park","facilityLabel":"🎡 遊樂場","phone":null,"website":"https://www.farglory-oceanpark.com.tw/","wheelchair":false,"paid":null,"needsAddr":false},{"id":335697886,"name":"志學新邨公園","lat":23.900621299999997,"lng":121.52575605000001,"address":null,"hasBabyChanging":false,"hasAccessible":false,"source":"OpenStreetMap","updatedAt":"2026-06-16T15:54:24.202Z","facilityType":"park","facilityLabel":"🌳 小型公園","phone":null,"website":null,"wheelchair":false,"paid":null,"needsAddr":true},{"id":464101550,"name":"中山公園","lat":23.86890515,"lng":121.5049265,"address":null,"hasBabyChanging":false,"hasAccessible":false,"source":"OpenStreetMap","updatedAt":"2026-06-16T15:54:24.202Z","facilityType":"park","facilityLabel":"🌳 中型公園","phone":null,"website":null,"wheelchair":false,"paid":null,"needsAddr":true},{"id":465861486,"name":"花蓮遊客中心","lat":23.90455155,"lng":121.60237365,"address":"974花蓮縣壽豐鄉大坑5號","hasBabyChanging":false,"hasAccessible":false,"source":"OpenStreetMap","updatedAt":"2026-06-16T15:54:24.202Z","facilityType":"visitor_center","facilityLabel":"🛎 旅客中心","phone":null,"website":"https://www.eastcoast-nsa.gov.tw/zh-tw/Attractions/Detail/207","wheelchair":false,"paid":null,"needsAddr":false},{"id":467356484,"name":"晴空纜車","lat":23.9011303,"lng":121.60123304999999,"address":null,"hasBabyChanging":false,"hasAccessible":false,"source":"OpenStreetMap","updatedAt":"2026-06-16T15:54:24.202Z","facilityType":"tourist_attraction","facilityLabel":"🧭 旅遊景點","phone":null,"website":null,"wheelchair":false,"paid":null,"needsAddr":true},{"id":574920210,"name":"臻晴莊園","lat":23.88028275,"lng":121.53237899999999,"address":null,"hasBabyChanging":false,"hasAccessible":false,"source":"OpenStreetMap","updatedAt":"2026-06-16T15:54:24.202Z","facilityType":"farm","facilityLabel":"🌾 農場","phone":null,"website":null,"wheelchair":false,"paid":null,"needsAddr":true},{"id":808458676,"name":"鯉魚潭遊客服務中心","lat":23.935239000000003,"lng":121.5080141,"address":null,"hasBabyChanging":false,"hasAccessible":true,"source":"OpenStreetMap","updatedAt":"2026-06-16T15:54:24.202Z","facilityType":"visitor_center","facilityLabel":"🛎 旅客中心","phone":null,"website":null,"wheelchair":true,"paid":false,"needsAddr":true},{"id":840605422,"name":"a2水岸園區","lat":23.8662181,"lng":121.5312545,"address":"花蓮縣壽豐鄉共和村1鄰豐坪路三段267號","hasBabyChanging":false,"hasAccessible":false,"source":"OpenStreetMap","updatedAt":"2026-06-16T15:54:24.202Z","facilityType":"tourist_attraction","facilityLabel":"🧭 旅遊景點","phone":null,"website":"https://www.facebook.com/plcparktw","wheelchair":false,"paid":null,"needsAddr":false},{"id":1134057111,"name":"水獺館","lat":23.9002244,"lng":121.6026698,"address":null,"hasBabyChanging":false,"hasAccessible":false,"source":"OpenStreetMap","updatedAt":"2026-06-16T15:54:24.202Z","facilityType":"tourist_attraction","facilityLabel":"🧭 旅遊景點","phone":null,"website":null,"wheelchair":false,"paid":null,"needsAddr":true},{"id":1134057113,"name":"海盜大驚航","lat":23.9007394,"lng":121.6012803,"address":null,"hasBabyChanging":false,"hasAccessible":false,"source":"OpenStreetMap","updatedAt":"2026-06-16T15:54:24.202Z","facilityType":"tourist_attraction","facilityLabel":"🧭 旅遊景點","phone":null,"website":null,"wheelchair":false,"paid":null,"needsAddr":true},{"id":1134057134,"name":"愛情摩天輪","lat":23.900394249999998,"lng":121.60200655,"address":null,"hasBabyChanging":false,"hasAccessible":false,"source":"OpenStreetMap","updatedAt":"2026-06-16T15:54:24.202Z","facilityType":"tourist_attraction","facilityLabel":"🧭 旅遊景點","phone":null,"website":null,"wheelchair":false,"paid":null,"needsAddr":true},{"id":1233840156,"name":"鯉魚潭露營區 (綠野鄉)","lat":23.91618815,"lng":121.50427155,"address":null,"hasBabyChanging":false,"hasAccessible":false,"source":"OpenStreetMap","updatedAt":"2026-06-16T15:54:24.202Z","facilityType":"spot","facilityLabel":"📍 親子景點","phone":null,"website":null,"wheelchair":false,"paid":null,"needsAddr":true},{"id":1376404649,"name":"隙光樹林","lat":23.8914776,"lng":121.54248405,"address":null,"hasBabyChanging":false,"hasAccessible":false,"source":"OpenStreetMap","updatedAt":"2026-06-16T15:54:24.202Z","facilityType":"park","facilityLabel":"🌳 小型公園","phone":null,"website":null,"wheelchair":false,"paid":null,"needsAddr":true},{"id":2634139,"name":"豐之谷生態公園","lat":23.86378795,"lng":121.52797240000001,"address":null,"hasBabyChanging":false,"hasAccessible":false,"source":"OpenStreetMap","updatedAt":"2026-06-16T15:54:24.202Z","facilityType":"park","facilityLabel":"🌳 大型公園","phone":null,"website":null,"wheelchair":false,"paid":null,"needsAddr":true},{"id":3534842,"name":"池南國家森林遊樂區","lat":23.91805035,"lng":121.5011939,"address":null,"hasBabyChanging":false,"hasAccessible":false,"source":"OpenStreetMap","updatedAt":"2026-06-16T15:54:24.202Z","facilityType":"spot","facilityLabel":"📍 親子景點","phone":null,"website":"https://recreation.forest.gov.tw/RA/RA_1_1.aspx?RA_ID=0800002","wheelchair":false,"paid":null,"needsAddr":true},{"id":7022541,"name":"水璉野生動物重要棲息環境","lat":23.8041865,"lng":121.5730904,"address":null,"hasBabyChanging":false,"hasAccessible":false,"source":"OpenStreetMap","updatedAt":"2026-06-16T15:54:24.202Z","facilityType":"spot","facilityLabel":"📍 親子景點","phone":null,"website":"https://conservation.forest.gov.tw/0000176","wheelchair":false,"paid":null,"needsAddr":true},{"id":7075258,"name":"水璉南自然保護區","lat":23.75239765,"lng":121.56354105,"address":null,"hasBabyChanging":false,"hasAccessible":false,"source":"OpenStreetMap","updatedAt":"2026-06-16T15:54:24.202Z","facilityType":"spot","facilityLabel":"📍 親子景點","phone":null,"website":"http://www.cpami.gov.tw/chinese/index.php?option=com_content&view=article&id=18327&Itemid=53","wheelchair":false,"paid":null,"needsAddr":true},{"id":7075262,"name":"花蓮溪口自然保護區","lat":23.9257681,"lng":121.60820955,"address":null,"hasBabyChanging":false,"hasAccessible":false,"source":"OpenStreetMap","updatedAt":"2026-06-16T15:54:24.202Z","facilityType":"spot","facilityLabel":"📍 親子景點","phone":null,"website":"http://www.cpami.gov.tw/chinese/index.php?option=com_content&view=article&id=18327&Itemid=53","wheelchair":false,"paid":null,"needsAddr":true},{"id":2124910159,"name":"大農大富平地森林園區","lat":23.6223944,"lng":121.4015013,"address":null,"hasBabyChanging":false,"hasAccessible":false,"source":"OpenStreetMap","updatedAt":"2026-06-16T15:54:24.202Z","facilityType":"tourist_attraction","facilityLabel":"🧭 旅遊景點","phone":null,"website":null,"wheelchair":false,"paid":null,"needsAddr":true},{"id":2125115335,"name":"阿漾咕咕","lat":23.6584482,"lng":121.4388201,"address":null,"hasBabyChanging":false,"hasAccessible":false,"source":"OpenStreetMap","updatedAt":"2026-06-16T15:54:24.202Z","facilityType":"tourist_attraction","facilityLabel":"🧭 旅遊景點","phone":null,"website":null,"wheelchair":false,"paid":null,"needsAddr":true},{"id":2484567643,"name":"花糖文物館","lat":23.6589858,"lng":121.4216769,"address":null,"hasBabyChanging":false,"hasAccessible":true,"source":"OpenStreetMap","updatedAt":"2026-06-16T15:54:24.202Z","facilityType":"culture","facilityLabel":"🎨 藝文場館","phone":null,"website":null,"wheelchair":true,"paid":null,"needsAddr":true},{"id":4102373492,"name":"花蓮翱翔季","lat":23.6738987,"lng":121.4505764,"address":null,"hasBabyChanging":false,"hasAccessible":false,"source":"OpenStreetMap","updatedAt":"2026-06-16T15:54:24.202Z","facilityType":"tourist_attraction","facilityLabel":"🧭 旅遊景點","phone":null,"website":null,"wheelchair":false,"paid":null,"needsAddr":true},{"id":4102392291,"name":"馬太鞍濕地","lat":23.6583597,"lng":121.4092788,"address":null,"hasBabyChanging":false,"hasAccessible":false,"source":"OpenStreetMap","updatedAt":"2026-06-16T15:54:24.202Z","facilityType":"tourist_attraction","facilityLabel":"🧭 旅遊景點","phone":null,"website":null,"wheelchair":false,"paid":null,"needsAddr":true},{"id":5948178092,"name":"孟公園農場露營區","lat":23.5960081,"lng":121.4095442,"address":"花蓮縣光復鄉建國路一段16號","hasBabyChanging":false,"hasAccessible":true,"source":"OpenStreetMap","updatedAt":"2026-06-16T15:54:24.202Z","facilityType":"farm","facilityLabel":"🌾 農場","phone":null,"website":null,"wheelchair":true,"paid":null,"needsAddr":false},{"id":7843869616,"name":"大農大富平地森林旅客服務中心","lat":23.614452,"lng":121.4175113,"address":null,"hasBabyChanging":false,"hasAccessible":false,"source":"OpenStreetMap","updatedAt":"2026-06-16T15:54:24.202Z","facilityType":"visitor_center","facilityLabel":"🛎 旅客中心","phone":null,"website":null,"wheelchair":false,"paid":null,"needsAddr":true},{"id":8072394512,"name":"馬太鞍部落納骨碑","lat":23.6751931,"lng":121.4304417,"address":null,"hasBabyChanging":false,"hasAccessible":false,"source":"OpenStreetMap","updatedAt":"2026-06-16T15:54:24.202Z","facilityType":"tourist_attraction","facilityLabel":"🧭 旅遊景點","phone":null,"website":null,"wheelchair":false,"paid":null,"needsAddr":true},{"id":8072394804,"name":"富田古井","lat":23.66122,"lng":121.4535396,"address":null,"hasBabyChanging":false,"hasAccessible":false,"source":"OpenStreetMap","updatedAt":"2026-06-16T15:54:24.202Z","facilityType":"tourist_attraction","facilityLabel":"🧭 旅遊景點","phone":null,"website":null,"wheelchair":false,"paid":null,"needsAddr":true},{"id":8072394805,"name":"富田納骨碑","lat":23.6606782,"lng":121.4541833,"address":null,"hasBabyChanging":false,"hasAccessible":false,"source":"OpenStreetMap","updatedAt":"2026-06-16T15:54:24.202Z","facilityType":"tourist_attraction","facilityLabel":"🧭 旅遊景點","phone":null,"website":null,"wheelchair":false,"paid":null,"needsAddr":true},{"id":202547079,"name":"花蓮糖廠遊客中心","lat":23.65679685,"lng":121.41985625,"address":"976花蓮縣光復鄉糖廠街19號","hasBabyChanging":false,"hasAccessible":false,"source":"OpenStreetMap","updatedAt":"2026-06-16T15:54:24.202Z","facilityType":"visitor_center","facilityLabel":"🛎 旅客中心","phone":"+886 3 870 4125","website":null,"wheelchair":false,"paid":null,"needsAddr":false},{"id":369964509,"name":"大富大農平地森林園區","lat":23.614516950000002,"lng":121.41512854999999,"address":null,"hasBabyChanging":false,"hasAccessible":false,"source":"OpenStreetMap","updatedAt":"2026-06-16T15:54:24.202Z","facilityType":"theme_park","facilityLabel":"🎡 遊樂場","phone":"+886 3 870 0870","website":null,"wheelchair":false,"paid":null,"needsAddr":true},{"id":649401309,"name":"洪華公園","lat":23.66683005,"lng":121.42326424999999,"address":null,"hasBabyChanging":false,"hasAccessible":false,"source":"OpenStreetMap","updatedAt":"2026-06-16T15:54:24.202Z","facilityType":"park","facilityLabel":"🌳 小型公園","phone":null,"website":null,"wheelchair":false,"paid":null,"needsAddr":true},{"id":866063138,"name":"太巴塱kakita'an祖屋","lat":23.6608462,"lng":121.4539496,"address":null,"hasBabyChanging":false,"hasAccessible":false,"source":"OpenStreetMap","updatedAt":"2026-06-16T15:54:24.202Z","facilityType":"tourist_attraction","facilityLabel":"🧭 旅遊景點","phone":null,"website":null,"wheelchair":false,"paid":null,"needsAddr":true},{"id":1073283698,"name":"Tafalong文化祭祀廣場","lat":23.65635985,"lng":121.4550858,"address":null,"hasBabyChanging":false,"hasAccessible":false,"source":"OpenStreetMap","updatedAt":"2026-06-16T15:54:24.202Z","facilityType":"park","facilityLabel":"🌳 中型公園","phone":null,"website":null,"wheelchair":false,"paid":null,"needsAddr":true},{"id":1434068796,"name":"太平保安公園","lat":23.67191715,"lng":121.43558755000001,"address":null,"hasBabyChanging":false,"hasAccessible":false,"source":"OpenStreetMap","updatedAt":"2026-06-16T15:54:24.202Z","facilityType":"park","facilityLabel":"🌳 中型公園","phone":null,"website":null,"wheelchair":false,"paid":null,"needsAddr":true},{"id":1434289595,"name":"光復獅子公園","lat":23.68388745,"lng":121.40986914999999,"address":null,"hasBabyChanging":false,"hasAccessible":false,"source":"OpenStreetMap","updatedAt":"2026-06-16T15:54:24.202Z","facilityType":"park","facilityLabel":"🌳 中型公園","phone":null,"website":null,"wheelchair":false,"paid":null,"needsAddr":true},{"id":3262383,"name":"花蓮觀光糖廠","lat":23.657694749999997,"lng":121.4218114,"address":"花蓮縣光復鄉大進村糖廠街19號","hasBabyChanging":false,"hasAccessible":true,"source":"OpenStreetMap","updatedAt":"2026-06-16T15:54:24.202Z","facilityType":"tourist_attraction","facilityLabel":"🧭 旅遊景點","phone":"+886 0800 026 168","website":"http://www.hualiensugar.com.tw","wheelchair":true,"paid":null,"needsAddr":false},{"id":7075261,"name":"花東沿海保護區","lat":23.36054935,"lng":121.3802612,"address":null,"hasBabyChanging":false,"hasAccessible":false,"source":"OpenStreetMap","updatedAt":"2026-06-16T15:54:24.202Z","facilityType":"spot","facilityLabel":"📍 親子景點","phone":null,"website":"http://www.cpami.gov.tw/chinese/index.php?option=com_content&view=article&id=18327&Itemid=53","wheelchair":false,"paid":null,"needsAddr":true},{"id":2484633966,"name":"芭崎瞭望台","lat":23.7311094,"lng":121.5585614,"address":null,"hasBabyChanging":false,"hasAccessible":false,"source":"OpenStreetMap","updatedAt":"2026-06-16T15:54:24.202Z","facilityType":"tourist_attraction","facilityLabel":"🧭 旅遊景點","phone":null,"website":null,"wheelchair":false,"paid":null,"needsAddr":true},{"id":2493430347,"name":"風之谷","lat":23.6571711,"lng":121.5367751,"address":null,"hasBabyChanging":false,"hasAccessible":false,"source":"OpenStreetMap","updatedAt":"2026-06-16T15:54:24.202Z","facilityType":"spot","facilityLabel":"📍 親子景點","phone":null,"website":null,"wheelchair":false,"paid":null,"needsAddr":true},{"id":3872475360,"name":"大灣休憩區","lat":23.5323062,"lng":121.5070811,"address":null,"hasBabyChanging":false,"hasAccessible":false,"source":"OpenStreetMap","updatedAt":"2026-06-16T15:54:24.202Z","facilityType":"tourist_attraction","facilityLabel":"🧭 旅遊景點","phone":null,"website":null,"wheelchair":false,"paid":null,"needsAddr":true},{"id":4784283821,"name":"光織屋 - 巴特虹岸手作坊","lat":23.6410035,"lng":121.5328762,"address":null,"hasBabyChanging":false,"hasAccessible":false,"source":"OpenStreetMap","updatedAt":"2026-06-16T15:54:24.202Z","facilityType":"diy","facilityLabel":"🧶 DIY手作","phone":null,"website":null,"wheelchair":false,"paid":null,"needsAddr":true},{"id":5152204682,"name":"親不知子海上古道","lat":23.6747877,"lng":121.5453968,"address":null,"hasBabyChanging":false,"hasAccessible":false,"source":"OpenStreetMap","updatedAt":"2026-06-16T15:54:24.202Z","facilityType":"tourist_attraction","facilityLabel":"🧭 旅遊景點","phone":null,"website":null,"wheelchair":false,"paid":null,"needsAddr":true},{"id":6595948808,"name":"人臉岩","lat":23.4719282,"lng":121.505369,"address":null,"hasBabyChanging":false,"hasAccessible":false,"source":"OpenStreetMap","updatedAt":"2026-06-16T15:54:24.202Z","facilityType":"tourist_attraction","facilityLabel":"🧭 旅遊景點","phone":null,"website":null,"wheelchair":false,"paid":null,"needsAddr":true},{"id":7765572162,"name":"豐濱新社懸崖水稻田","lat":23.6649986,"lng":121.5430417,"address":null,"hasBabyChanging":false,"hasAccessible":false,"source":"OpenStreetMap","updatedAt":"2026-06-16T15:54:24.202Z","facilityType":"tourist_attraction","facilityLabel":"🧭 旅遊景點","phone":null,"website":null,"wheelchair":false,"paid":null,"needsAddr":true},{"id":7765572163,"name":"豐濱天空步道","lat":23.6712713,"lng":121.5446677,"address":null,"hasBabyChanging":false,"hasAccessible":false,"source":"OpenStreetMap","updatedAt":"2026-06-16T15:54:24.202Z","facilityType":"tourist_attraction","facilityLabel":"🧭 旅遊景點","phone":null,"website":null,"wheelchair":false,"paid":null,"needsAddr":true},{"id":8072376340,"name":"新社岩棺","lat":23.65051,"lng":121.5360235,"address":null,"hasBabyChanging":false,"hasAccessible":false,"source":"OpenStreetMap","updatedAt":"2026-06-16T15:54:24.202Z","facilityType":"tourist_attraction","facilityLabel":"🧭 旅遊景點","phone":null,"website":null,"wheelchair":false,"paid":null,"needsAddr":true},{"id":11418926471,"name":"0.3k","lat":23.6978016,"lng":121.5515765,"address":null,"hasBabyChanging":false,"hasAccessible":false,"source":"OpenStreetMap","updatedAt":"2026-06-16T15:54:24.202Z","facilityType":"tourist_attraction","facilityLabel":"🧭 旅遊景點","phone":null,"website":null,"wheelchair":false,"paid":null,"needsAddr":true},{"id":11418991969,"name":"0.4k","lat":23.6981748,"lng":121.5520894,"address":null,"hasBabyChanging":false,"hasAccessible":false,"source":"OpenStreetMap","updatedAt":"2026-06-16T15:54:24.202Z","facilityType":"tourist_attraction","facilityLabel":"🧭 旅遊景點","phone":null,"website":null,"wheelchair":false,"paid":null,"needsAddr":true},{"id":504330423,"name":"太陽廣場","lat":23.46176635,"lng":121.49894800000001,"address":null,"hasBabyChanging":false,"hasAccessible":false,"source":"OpenStreetMap","updatedAt":"2026-06-16T15:54:24.202Z","facilityType":"park","facilityLabel":"🌳 小型公園","phone":null,"website":null,"wheelchair":false,"paid":null,"needsAddr":true},{"id":518136016,"name":"石梯坪遊客中心","lat":23.483157300000002,"lng":121.5115588,"address":"花蓮縣豐濱鄉石梯坪52號","hasBabyChanging":false,"hasAccessible":false,"source":"OpenStreetMap","updatedAt":"2026-06-16T15:54:24.202Z","facilityType":"visitor_center","facilityLabel":"🛎 旅客中心","phone":null,"website":null,"wheelchair":false,"paid":null,"needsAddr":false},{"id":518136018,"name":"石梯坪露營區","lat":23.4860771,"lng":121.51154115,"address":null,"hasBabyChanging":false,"hasAccessible":false,"source":"OpenStreetMap","updatedAt":"2026-06-16T15:54:24.202Z","facilityType":"spot","facilityLabel":"📍 親子景點","phone":null,"website":null,"wheelchair":false,"paid":null,"needsAddr":true},{"id":519244101,"name":"奚卜蘭遊客中心","lat":23.466071499999998,"lng":121.48842575,"address":"977花蓮縣豐濱鄉靜浦8-1號","hasBabyChanging":false,"hasAccessible":false,"source":"OpenStreetMap","updatedAt":"2026-06-16T15:54:24.202Z","facilityType":"visitor_center","facilityLabel":"🛎 旅客中心","phone":"+886 3 8781218","website":"https://newpacific1.weebly.com/","wheelchair":false,"paid":null,"needsAddr":false},{"id":619373573,"name":"北回歸線","lat":23.45135925,"lng":121.49624825000001,"address":null,"hasBabyChanging":false,"hasAccessible":false,"source":"OpenStreetMap","updatedAt":"2026-06-16T15:54:24.202Z","facilityType":"tourist_attraction","facilityLabel":"🧭 旅遊景點","phone":null,"website":null,"wheelchair":false,"paid":null,"needsAddr":true},{"id":667695390,"name":"月洞","lat":23.4800719,"lng":121.50768830000001,"address":null,"hasBabyChanging":false,"hasAccessible":false,"source":"OpenStreetMap","updatedAt":"2026-06-16T15:54:24.202Z","facilityType":"tourist_attraction","facilityLabel":"🧭 旅遊景點","phone":null,"website":null,"wheelchair":false,"paid":null,"needsAddr":true},{"id":806406563,"name":"貓公河濱公園","lat":23.596918600000002,"lng":121.51956185,"address":null,"hasBabyChanging":false,"hasAccessible":false,"source":"OpenStreetMap","updatedAt":"2026-06-16T15:54:24.202Z","facilityType":"park","facilityLabel":"🌳 小型公園","phone":null,"website":null,"wheelchair":false,"paid":null,"needsAddr":true},{"id":1050459517,"name":"立德廣場公園","lat":23.571293150000002,"lng":121.5208979,"address":null,"hasBabyChanging":false,"hasAccessible":false,"source":"OpenStreetMap","updatedAt":"2026-06-16T15:54:24.202Z","facilityType":"park","facilityLabel":"🌳 小型公園","phone":null,"website":null,"wheelchair":false,"paid":null,"needsAddr":true},{"id":1050465279,"name":"石門班哨角休憩區","lat":23.5202865,"lng":121.5024195,"address":null,"hasBabyChanging":false,"hasAccessible":false,"source":"OpenStreetMap","updatedAt":"2026-06-16T15:54:24.202Z","facilityType":"park","facilityLabel":"🌳 小型公園","phone":null,"website":null,"wheelchair":false,"paid":null,"needsAddr":true},{"id":1050702655,"name":"石梯坪露營區","lat":23.4842543,"lng":121.51173955,"address":null,"hasBabyChanging":false,"hasAccessible":false,"source":"OpenStreetMap","updatedAt":"2026-06-16T15:54:24.202Z","facilityType":"spot","facilityLabel":"📍 親子景點","phone":null,"website":null,"wheelchair":false,"paid":null,"needsAddr":true},{"id":1051541428,"name":"加利利海石梯坪露營區","lat":23.4820673,"lng":121.5090868,"address":"花蓮縣豐濱鄉石梯坪45-2號","hasBabyChanging":false,"hasAccessible":false,"source":"OpenStreetMap","updatedAt":"2026-06-16T15:54:24.202Z","facilityType":"spot","facilityLabel":"📍 親子景點","phone":null,"website":null,"wheelchair":false,"paid":null,"needsAddr":false},{"id":1058297327,"name":"噶瑪蘭牧場","lat":23.641925999999998,"lng":121.53080714999999,"address":"花蓮縣豐濱鄉新社202-1號","hasBabyChanging":false,"hasAccessible":false,"source":"OpenStreetMap","updatedAt":"2026-06-16T15:54:24.202Z","facilityType":"farm","facilityLabel":"🌾 農場","phone":null,"website":null,"wheelchair":false,"paid":null,"needsAddr":false},{"id":7075258,"name":"水璉南自然保護區","lat":23.75239765,"lng":121.56354105,"address":null,"hasBabyChanging":false,"hasAccessible":false,"source":"OpenStreetMap","updatedAt":"2026-06-16T15:54:24.202Z","facilityType":"spot","facilityLabel":"📍 親子景點","phone":null,"website":"http://www.cpami.gov.tw/chinese/index.php?option=com_content&view=article&id=18327&Itemid=53","wheelchair":false,"paid":null,"needsAddr":true},{"id":7075259,"name":"石梯、靜浦自然保護區","lat":23.49104905,"lng":121.50083860000001,"address":null,"hasBabyChanging":false,"hasAccessible":false,"source":"OpenStreetMap","updatedAt":"2026-06-16T15:54:24.202Z","facilityType":"spot","facilityLabel":"📍 親子景點","phone":null,"website":"http://www.cpami.gov.tw/chinese/index.php?option=com_content&view=article&id=18327&Itemid=53","wheelchair":false,"paid":null,"needsAddr":true},{"id":7075261,"name":"花東沿海保護區","lat":23.36054935,"lng":121.3802612,"address":null,"hasBabyChanging":false,"hasAccessible":false,"source":"OpenStreetMap","updatedAt":"2026-06-16T15:54:24.202Z","facilityType":"spot","facilityLabel":"📍 親子景點","phone":null,"website":"http://www.cpami.gov.tw/chinese/index.php?option=com_content&view=article&id=18327&Itemid=53","wheelchair":false,"paid":null,"needsAddr":true},{"id":3264590638,"name":"奇美原住民文物館","lat":23.49196,"lng":121.4462358,"address":null,"hasBabyChanging":false,"hasAccessible":false,"source":"OpenStreetMap","updatedAt":"2026-06-16T15:54:24.202Z","facilityType":"culture","facilityLabel":"🎨 藝文場館","phone":null,"website":null,"wheelchair":false,"paid":null,"needsAddr":true},{"id":5246393633,"name":"camping/hotspring 300ntd/pax","lat":23.4902952,"lng":121.3506247,"address":null,"hasBabyChanging":false,"hasAccessible":false,"source":"OpenStreetMap","updatedAt":"2026-06-16T15:54:24.202Z","facilityType":"spot","facilityLabel":"📍 親子景點","phone":null,"website":null,"wheelchair":false,"paid":null,"needsAddr":true},{"id":7780505137,"name":"向上泛舟","lat":23.4879584,"lng":121.4019461,"address":null,"hasBabyChanging":false,"hasAccessible":false,"source":"OpenStreetMap","updatedAt":"2026-06-16T15:54:24.202Z","facilityType":"tourist_attraction","facilityLabel":"🧭 旅遊景點","phone":null,"website":null,"wheelchair":false,"paid":null,"needsAddr":true},{"id":9945100200,"name":"反射板","lat":23.5083909,"lng":121.3464895,"address":null,"hasBabyChanging":false,"hasAccessible":false,"source":"OpenStreetMap","updatedAt":"2026-06-16T15:54:24.202Z","facilityType":"tourist_attraction","facilityLabel":"🧭 旅遊景點","phone":null,"website":null,"wheelchair":false,"paid":null,"needsAddr":true},{"id":10796214005,"name":"瑞穗牧場 W050","lat":23.4783052,"lng":121.3478166,"address":null,"hasBabyChanging":false,"hasAccessible":false,"source":"OpenStreetMap","updatedAt":"2026-06-16T15:54:24.202Z","facilityType":"farm","facilityLabel":"🌾 農場","phone":null,"website":null,"wheelchair":false,"paid":null,"needsAddr":true},{"id":389517157,"name":"北回歸線標誌公園","lat":23.46559525,"lng":121.35756190000001,"address":null,"hasBabyChanging":false,"hasAccessible":false,"source":"OpenStreetMap","updatedAt":"2026-06-16T15:54:24.202Z","facilityType":"park","facilityLabel":"🌳 小型公園","phone":null,"website":null,"wheelchair":false,"paid":null,"needsAddr":true},{"id":463384252,"name":"瑞穗鄉公墓公園","lat":23.48656305,"lng":121.38122915,"address":null,"hasBabyChanging":false,"hasAccessible":false,"source":"OpenStreetMap","updatedAt":"2026-06-16T15:54:24.202Z","facilityType":"park","facilityLabel":"🌳 大型公園","phone":null,"website":null,"wheelchair":false,"paid":null,"needsAddr":true},{"id":463584378,"name":"掃叭石柱","lat":23.470538249999997,"lng":121.35924355,"address":null,"hasBabyChanging":false,"hasAccessible":false,"source":"OpenStreetMap","updatedAt":"2026-06-16T15:54:24.202Z","facilityType":"tourist_attraction","facilityLabel":"🧭 旅遊景點","phone":null,"website":null,"wheelchair":false,"paid":null,"needsAddr":true},