{"city":"台東縣","district":"關山鎮","category":"medical","updatedAt":"2026-06-12T14:35:28.702Z","rev":1,"count":14,"items":[{"id":4121097397,"name":"宏順藥局","lat":23.0466124,"lng":121.1626596,"address":"台東縣關山鎮里壠里5鄰中華路20號","hasBabyChanging":false,"hasAccessible":false,"source":"OpenStreetMap","updatedAt":"2026-06-12T14:35:28.702Z","facilityType":"pharmacy","facilityLabel":"💊 藥局","phone":null,"website":null,"wheelchair":false,"needsAddr":false},{"id":4121097399,"name":"明生西藥房","lat":23.0464338,"lng":121.1625888,"address":"台東縣關山鎮里壠里5鄰中華路12號","hasBabyChanging":false,"hasAccessible":false,"source":"OpenStreetMap","updatedAt":"2026-06-12T14:35:28.702Z","facilityType":"pharmacy","facilityLabel":"💊 藥局","phone":null,"website":null,"wheelchair":false,"needsAddr":false},{"id":4121097400,"name":"宏達牙醫","lat":23.0463034,"lng":121.1626318,"address":"台東縣關山鎮里壠里5鄰民權路18號","hasBabyChanging":false,"hasAccessible":false,"source":"OpenStreetMap","updatedAt":"2026-06-12T14:35:28.702Z","facilityType":"dentist","facilityLabel":"🦷 牙醫","phone":null,"website":null,"wheelchair":false,"needsAddr":false},{"id":4121138229,"name":"東民診所","lat":23.0450273,"lng":121.1626846,"address":"台東縣關山鎮里壠里6鄰民族路59號","hasBabyChanging":false,"hasAccessible":false,"source":"OpenStreetMap","updatedAt":"2026-06-12T14:35:28.702Z","facilityType":"clinic","facilityLabel":"🩺 診所","phone":null,"website":null,"wheelchair":false,"needsAddr":false},{"id":4121138244,"name":"大關山中醫診所","lat":23.0459636,"lng":121.1636079,"address":"台東縣關山鎮民權路","hasBabyChanging":false,"hasAccessible":false,"source":"OpenStreetMap","updatedAt":"2026-06-12T14:35:28.702Z","facilityType":"clinic","facilityLabel":"🩺 診所","phone":null,"website":null,"wheelchair":false,"needsAddr":false},{"id":4121246023,"name":"東仁西藥房","lat":23.0470541,"lng":121.1633547,"address":null,"hasBabyChanging":false,"hasAccessible":false,"source":"OpenStreetMap","updatedAt":"2026-06-12T14:35:28.702Z","facilityType":"pharmacy","facilityLabel":"💊 藥局","phone":null,"website":null,"wheelchair":false,"needsAddr":true},{"id":4121246029,"name":"福生堂藥房","lat":23.047175,"lng":121.1634687,"address":null,"hasBabyChanging":false,"hasAccessible":false,"source":"OpenStreetMap","updatedAt":"2026-06-12T14:35:28.702Z","facilityType":"pharmacy","facilityLabel":"💊 藥局","phone":null,"website":null,"wheelchair":false,"needsAddr":true},{"id":4121301156,"name":"大丰藥局","lat":23.0478747,"lng":121.1634043,"address":null,"hasBabyChanging":false,"hasAccessible":false,"source":"OpenStreetMap","updatedAt":"2026-06-12T14:35:28.702Z","facilityType":"pharmacy","facilityLabel":"💊 藥局","phone":null,"website":null,"wheelchair":false,"needsAddr":true},{"id":4122805006,"name":"泉春中藥房","lat":23.0481245,"lng":121.1630721,"address":null,"hasBabyChanging":false,"hasAccessible":false,"source":"OpenStreetMap","updatedAt":"2026-06-12T14:35:28.702Z","facilityType":"pharmacy","facilityLabel":"💊 藥局","phone":null,"website":null,"wheelchair":false,"needsAddr":true},{"id":4122805008,"name":"永晴診所","lat":23.047904,"lng":121.1629759,"address":null,"hasBabyChanging":false,"hasAccessible":false,"source":"OpenStreetMap","updatedAt":"2026-06-12T14:35:28.702Z","facilityType":"clinic","facilityLabel":"🩺 診所","phone":null,"website":null,"wheelchair":false,"needsAddr":true},{"id":4122805010,"name":"大豐藥局","lat":23.0478665,"lng":121.1630544,"address":null,"hasBabyChanging":false,"hasAccessible":false,"source":"OpenStreetMap","updatedAt":"2026-06-12T14:35:28.702Z","facilityType":"pharmacy","facilityLabel":"💊 藥局","phone":null,"website":null,"wheelchair":false,"needsAddr":true},{"id":4122805011,"name":"劉牙科","lat":23.0477204,"lng":121.1618338,"address":null,"hasBabyChanging":false,"hasAccessible":false,"source":"OpenStreetMap","updatedAt":"2026-06-12T14:35:28.702Z","facilityType":"dentist","facilityLabel":"🦷 牙醫","phone":null,"website":null,"wheelchair":false,"needsAddr":true},{"id":301894545,"name":"關山鎮衛生所","lat":23.0494932,"lng":121.1637925,"address":"95661臺東縣關山鎮中華路78號","hasBabyChanging":false,"hasAccessible":false,"source":"OpenStreetMap","updatedAt":"2026-06-12T14:35:28.702Z","facilityType":"health_center","facilityLabel":"🏥 衛生所","phone":"+886 89 811 042","website":"http://203.65.42.172/taitungcounty10/pub/News.asp","wheelchair":false,"needsAddr":false},{"id":301894560,"name":"關山慈濟醫院","lat":23.0573454,"lng":121.1666417,"address":"95655臺東縣關山鎮和平路125-5號","hasBabyChanging":false,"hasAccessible":false,"source":"OpenStreetMap","updatedAt":"2026-06-12T14:35:28.702Z","facilityType":"hospital","facilityLabel":"🏥 醫院","phone":"+886 89 814 880#109","website":"https://kuanshan.tzuchi.com.tw/","wheelchair":false,"needsAddr":false}]}