{"city":"新北市","district":"五股區","category":"medical","updatedAt":"2026-06-10T15:41:05.166Z","rev":1,"count":5,"items":[{"id":2111807707,"name":"成洲診所","lat":25.1009224,"lng":121.4512865,"address":null,"hasBabyChanging":false,"hasAccessible":false,"source":"OpenStreetMap","updatedAt":"2026-06-10T15:41:05.166Z","facilityType":"clinic","facilityLabel":"🩺 診所","phone":null,"website":null,"wheelchair":false,"needsAddr":true},{"id":2113616857,"name":"明志牙醫診所","lat":25.1008295,"lng":121.4514372,"address":null,"hasBabyChanging":false,"hasAccessible":false,"source":"OpenStreetMap","updatedAt":"2026-06-10T15:41:05.166Z","facilityType":"dentist","facilityLabel":"🦷 牙醫","phone":null,"website":null,"wheelchair":false,"needsAddr":true},{"id":9449145946,"name":"大樹藥局","lat":25.0796605,"lng":121.4362206,"address":null,"hasBabyChanging":false,"hasAccessible":false,"source":"OpenStreetMap","updatedAt":"2026-06-10T15:41:05.166Z","facilityType":"pharmacy","facilityLabel":"💊 藥局","phone":null,"website":"https://www.greattree.com.tw","wheelchair":false,"needsAddr":true},{"id":12412577503,"name":"康是美","lat":25.0838136,"lng":121.437957,"address":"新北市五股區成泰路二段71;73號","hasBabyChanging":false,"hasAccessible":false,"source":"OpenStreetMap","updatedAt":"2026-06-10T15:41:05.166Z","facilityType":"pharmacy","facilityLabel":"💊 藥妝","phone":null,"website":null,"wheelchair":false,"needsAddr":false},{"id":12412577508,"name":"寶雅","lat":25.0853343,"lng":121.4378506,"address":"新北市五股區工商路90號","hasBabyChanging":false,"hasAccessible":false,"source":"OpenStreetMap","updatedAt":"2026-06-10T15:41:05.166Z","facilityType":"pharmacy","facilityLabel":"💊 藥局","phone":null,"website":null,"wheelchair":false,"needsAddr":false}]}