{"city":"新北市","district":"新店區","category":"medical","updatedAt":"2026-06-10T15:41:05.166Z","rev":1,"count":152,"items":[{"id":1955036378,"name":"康宜庭碧潭藥局","lat":24.9572907,"lng":121.5383608,"address":"231新北市新店區北宜路一段41號","hasBabyChanging":false,"hasAccessible":false,"source":"OpenStreetMap","updatedAt":"2026-06-10T15:41:05.166Z","facilityType":"pharmacy","facilityLabel":"💊 藥局","phone":"+886 2 2910 1968","website":null,"wheelchair":false,"needsAddr":false},{"id":2011117389,"name":"碧潭大藥局","lat":24.9563833,"lng":121.5341185,"address":"231新北市新店區碧潭路41號","hasBabyChanging":false,"hasAccessible":false,"source":"OpenStreetMap","updatedAt":"2026-06-10T15:41:05.166Z","facilityType":"pharmacy","facilityLabel":"💊 藥局","phone":null,"website":null,"wheelchair":false,"needsAddr":false},{"id":2090614024,"name":"屈臣氏","lat":24.9718624,"lng":121.5415623,"address":null,"hasBabyChanging":false,"hasAccessible":false,"source":"OpenStreetMap","updatedAt":"2026-06-10T15:41:05.166Z","facilityType":"pharmacy","facilityLabel":"💊 藥妝","phone":null,"website":null,"wheelchair":false,"needsAddr":true},{"id":2203268930,"name":"新益牙醫","lat":24.9563645,"lng":121.5382219,"address":"231新北市新店區北宜路一段56號","hasBabyChanging":false,"hasAccessible":false,"source":"OpenStreetMap","updatedAt":"2026-06-10T15:41:05.166Z","facilityType":"dentist","facilityLabel":"🦷 牙醫","phone":null,"website":null,"wheelchair":false,"needsAddr":false},{"id":2203268931,"name":"九宜診所","lat":24.9564021,"lng":121.5382259,"address":"231新北市新店區北宜路一段52號","hasBabyChanging":false,"hasAccessible":false,"source":"OpenStreetMap","updatedAt":"2026-06-10T15:41:05.166Z","facilityType":"clinic","facilityLabel":"🩺 診所","phone":null,"website":null,"wheelchair":false,"needsAddr":false},{"id":2209949972,"name":"康是美","lat":24.9677433,"lng":121.5412734,"address":null,"hasBabyChanging":false,"hasAccessible":false,"source":"OpenStreetMap","updatedAt":"2026-06-10T15:41:05.166Z","facilityType":"pharmacy","facilityLabel":"💊 藥妝","phone":null,"website":null,"wheelchair":false,"needsAddr":true},{"id":2269585421,"name":"屈臣氏","lat":24.9568842,"lng":121.5376308,"address":"231新北市新店區文中路8號","hasBabyChanging":false,"hasAccessible":false,"source":"OpenStreetMap","updatedAt":"2026-06-10T15:41:05.166Z","facilityType":"pharmacy","facilityLabel":"💊 藥妝","phone":null,"website":null,"wheelchair":false,"needsAddr":false},{"id":2311690783,"name":"譚內科診所","lat":24.9668805,"lng":121.5405388,"address":null,"hasBabyChanging":false,"hasAccessible":false,"source":"OpenStreetMap","updatedAt":"2026-06-10T15:41:05.166Z","facilityType":"clinic","facilityLabel":"🩺 診所","phone":null,"website":null,"wheelchair":false,"needsAddr":true},{"id":2311690788,"name":"北新牙科","lat":24.9669299,"lng":121.5406331,"address":null,"hasBabyChanging":false,"hasAccessible":false,"source":"OpenStreetMap","updatedAt":"2026-06-10T15:41:05.166Z","facilityType":"dentist","facilityLabel":"🦷 牙醫","phone":null,"website":null,"wheelchair":false,"needsAddr":true},{"id":2352217572,"name":"巧新藥局","lat":24.9556653,"lng":121.5385357,"address":null,"hasBabyChanging":false,"hasAccessible":false,"source":"OpenStreetMap","updatedAt":"2026-06-10T15:41:05.166Z","facilityType":"pharmacy","facilityLabel":"💊 藥局","phone":null,"website":null,"wheelchair":false,"needsAddr":true},{"id":2355618177,"name":"康宜庭市公所藥局","lat":24.9669702,"lng":121.5409403,"address":null,"hasBabyChanging":false,"hasAccessible":false,"source":"OpenStreetMap","updatedAt":"2026-06-10T15:41:05.166Z","facilityType":"pharmacy","facilityLabel":"💊 藥局","phone":null,"website":null,"wheelchair":false,"needsAddr":true},{"id":2355618179,"name":"王慶祥小兒專科","lat":24.9662731,"lng":121.5411518,"address":null,"hasBabyChanging":false,"hasAccessible":false,"source":"OpenStreetMap","updatedAt":"2026-06-10T15:41:05.166Z","facilityType":"clinic","facilityLabel":"👶 小兒科","phone":null,"website":null,"wheelchair":false,"needsAddr":true},{"id":2355618181,"name":"新進牙科診所","lat":24.9659632,"lng":121.5405643,"address":null,"hasBabyChanging":false,"hasAccessible":false,"source":"OpenStreetMap","updatedAt":"2026-06-10T15:41:05.166Z","facilityType":"dentist","facilityLabel":"🦷 牙醫","phone":null,"website":null,"wheelchair":false,"needsAddr":true},{"id":2355618202,"name":"美康藥妝藥局","lat":24.9669014,"lng":121.5409078,"address":null,"hasBabyChanging":false,"hasAccessible":false,"source":"OpenStreetMap","updatedAt":"2026-06-10T15:41:05.166Z","facilityType":"pharmacy","facilityLabel":"💊 藥局","phone":null,"website":null,"wheelchair":false,"needsAddr":true},{"id":2378064805,"name":"聖新診所","lat":24.973367,"lng":121.5432472,"address":"231新北市新店區寶橋路4號一樓","hasBabyChanging":false,"hasAccessible":false,"source":"OpenStreetMap","updatedAt":"2026-06-10T15:41:05.166Z","facilityType":"clinic","facilityLabel":"👂 耳鼻喉科","phone":"+886 2 29131415","website":null,"wheelchair":false,"needsAddr":false},{"id":2460008733,"name":"新德安藥房","lat":24.9556955,"lng":121.5370242,"address":"231新北市新店區新店路171號","hasBabyChanging":false,"hasAccessible":false,"source":"OpenStreetMap","updatedAt":"2026-06-10T15:41:05.166Z","facilityType":"pharmacy","facilityLabel":"💊 藥局","phone":null,"website":null,"wheelchair":false,"needsAddr":false},{"id":2470166169,"name":"正升藥局","lat":24.986486,"lng":121.5407406,"address":null,"hasBabyChanging":false,"hasAccessible":false,"source":"OpenStreetMap","updatedAt":"2026-06-10T15:41:05.166Z","facilityType":"pharmacy","facilityLabel":"💊 藥局","phone":null,"website":null,"wheelchair":false,"needsAddr":true},{"id":2470166368,"name":"順安堂中醫診所","lat":24.9850576,"lng":121.5411629,"address":null,"hasBabyChanging":false,"hasAccessible":false,"source":"OpenStreetMap","updatedAt":"2026-06-10T15:41:05.166Z","facilityType":"clinic","facilityLabel":"🩺 診所","phone":null,"website":null,"wheelchair":false,"needsAddr":true},{"id":2617061687,"name":"安心牙醫診所","lat":24.9589572,"lng":121.5092923,"address":null,"hasBabyChanging":false,"hasAccessible":false,"source":"OpenStreetMap","updatedAt":"2026-06-10T15:41:05.166Z","facilityType":"dentist","facilityLabel":"🦷 牙醫","phone":null,"website":null,"wheelchair":false,"needsAddr":true},{"id":2625638971,"name":"信隆大藥局","lat":24.9638092,"lng":121.514911,"address":null,"hasBabyChanging":false,"hasAccessible":true,"source":"OpenStreetMap","updatedAt":"2026-06-10T15:41:05.166Z","facilityType":"pharmacy","facilityLabel":"💊 藥局","phone":null,"website":null,"wheelchair":true,"needsAddr":true},{"id":2690917025,"name":"白玉牙醫診所","lat":24.9807527,"lng":121.5419994,"address":"231新北市新店區北新路三段88號","hasBabyChanging":false,"hasAccessible":false,"source":"OpenStreetMap","updatedAt":"2026-06-10T15:41:05.166Z","facilityType":"dentist","facilityLabel":"🦷 牙醫","phone":"+886 2 29121233","website":"https://www.3dlaserimplant.com/","wheelchair":false,"needsAddr":false},{"id":2772749236,"name":"蕭仁哲婦產科","lat":24.9838603,"lng":121.5409757,"address":"231新北市新店區北新路三段165;167號","hasBabyChanging":false,"hasAccessible":false,"source":"OpenStreetMap","updatedAt":"2026-06-10T15:41:05.166Z","facilityType":"clinic","facilityLabel":"🩺 診所","phone":"+886 2 29158090","website":null,"wheelchair":false,"needsAddr":false},{"id":2772749725,"name":"中文內兒科","lat":24.9839393,"lng":121.5409668,"address":"231新北市新店區北新路三段169號","hasBabyChanging":false,"hasAccessible":false,"source":"OpenStreetMap","updatedAt":"2026-06-10T15:41:05.166Z","facilityType":"clinic","facilityLabel":"👶 小兒科","phone":"+886 2 29141010","website":null,"wheelchair":false,"needsAddr":false},{"id":2772751965,"name":"崎伯齋中醫診所","lat":24.9827512,"lng":121.53836,"address":null,"hasBabyChanging":false,"hasAccessible":false,"source":"OpenStreetMap","updatedAt":"2026-06-10T15:41:05.166Z","facilityType":"clinic","facilityLabel":"🩺 診所","phone":null,"website":null,"wheelchair":false,"needsAddr":true},{"id":2772752072,"name":"江陵牙醫診所","lat":24.9827532,"lng":121.5382767,"address":null,"hasBabyChanging":false,"hasAccessible":false,"source":"OpenStreetMap","updatedAt":"2026-06-10T15:41:05.166Z","facilityType":"dentist","facilityLabel":"🦷 牙醫","phone":null,"website":null,"wheelchair":false,"needsAddr":true},{"id":2772752481,"name":"屈臣氏","lat":24.9827715,"lng":121.539431,"address":"231新北市新店區民權路53號","hasBabyChanging":false,"hasAccessible":false,"source":"OpenStreetMap","updatedAt":"2026-06-10T15:41:05.166Z","facilityType":"pharmacy","facilityLabel":"💊 藥妝","phone":null,"website":null,"wheelchair":false,"needsAddr":false},{"id":2772752792,"name":"日藥本舖","lat":24.9827585,"lng":121.5404748,"address":null,"hasBabyChanging":false,"hasAccessible":true,"source":"OpenStreetMap","updatedAt":"2026-06-10T15:41:05.166Z","facilityType":"pharmacy","facilityLabel":"💊 藥局","phone":null,"website":null,"wheelchair":true,"needsAddr":true},{"id":2772752876,"name":"康是美","lat":24.9827591,"lng":121.5405905,"address":null,"hasBabyChanging":false,"hasAccessible":false,"source":"OpenStreetMap","updatedAt":"2026-06-10T15:41:05.166Z","facilityType":"pharmacy","facilityLabel":"💊 藥妝","phone":null,"website":null,"wheelchair":false,"needsAddr":true},{"id":2839793650,"name":"東北大牙醫診所","lat":24.9827724,"lng":121.5415333,"address":"231新北市新店區北新路三段158號三樓","hasBabyChanging":false,"hasAccessible":false,"source":"OpenStreetMap","updatedAt":"2026-06-10T15:41:05.166Z","facilityType":"dentist","facilityLabel":"🦷 牙醫","phone":"+886 2 29183993","website":null,"wheelchair":false,"needsAddr":false},{"id":2839793654,"name":"赫爾藥局","lat":24.9807119,"lng":121.5420182,"address":"231新北市新店區北新路三段84號一樓","hasBabyChanging":false,"hasAccessible":false,"source":"OpenStreetMap","updatedAt":"2026-06-10T15:41:05.166Z","facilityType":"pharmacy","facilityLabel":"💊 藥局","phone":"+886 2 89147336","website":"https://www.healpharma.tw/","wheelchair":false,"needsAddr":false},{"id":2839793656,"name":"何耳鼻喉科","lat":24.982023,"lng":121.5416641,"address":"231新北市新店區北新路三段138號","hasBabyChanging":false,"hasAccessible":false,"source":"OpenStreetMap","updatedAt":"2026-06-10T15:41:05.166Z","facilityType":"clinic","facilityLabel":"👂 耳鼻喉科","phone":"+886 2 29132269","website":null,"wheelchair":false,"needsAddr":false},{"id":2839793660,"name":"利林牙醫診所","lat":24.9823924,"lng":121.5412663,"address":"231新北市新店區北新路三段117號","hasBabyChanging":false,"hasAccessible":false,"source":"OpenStreetMap","updatedAt":"2026-06-10T15:41:05.166Z","facilityType":"dentist","facilityLabel":"🦷 牙醫","phone":"+886 2 29162000","website":null,"wheelchair":false,"needsAddr":false},{"id":2839793670,"name":"新店冠新復健科診所","lat":24.9814357,"lng":121.5418097,"address":"231新北市新店區北新路三段112號","hasBabyChanging":false,"hasAccessible":false,"source":"OpenStreetMap","updatedAt":"2026-06-10T15:41:05.166Z","facilityType":"clinic","facilityLabel":"🦽 復健科","phone":"+886 2 89116877","website":"https://www.forcestar.com.tw/clinic/%E6%96%B0%E5%BA%97%E5%86%A0%E6%96%B0%E5%BE%A9%E5%81%A5%E7%A7%91%E8%A8%BA%E6%89%80/c/i3YEwkSTF0","wheelchair":false,"needsAddr":false},{"id":2839793672,"name":"康宜庭大坪林藥局","lat":24.982617,"lng":121.5412342,"address":"231新北市新店區北新路三段127號一樓","hasBabyChanging":false,"hasAccessible":false,"source":"OpenStreetMap","updatedAt":"2026-06-10T15:41:05.166Z","facilityType":"pharmacy","facilityLabel":"💊 藥局","phone":"+886 2 89116029","website":null,"wheelchair":false,"needsAddr":false},{"id":2839793673,"name":"弘安獸醫院","lat":24.9823299,"lng":121.5416045,"address":"231新北市新店區北新路三段146號","hasBabyChanging":false,"hasAccessible":false,"source":"OpenStreetMap","updatedAt":"2026-06-10T15:41:05.166Z","facilityType":"vet","facilityLabel":"🐾 動物醫院","phone":"+886 2 29162020","website":null,"wheelchair":false,"needsAddr":false},{"id":2839793675,"name":"德威牙醫","lat":24.9813554,"lng":121.5418323,"address":"231新北市新店區北新路三段108號","hasBabyChanging":false,"hasAccessible":false,"source":"OpenStreetMap","updatedAt":"2026-06-10T15:41:05.166Z","facilityType":"dentist","facilityLabel":"🦷 牙醫","phone":"+886 2 29160206","website":"https://group.dentway.com.tw/xd/","wheelchair":false,"needsAddr":false},{"id":2839793678,"name":"敦鄰牙醫診所","lat":24.9808525,"lng":121.5419569,"address":"231新北市新店區北新路三段92號1F樓","hasBabyChanging":false,"hasAccessible":false,"source":"OpenStreetMap","updatedAt":"2026-06-10T15:41:05.166Z","facilityType":"dentist","facilityLabel":"🦷 牙醫","phone":"+886 2 29151555","website":"http://www.tunlin.com.tw/","wheelchair":false,"needsAddr":false},{"id":2839793681,"name":"晶漾皮膚專科","lat":24.983163,"lng":121.5415316,"address":null,"hasBabyChanging":false,"hasAccessible":false,"source":"OpenStreetMap","updatedAt":"2026-06-10T15:41:05.166Z","facilityType":"clinic","facilityLabel":"🩺 診所","phone":null,"website":null,"wheelchair":false,"needsAddr":true},{"id":2839793683,"name":"東陽耳鼻喉科","lat":24.9826763,"lng":121.5415519,"address":"新北市新店區北新路三段154號","hasBabyChanging":false,"hasAccessible":false,"source":"OpenStreetMap","updatedAt":"2026-06-10T15:41:05.166Z","facilityType":"clinic","facilityLabel":"👂 耳鼻喉科","phone":"+886 2 29161189","website":null,"wheelchair":false,"needsAddr":false},{"id":2839793692,"name":"維格皮膚科診所","lat":24.981152,"lng":121.5418958,"address":"231新北市新店區北新路三段100號","hasBabyChanging":false,"hasAccessible":false,"source":"OpenStreetMap","updatedAt":"2026-06-10T15:41:05.166Z","facilityType":"clinic","facilityLabel":"🩺 診所","phone":"+886 2 89118555","website":"https://www.vigorbeauty.com/","wheelchair":false,"needsAddr":false},{"id":2839793695,"name":"聖康診所","lat":24.9812192,"lng":121.5418748,"address":"231新北市新店區北新路三段104號一樓","hasBabyChanging":false,"hasAccessible":false,"source":"OpenStreetMap","updatedAt":"2026-06-10T15:41:05.166Z","facilityType":"clinic","facilityLabel":"🩺 診所","phone":"+886 2 86655858","website":null,"wheelchair":false,"needsAddr":false},{"id":2839793706,"name":"陳小兒科","lat":24.9811864,"lng":121.5418826,"address":"231新北市新店區北新路三段100號","hasBabyChanging":false,"hasAccessible":false,"source":"OpenStreetMap","updatedAt":"2026-06-10T15:41:05.166Z","facilityType":"clinic","facilityLabel":"👶 小兒科","phone":"+886 2 29110075","website":null,"wheelchair":false,"needsAddr":false},{"id":2839793708,"name":"超亮皮膚科診所","lat":24.9817663,"lng":121.5417211,"address":"新北市新店區北新路三段128號","hasBabyChanging":false,"hasAccessible":false,"source":"OpenStreetMap","updatedAt":"2026-06-10T15:41:05.166Z","facilityType":"clinic","facilityLabel":"🩺 診所","phone":"+886 2 29153734;+886 2 29156486","website":"https://www.beautyezgo.com.tw/","wheelchair":false,"needsAddr":false},{"id":2839793709,"name":"黃眼科","lat":24.964706,"lng":121.5400289,"address":"新北市新店區力行路2號1樓","hasBabyChanging":false,"hasAccessible":false,"source":"OpenStreetMap","updatedAt":"2026-06-10T15:41:05.166Z","facilityType":"clinic","facilityLabel":"🩺 診所","phone":"+886 2 2912 7480","website":null,"wheelchair":false,"needsAddr":false},{"id":2954488045,"name":"碧潭診所","lat":24.9590197,"lng":121.5377145,"address":"231新北市新店區北新路一段21號","hasBabyChanging":false,"hasAccessible":false,"source":"OpenStreetMap","updatedAt":"2026-06-10T15:41:05.166Z","facilityType":"clinic","facilityLabel":"🩺 診所","phone":"+886 2 29116698","website":null,"wheelchair":false,"needsAddr":false},{"id":3145515543,"name":"清新牙醫","lat":24.9840672,"lng":121.5417645,"address":"231新北市新店區寶安街64號","hasBabyChanging":false,"hasAccessible":false,"source":"OpenStreetMap","updatedAt":"2026-06-10T15:41:05.166Z","facilityType":"dentist","facilityLabel":"🦷 牙醫","phone":"+886-2-2910-7886","website":null,"wheelchair":false,"needsAddr":false},{"id":3161109177,"name":"新店建成中醫診所","lat":24.9759729,"lng":121.5430693,"address":"231新北市新店區北新路二段176號","hasBabyChanging":false,"hasAccessible":false,"source":"OpenStreetMap","updatedAt":"2026-06-10T15:41:05.166Z","facilityType":"clinic","facilityLabel":"🩺 診所","phone":null,"website":null,"wheelchair":false,"needsAddr":false},{"id":3408985594,"name":"耕莘動物醫院","lat":24.9623809,"lng":121.5396264,"address":"231新北市新店區光明街157號","hasBabyChanging":false,"hasAccessible":false,"source":"OpenStreetMap","updatedAt":"2026-06-10T15:41:05.166Z","facilityType":"vet","facilityLabel":"🐾 動物醫院","phone":null,"website":null,"wheelchair":false,"needsAddr":false},{"id":3639451004,"name":"永吉外科","lat":24.9647327,"lng":121.5400997,"address":null,"hasBabyChanging":false,"hasAccessible":false,"source":"OpenStreetMap","updatedAt":"2026-06-10T15:41:05.166Z","facilityType":"clinic","facilityLabel":"🩺 診所","phone":null,"website":null,"wheelchair":false,"needsAddr":true},{"id":3652837702,"name":"屈臣氏","lat":24.9753301,"lng":121.5363962,"address":null,"hasBabyChanging":false,"hasAccessible":false,"source":"OpenStreetMap","updatedAt":"2026-06-10T15:41:05.166Z","facilityType":"pharmacy","facilityLabel":"💊 藥妝","phone":null,"website":null,"wheelchair":false,"needsAddr":true},{"id":3695574954,"name":"愛達司動物醫院","lat":24.9673258,"lng":121.544632,"address":"231新北市新店區中興路一段261號","hasBabyChanging":false,"hasAccessible":false,"source":"OpenStreetMap","updatedAt":"2026-06-10T15:41:05.166Z","facilityType":"vet","facilityLabel":"🐾 動物醫院","phone":"+886-2-8914-7889","website":null,"wheelchair":false,"needsAddr":false},{"id":3695581477,"name":"耀獅藥局","lat":24.9698883,"lng":121.5442949,"address":"231新北市新店區中正路57-1號一樓","hasBabyChanging":false,"hasAccessible":false,"source":"OpenStreetMap","updatedAt":"2026-06-10T15:41:05.166Z","facilityType":"pharmacy","facilityLabel":"💊 藥局","phone":null,"website":null,"wheelchair":false,"needsAddr":false},{"id":3707449770,"name":"新店獸醫院","lat":24.9612343,"lng":121.5376986,"address":"231新北市新店區環河路15號","hasBabyChanging":false,"hasAccessible":false,"source":"OpenStreetMap","updatedAt":"2026-06-10T15:41:05.166Z","facilityType":"vet","facilityLabel":"🐾 動物醫院","phone":"+886 2 29111193","website":null,"wheelchair":false,"needsAddr":false},{"id":3826878257,"name":"康和動物醫院","lat":24.9780332,"lng":121.5340341,"address":null,"hasBabyChanging":false,"hasAccessible":false,"source":"OpenStreetMap","updatedAt":"2026-06-10T15:41:05.166Z","facilityType":"vet","facilityLabel":"🐾 動物醫院","phone":null,"website":null,"wheelchair":false,"needsAddr":true},{"id":3835834091,"name":"寶雅","lat":24.9576085,"lng":121.5378885,"address":null,"hasBabyChanging":false,"hasAccessible":false,"source":"OpenStreetMap","updatedAt":"2026-06-10T15:41:05.166Z","facilityType":"pharmacy","facilityLabel":"💊 藥局","phone":null,"website":null,"wheelchair":false,"needsAddr":true},{"id":3835834458,"name":"北新中醫診所","lat":24.9576287,"lng":121.5384314,"address":null,"hasBabyChanging":false,"hasAccessible":false,"source":"OpenStreetMap","updatedAt":"2026-06-10T15:41:05.166Z","facilityType":"clinic","facilityLabel":"🩺 診所","phone":null,"website":null,"wheelchair":false,"needsAddr":true},{"id":3881721633,"name":"維彥牙醫診所","lat":24.9770642,"lng":121.5426732,"address":"新北市新店區北新路二段177之1號","hasBabyChanging":false,"hasAccessible":false,"source":"OpenStreetMap","updatedAt":"2026-06-10T15:41:05.166Z","facilityType":"dentist","facilityLabel":"🦷 牙醫","phone":null,"website":null,"wheelchair":false,"needsAddr":false},{"id":3881721634,"name":"大樹藥局","lat":24.9737888,"lng":121.5431025,"address":"231007新北市新店區北新路二段102號","hasBabyChanging":false,"hasAccessible":false,"source":"OpenStreetMap","updatedAt":"2026-06-10T15:41:05.166Z","facilityType":"pharmacy","facilityLabel":"💊 藥局","phone":"+886 2 2918 6099","website":"https://www.greattree.com.tw","wheelchair":false,"needsAddr":false},{"id":3891423026,"name":"富新骨科診所","lat":24.9645923,"lng":121.5405818,"address":"231新北市新店區光明街288號","hasBabyChanging":false,"hasAccessible":false,"source":"OpenStreetMap","updatedAt":"2026-06-10T15:41:05.166Z","facilityType":"clinic","facilityLabel":"🩺 診所","phone":null,"website":null,"wheelchair":false,"needsAddr":false},{"id":3891423033,"name":"鈺晟中醫診所","lat":24.9646083,"lng":121.5406291,"address":null,"hasBabyChanging":false,"hasAccessible":false,"source":"OpenStreetMap","updatedAt":"2026-06-10T15:41:05.166Z","facilityType":"clinic","facilityLabel":"🩺 診所","phone":null,"website":null,"wheelchair":false,"needsAddr":true},{"id":3929888397,"name":"林慶堂婦產科","lat":24.9780145,"lng":121.5425059,"address":"231新北市新店區北新路二段193號","hasBabyChanging":false,"hasAccessible":false,"source":"OpenStreetMap","updatedAt":"2026-06-10T15:41:05.166Z","facilityType":"clinic","facilityLabel":"🩺 診所","phone":"+886 2 29184501","website":null,"wheelchair":false,"needsAddr":false},{"id":4018218993,"name":"陳正宗診所","lat":24.9731707,"lng":121.5391094,"address":null,"hasBabyChanging":false,"hasAccessible":false,"source":"OpenStreetMap","updatedAt":"2026-06-10T15:41:05.166Z","facilityType":"clinic","facilityLabel":"🩺 診所","phone":null,"website":null,"wheelchair":false,"needsAddr":true},{"id":4018219513,"name":"永康動物醫院","lat":24.9640795,"lng":121.5398563,"address":null,"hasBabyChanging":false,"hasAccessible":false,"source":"OpenStreetMap","updatedAt":"2026-06-10T15:41:05.166Z","facilityType":"vet","facilityLabel":"🐾 動物醫院","phone":null,"website":null,"wheelchair":false,"needsAddr":true},{"id":4033147899,"name":"康宜庭北新藥局","lat":24.9728076,"lng":121.5427292,"address":null,"hasBabyChanging":false,"hasAccessible":false,"source":"OpenStreetMap","updatedAt":"2026-06-10T15:41:05.166Z","facilityType":"pharmacy","facilityLabel":"💊 藥局","phone":null,"website":null,"wheelchair":false,"needsAddr":true},{"id":4033147900,"name":"康是美","lat":24.9744108,"lng":121.5427359,"address":"231新北市新店區北新路二段101號","hasBabyChanging":false,"hasAccessible":false,"source":"OpenStreetMap","updatedAt":"2026-06-10T15:41:05.166Z","facilityType":"pharmacy","facilityLabel":"💊 藥妝","phone":"+886 2 89119949","website":"https://www.cosmed.com.tw/","wheelchair":false,"needsAddr":false},{"id":4033147915,"name":"聖美牙醫","lat":24.9730734,"lng":121.5427225,"address":null,"hasBabyChanging":false,"hasAccessible":false,"source":"OpenStreetMap","updatedAt":"2026-06-10T15:41:05.166Z","facilityType":"dentist","facilityLabel":"🦷 牙醫","phone":null,"website":null,"wheelchair":false,"needsAddr":true},{"id":4142882687,"name":"立源美學牙醫診所","lat":24.9827735,"lng":121.5424832,"address":"231新北市新店區民權路9號","hasBabyChanging":false,"hasAccessible":false,"source":"OpenStreetMap","updatedAt":"2026-06-10T15:41:05.166Z","facilityType":"dentist","facilityLabel":"🦷 牙醫","phone":"+886 2 89116681","website":null,"wheelchair":false,"needsAddr":false},{"id":4143907171,"name":"豐田牙醫","lat":24.9799603,"lng":121.5447391,"address":"231新北市新店區中興路三段136號","hasBabyChanging":false,"hasAccessible":false,"source":"OpenStreetMap","updatedAt":"2026-06-10T15:41:05.166Z","facilityType":"dentist","facilityLabel":"🦷 牙醫","phone":null,"website":null,"wheelchair":false,"needsAddr":false},{"id":4144510617,"name":"康是美","lat":24.9827701,"lng":121.5421428,"address":"231新北市新店區民權路17號一樓","hasBabyChanging":false,"hasAccessible":false,"source":"OpenStreetMap","updatedAt":"2026-06-10T15:41:05.166Z","facilityType":"pharmacy","facilityLabel":"💊 藥妝","phone":"+886 2 89145984","website":"https://www.cosmed.com.tw/","wheelchair":false,"needsAddr":false},{"id":4236823705,"name":"仁淵健保藥局","lat":24.9563666,"lng":121.5385927,"address":null,"hasBabyChanging":false,"hasAccessible":false,"source":"OpenStreetMap","updatedAt":"2026-06-10T15:41:05.166Z","facilityType":"pharmacy","facilityLabel":"💊 藥局","phone":null,"website":null,"wheelchair":false,"needsAddr":true},{"id":4236823714,"name":"啟生診所","lat":24.964523,"lng":121.5400446,"address":null,"hasBabyChanging":false,"hasAccessible":false,"source":"OpenStreetMap","updatedAt":"2026-06-10T15:41:05.166Z","facilityType":"clinic","facilityLabel":"🩺 診所","phone":null,"website":null,"wheelchair":false,"needsAddr":true},{"id":4236823735,"name":"新店六順診所","lat":24.971071,"lng":121.542861,"address":null,"hasBabyChanging":false,"hasAccessible":false,"source":"OpenStreetMap","updatedAt":"2026-06-10T15:41:05.166Z","facilityType":"clinic","facilityLabel":"🩺 診所","phone":null,"website":null,"wheelchair":false,"needsAddr":true},{"id":4236824152,"name":"詹婦產科","lat":24.9647817,"lng":121.5401197,"address":null,"hasBabyChanging":false,"hasAccessible":false,"source":"OpenStreetMap","updatedAt":"2026-06-10T15:41:05.166Z","facilityType":"clinic","facilityLabel":"🩺 診所","phone":null,"website":null,"wheelchair":false,"needsAddr":true},{"id":4307626644,"name":"紐約牙醫","lat":24.9750821,"lng":121.54526,"address":null,"hasBabyChanging":false,"hasAccessible":false,"source":"OpenStreetMap","updatedAt":"2026-06-10T15:41:05.166Z","facilityType":"dentist","facilityLabel":"🦷 牙醫","phone":null,"website":null,"wheelchair":false,"needsAddr":true},{"id":4328118427,"name":"惠安診所","lat":24.9793268,"lng":121.5424426,"address":"231新北市新店區北新路三段16號","hasBabyChanging":false,"hasAccessible":false,"source":"OpenStreetMap","updatedAt":"2026-06-10T15:41:05.166Z","facilityType":"clinic","facilityLabel":"🩺 診所","phone":"+886 2 29172930","website":null,"wheelchair":false,"needsAddr":false},{"id":4384257973,"name":"剛果動物醫院","lat":24.9846408,"lng":121.5423011,"address":null,"hasBabyChanging":false,"hasAccessible":false,"source":"OpenStreetMap","updatedAt":"2026-06-10T15:41:05.166Z","facilityType":"vet","facilityLabel":"🐾 動物醫院","phone":null,"website":null,"wheelchair":false,"needsAddr":true},{"id":4443758494,"name":"屈臣氏","lat":24.9739052,"lng":121.542749,"address":"231新北市新店區北新路二段79號","hasBabyChanging":false,"hasAccessible":false,"source":"OpenStreetMap","updatedAt":"2026-06-10T15:41:05.166Z","facilityType":"pharmacy","facilityLabel":"💊 藥妝","phone":"+886 2 89118171","website":"https://www.watsons.com.tw/","wheelchair":false,"needsAddr":false},{"id":4520207443,"name":"高兒科診所","lat":24.961232,"lng":121.5098448,"address":null,"hasBabyChanging":false,"hasAccessible":false,"source":"OpenStreetMap","updatedAt":"2026-06-10T15:41:05.166Z","facilityType":"clinic","facilityLabel":"👶 小兒科","phone":null,"website":null,"wheelchair":false,"needsAddr":true},{"id":4520207444,"name":"護康診所","lat":24.9610844,"lng":121.5099685,"address":null,"hasBabyChanging":false,"hasAccessible":false,"source":"OpenStreetMap","updatedAt":"2026-06-10T15:41:05.166Z","facilityType":"clinic","facilityLabel":"🩺 診所","phone":null,"website":null,"wheelchair":false,"needsAddr":true},{"id":4520207445,"name":"許正傑牙醫診所","lat":24.9610312,"lng":121.5100174,"address":null,"hasBabyChanging":false,"hasAccessible":false,"source":"OpenStreetMap","updatedAt":"2026-06-10T15:41:05.166Z","facilityType":"dentist","facilityLabel":"🦷 牙醫","phone":null,"website":null,"wheelchair":false,"needsAddr":true},{"id":4520207452,"name":"雁秋診所","lat":24.9606769,"lng":121.5103821,"address":null,"hasBabyChanging":false,"hasAccessible":false,"source":"OpenStreetMap","updatedAt":"2026-06-10T15:41:05.166Z","facilityType":"clinic","facilityLabel":"🩺 診所","phone":null,"website":null,"wheelchair":false,"needsAddr":true},{"id":4520207461,"name":"皇冠牙科","lat":24.9595633,"lng":121.5101294,"address":null,"hasBabyChanging":false,"hasAccessible":false,"source":"OpenStreetMap","updatedAt":"2026-06-10T15:41:05.166Z","facilityType":"dentist","facilityLabel":"🦷 牙醫","phone":null,"website":null,"wheelchair":false,"needsAddr":true},{"id":4524344002,"name":"大豐耳鼻喉科診所","lat":24.9789533,"lng":121.5385063,"address":null,"hasBabyChanging":false,"hasAccessible":false,"source":"OpenStreetMap","updatedAt":"2026-06-10T15:41:05.166Z","facilityType":"clinic","facilityLabel":"👂 耳鼻喉科","phone":null,"website":null,"wheelchair":false,"needsAddr":true},{"id":4524344015,"name":"文宏診所","lat":24.9648264,"lng":121.5401377,"address":"231新北市新店區北新路一段195號","hasBabyChanging":false,"hasAccessible":false,"source":"OpenStreetMap","updatedAt":"2026-06-10T15:41:05.166Z","facilityType":"clinic","facilityLabel":"🩺 診所","phone":null,"website":null,"wheelchair":false,"needsAddr":false},{"id":4524344022,"name":"仙妮蔂德","lat":24.9830949,"lng":121.5390508,"address":null,"hasBabyChanging":false,"hasAccessible":false,"source":"OpenStreetMap","updatedAt":"2026-06-10T15:41:05.166Z","facilityType":"pharmacy","facilityLabel":"💊 藥局","phone":null,"website":null,"wheelchair":false,"needsAddr":true},{"id":4524344025,"name":"均安藥局","lat":24.98272,"lng":121.5377792,"address":null,"hasBabyChanging":false,"hasAccessible":false,"source":"OpenStreetMap","updatedAt":"2026-06-10T15:41:05.166Z","facilityType":"pharmacy","facilityLabel":"💊 藥局","phone":null,"website":null,"wheelchair":false,"needsAddr":true},{"id":4538270102,"name":"啟裕","lat":24.9561832,"lng":121.5380133,"address":"231新北市新店區國校路29號","hasBabyChanging":false,"hasAccessible":false,"source":"OpenStreetMap","updatedAt":"2026-06-10T15:41:05.166Z","facilityType":"dentist","facilityLabel":"🦷 牙醫","phone":null,"website":null,"wheelchair":false,"needsAddr":false},{"id":4538270116,"name":"順安堂青草國術館","lat":24.9620534,"lng":121.5394519,"address":"231新北市新店區光明街139號","hasBabyChanging":false,"hasAccessible":false,"source":"OpenStreetMap","updatedAt":"2026-06-10T15:41:05.166Z","facilityType":"bonesetting","facilityLabel":"🦴 國術館","phone":null,"website":null,"wheelchair":false,"needsAddr":false},{"id":4538270119,"name":"寶輝藥局","lat":24.9648129,"lng":121.5406563,"address":"231新北市新店區光明街300號","hasBabyChanging":false,"hasAccessible":false,"source":"OpenStreetMap","updatedAt":"2026-06-10T15:41:05.166Z","facilityType":"pharmacy","facilityLabel":"💊 藥局","phone":null,"website":null,"wheelchair":false,"needsAddr":false},{"id":4538270120,"name":"第一醫事放射科","lat":24.9646451,"lng":121.5405901,"address":"231新北市新店區光明街292號","hasBabyChanging":false,"hasAccessible":false,"source":"OpenStreetMap","updatedAt":"2026-06-10T15:41:05.166Z","facilityType":"clinic","facilityLabel":"🩺 診所","phone":null,"website":null,"wheelchair":false,"needsAddr":false},{"id":4548151067,"name":"屈臣氏","lat":24.9597704,"lng":121.5105853,"address":null,"hasBabyChanging":false,"hasAccessible":false,"source":"OpenStreetMap","updatedAt":"2026-06-10T15:41:05.166Z","facilityType":"pharmacy","facilityLabel":"💊 藥妝","phone":null,"website":null,"wheelchair":false,"needsAddr":true},{"id":4733396645,"name":"昇旺藥局","lat":24.9736637,"lng":121.5401308,"address":"231新北市新店區建國路10-1號","hasBabyChanging":false,"hasAccessible":false,"source":"OpenStreetMap","updatedAt":"2026-06-10T15:41:05.166Z","facilityType":"pharmacy","facilityLabel":"💊 藥局","phone":null,"website":null,"wheelchair":false,"needsAddr":false},{"id":4827002328,"name":"大衛牙醫診所","lat":24.9791502,"lng":121.5237647,"address":"231新北市新店區溪園路391之2號","hasBabyChanging":false,"hasAccessible":false,"source":"OpenStreetMap","updatedAt":"2026-06-10T15:41:05.166Z","facilityType":"dentist","facilityLabel":"🦷 牙醫","phone":null,"website":null,"wheelchair":false,"needsAddr":false},{"id":4827002329,"name":"思懋堂中醫診所","lat":24.9791617,"lng":121.5236839,"address":"231新北市新店區溪園路391號","hasBabyChanging":false,"hasAccessible":false,"source":"OpenStreetMap","updatedAt":"2026-06-10T15:41:05.166Z","facilityType":"clinic","facilityLabel":"🩺 診所","phone":null,"website":null,"wheelchair":false,"needsAddr":false},{"id":4834782013,"name":"杏運草藥局","lat":24.9589854,"lng":121.5376806,"address":"231新北市新店區北新路一段19號","hasBabyChanging":false,"hasAccessible":false,"source":"OpenStreetMap","updatedAt":"2026-06-10T15:41:05.166Z","facilityType":"pharmacy","facilityLabel":"💊 藥局","phone":null,"website":null,"wheelchair":false,"needsAddr":false},{"id":4834782732,"name":"再生藥局","lat":24.9809927,"lng":121.5411904,"address":"231新北市新店區北新路三段65巷9號一樓","hasBabyChanging":false,"hasAccessible":false,"source":"OpenStreetMap","updatedAt":"2026-06-10T15:41:05.166Z","facilityType":"pharmacy","facilityLabel":"💊 藥局","phone":"+886 2 2911 3781","website":null,"wheelchair":false,"needsAddr":false},{"id":4940829253,"name":"利新牙科診所","lat":24.9653438,"lng":121.5404069,"address":"231新北市新店區北新路一段221號","hasBabyChanging":false,"hasAccessible":false,"source":"OpenStreetMap","updatedAt":"2026-06-10T15:41:05.166Z","facilityType":"dentist","facilityLabel":"🦷 牙醫","phone":null,"website":null,"wheelchair":false,"needsAddr":false},{"id":4961067001,"name":"晶采牙醫診所","lat":24.9845133,"lng":121.541551,"address":"新北市新店區北新路三段206巷1弄5號","hasBabyChanging":false,"hasAccessible":false,"source":"OpenStreetMap","updatedAt":"2026-06-10T15:41:05.166Z","facilityType":"dentist","facilityLabel":"🦷 牙醫","phone":null,"website":null,"wheelchair":false,"needsAddr":false},{"id":5108706555,"name":"得恩牙醫診所","lat":24.9792672,"lng":121.5424637,"address":"231新北市新店區北新路三段12號一樓","hasBabyChanging":false,"hasAccessible":false,"source":"OpenStreetMap","updatedAt":"2026-06-10T15:41:05.166Z","facilityType":"dentist","facilityLabel":"🦷 牙醫","phone":"+886 2 86653352","website":null,"wheelchair":false,"needsAddr":false},{"id":5108706573,"name":"永佳牙醫","lat":24.9780768,"lng":121.542491,"address":"231新北市新店區北新路二段195號","hasBabyChanging":false,"hasAccessible":false,"source":"OpenStreetMap","updatedAt":"2026-06-10T15:41:05.166Z","facilityType":"dentist","facilityLabel":"🦷 牙醫","phone":"+886 2 9127721","website":null,"wheelchair":false,"needsAddr":false},{"id":5108706577,"name":"新眼光眼科診所","lat":24.9711236,"lng":121.5428723,"address":null,"hasBabyChanging":false,"hasAccessible":false,"source":"OpenStreetMap","updatedAt":"2026-06-10T15:41:05.166Z","facilityType":"clinic","facilityLabel":"🩺 診所","phone":null,"website":null,"wheelchair":false,"needsAddr":true},{"id":5108706599,"name":"林碧川內科小兒科診所","lat":24.9728131,"lng":121.5431305,"address":null,"hasBabyChanging":false,"hasAccessible":false,"source":"OpenStreetMap","updatedAt":"2026-06-10T15:41:05.166Z","facilityType":"clinic","facilityLabel":"👶 小兒科","phone":null,"website":null,"wheelchair":false,"needsAddr":true},{"id":6017147490,"name":"診所","lat":24.985388,"lng":121.5381366,"address":null,"hasBabyChanging":false,"hasAccessible":false,"source":"OpenStreetMap","updatedAt":"2026-06-10T15:41:05.166Z","facilityType":"clinic","facilityLabel":"🩺 診所","phone":null,"website":null,"wheelchair":false,"needsAddr":true},{"id":6176758343,"name":"欣康藥局","lat":24.9745208,"lng":121.537206,"address":null,"hasBabyChanging":false,"hasAccessible":false,"source":"OpenStreetMap","updatedAt":"2026-06-10T15:41:05.166Z","facilityType":"pharmacy","facilityLabel":"💊 藥局","phone":null,"website":null,"wheelchair":false,"needsAddr":true},{"id":6578192465,"name":"禪心中醫診所","lat":24.9825372,"lng":121.5432281,"address":"231新北市新店區中興路三段221-1號一樓","hasBabyChanging":false,"hasAccessible":true,"source":"OpenStreetMap","updatedAt":"2026-06-10T15:41:05.166Z","facilityType":"clinic","facilityLabel":"🩺 診所","phone":"+886 2 29150678","website":null,"wheelchair":true,"needsAddr":false},{"id":6936040998,"name":"進新牙醫","lat":24.9650253,"lng":121.5407221,"address":null,"hasBabyChanging":false,"hasAccessible":false,"source":"OpenStreetMap","updatedAt":"2026-06-10T15:41:05.166Z","facilityType":"dentist","facilityLabel":"🦷 牙醫","phone":null,"website":null,"wheelchair":false,"needsAddr":true},{"id":6969436640,"name":"卓悅牙雇診所","lat":24.9690556,"lng":121.5417561,"address":null,"hasBabyChanging":false,"hasAccessible":false,"source":"OpenStreetMap","updatedAt":"2026-06-10T15:41:05.166Z","facilityType":"dentist","facilityLabel":"🦷 牙醫","phone":null,"website":null,"wheelchair":false,"needsAddr":true},{"id":7093507991,"name":"惠安犬貓醫院","lat":24.973076,"lng":121.5430798,"address":"新北市新店區北新路二段94號","hasBabyChanging":false,"hasAccessible":false,"source":"OpenStreetMap","updatedAt":"2026-06-10T15:41:05.166Z","facilityType":"vet","facilityLabel":"🐾 動物醫院","phone":null,"website":null,"wheelchair":false,"needsAddr":false},{"id":7689995449,"name":"維春藥局","lat":24.9830559,"lng":121.5408967,"address":null,"hasBabyChanging":false,"hasAccessible":false,"source":"OpenStreetMap","updatedAt":"2026-06-10T15:41:05.166Z","facilityType":"pharmacy","facilityLabel":"💊 藥局","phone":null,"website":null,"wheelchair":false,"needsAddr":true},{"id":8195481558,"name":"微笑生活藥局","lat":24.9765725,"lng":121.5404072,"address":"231新北市新店區建國路85號零樓","hasBabyChanging":false,"hasAccessible":false,"source":"OpenStreetMap","updatedAt":"2026-06-10T15:41:05.166Z","facilityType":"pharmacy","facilityLabel":"💊 藥局","phone":"+886 2 89113397","website":null,"wheelchair":false,"needsAddr":false},{"id":8579299734,"name":"新晨皮膚專科診所","lat":24.9782293,"lng":121.54245,"address":"231新北市新店區北新路二段201號","hasBabyChanging":false,"hasAccessible":false,"source":"OpenStreetMap","updatedAt":"2026-06-10T15:41:05.166Z","facilityType":"clinic","facilityLabel":"🩺 診所","phone":"+886 2 29155158","website":"http://www.kenskin.com/","wheelchair":false,"needsAddr":false},{"id":8690478636,"name":"文玉小兒科診所","lat":24.9760742,"lng":121.5407038,"address":"231新北市新店區建國路70號","hasBabyChanging":false,"hasAccessible":false,"source":"OpenStreetMap","updatedAt":"2026-06-10T15:41:05.166Z","facilityType":"clinic","facilityLabel":"👶 小兒科","phone":"+886 2 29104898","website":"http://www.hicare.com.tw/文玉小兒科診所/","wheelchair":false,"needsAddr":false},{"id":8690478640,"name":"張榮宗內科診所","lat":24.9764431,"lng":121.540406,"address":"231新北市新店區建國路83-1號","hasBabyChanging":false,"hasAccessible":false,"source":"OpenStreetMap","updatedAt":"2026-06-10T15:41:05.166Z","facilityType":"clinic","facilityLabel":"🩺 診所","phone":"+886 2 29179322","website":null,"wheelchair":false,"needsAddr":false},{"id":8805664058,"name":"高牙醫診所","lat":24.9758871,"lng":121.5406929,"address":"231新北市新店區建國路64號","hasBabyChanging":false,"hasAccessible":false,"source":"OpenStreetMap","updatedAt":"2026-06-10T15:41:05.166Z","facilityType":"dentist","facilityLabel":"🦷 牙醫","phone":"+886 2 29116621","website":null,"wheelchair":false,"needsAddr":false},{"id":8805664061,"name":"椿萱藥局","lat":24.9758943,"lng":121.5404499,"address":"231新北市新店區建國路69號","hasBabyChanging":false,"hasAccessible":false,"source":"OpenStreetMap","updatedAt":"2026-06-10T15:41:05.166Z","facilityType":"pharmacy","facilityLabel":"💊 藥局","phone":"+886 2 29188311","website":null,"wheelchair":false,"needsAddr":false},{"id":8805664062,"name":"又新診所","lat":24.9759403,"lng":121.5404446,"address":"231新北市新店區建國路71號","hasBabyChanging":false,"hasAccessible":false,"source":"OpenStreetMap","updatedAt":"2026-06-10T15:41:05.166Z","facilityType":"clinic","facilityLabel":"🩺 診所","phone":"+886 2 86650062","website":null,"wheelchair":false,"needsAddr":false},{"id":8805664063,"name":"上醫堂中醫診所","lat":24.9762626,"lng":121.5404319,"address":"231新北市新店區建國路83號一樓","hasBabyChanging":false,"hasAccessible":false,"source":"OpenStreetMap","updatedAt":"2026-06-10T15:41:05.166Z","facilityType":"clinic","facilityLabel":"🩺 診所","phone":"+886 2 29121212","website":null,"wheelchair":false,"needsAddr":false},{"id":8872456819,"name":"有全牙醫診所","lat":24.9757179,"lng":121.5430702,"address":"231新北市新店區北新路二段164號","hasBabyChanging":false,"hasAccessible":false,"source":"OpenStreetMap","updatedAt":"2026-06-10T15:41:05.166Z","facilityType":"dentist","facilityLabel":"🦷 牙醫","phone":"+886 2 29101388","website":null,"wheelchair":false,"needsAddr":false},{"id":8872456820,"name":"北一藥師藥局","lat":24.9762287,"lng":121.5427496,"address":"231新北市新店區北新路二段163號一樓","hasBabyChanging":false,"hasAccessible":false,"source":"OpenStreetMap","updatedAt":"2026-06-10T15:41:05.166Z","facilityType":"pharmacy","facilityLabel":"💊 藥局","phone":"+886 2 89115686","website":null,"wheelchair":false,"needsAddr":false},{"id":9363954226,"name":"新店大愛眼科診所","lat":24.979123,"lng":121.5425093,"address":"231新北市新店區北新路三段2號","hasBabyChanging":false,"hasAccessible":false,"source":"OpenStreetMap","updatedAt":"2026-06-10T15:41:05.166Z","facilityType":"clinic","facilityLabel":"🩺 診所","phone":"+886 2 29150538","website":"https://www.dr-eye.com.tw/","wheelchair":false,"needsAddr":false},{"id":9410315995,"name":"金美藥局","lat":24.9820096,"lng":121.541667,"address":"231新北市新店區北新路三段138號一樓","hasBabyChanging":false,"hasAccessible":false,"source":"OpenStreetMap","updatedAt":"2026-06-10T15:41:05.166Z","facilityType":"pharmacy","facilityLabel":"💊 藥局","phone":"+886 2 29146365","website":null,"wheelchair":false,"needsAddr":false},{"id":9410315996,"name":"品川診所","lat":24.9819703,"lng":121.5416736,"address":"231新北市新店區北新路三段136號一樓","hasBabyChanging":false,"hasAccessible":false,"source":"OpenStreetMap","updatedAt":"2026-06-10T15:41:05.166Z","facilityType":"clinic","facilityLabel":"🩺 診所","phone":"+886 2 29116978","website":"https://104skin.weebly.com/","wheelchair":false,"needsAddr":false},{"id":9410315998,"name":"世明藥局","lat":24.9815958,"lng":121.5417569,"address":"231新北市新店區北新路三段120號一樓","hasBabyChanging":false,"hasAccessible":false,"source":"OpenStreetMap","updatedAt":"2026-06-10T15:41:05.166Z","facilityType":"pharmacy","facilityLabel":"💊 藥局","phone":"+886 2 29122139","website":null,"wheelchair":false,"needsAddr":false},{"id":9410315999,"name":"為宏皮膚科","lat":24.981558,"lng":121.541766,"address":"231新北市新店區北新路三段118號","hasBabyChanging":false,"hasAccessible":false,"source":"OpenStreetMap","updatedAt":"2026-06-10T15:41:05.166Z","facilityType":"clinic","facilityLabel":"🩺 診所","phone":"+886 2 86655332","website":null,"wheelchair":false,"needsAddr":false},{"id":9773292987,"name":"睛彩眼科","lat":24.9683237,"lng":121.5414973,"address":null,"hasBabyChanging":false,"hasAccessible":false,"source":"OpenStreetMap","updatedAt":"2026-06-10T15:41:05.166Z","facilityType":"clinic","facilityLabel":"🩺 診所","phone":null,"website":null,"wheelchair":false,"needsAddr":true},{"id":9775314364,"name":"樂齒牙醫","lat":24.9714944,"lng":121.5419405,"address":null,"hasBabyChanging":false,"hasAccessible":false,"source":"OpenStreetMap","updatedAt":"2026-06-10T15:41:05.166Z","facilityType":"dentist","facilityLabel":"🦷 牙醫","phone":null,"website":null,"wheelchair":false,"needsAddr":true},{"id":9775314366,"name":"康倍藥局","lat":24.9714378,"lng":121.5420102,"address":null,"hasBabyChanging":false,"hasAccessible":false,"source":"OpenStreetMap","updatedAt":"2026-06-10T15:41:05.166Z","facilityType":"pharmacy","facilityLabel":"💊 藥局","phone":null,"website":null,"wheelchair":false,"needsAddr":true},{"id":9775314367,"name":"安倍診所","lat":24.9714202,"lng":121.5420377,"address":null,"hasBabyChanging":false,"hasAccessible":false,"source":"OpenStreetMap","updatedAt":"2026-06-10T15:41:05.166Z","facilityType":"clinic","facilityLabel":"🩺 診所","phone":null,"website":null,"wheelchair":false,"needsAddr":true},{"id":9776303053,"name":"健維骨科診所","lat":24.9733569,"lng":121.5389371,"address":null,"hasBabyChanging":false,"hasAccessible":false,"source":"OpenStreetMap","updatedAt":"2026-06-10T15:41:05.166Z","facilityType":"clinic","facilityLabel":"🩺 診所","phone":null,"website":null,"wheelchair":false,"needsAddr":true},{"id":9776303090,"name":"富康活力藥局","lat":24.972884,"lng":121.5395654,"address":null,"hasBabyChanging":false,"hasAccessible":false,"source":"OpenStreetMap","updatedAt":"2026-06-10T15:41:05.166Z","facilityType":"pharmacy","facilityLabel":"💊 藥局","phone":null,"website":null,"wheelchair":false,"needsAddr":true},{"id":9776303091,"name":"康是美","lat":24.9727672,"lng":121.5397719,"address":null,"hasBabyChanging":false,"hasAccessible":false,"source":"OpenStreetMap","updatedAt":"2026-06-10T15:41:05.166Z","facilityType":"pharmacy","facilityLabel":"💊 藥妝","phone":null,"website":null,"wheelchair":false,"needsAddr":true},{"id":9776303092,"name":"美康健保藥局","lat":24.9727916,"lng":121.5397277,"address":null,"hasBabyChanging":false,"hasAccessible":false,"source":"OpenStreetMap","updatedAt":"2026-06-10T15:41:05.166Z","facilityType":"pharmacy","facilityLabel":"💊 藥局","phone":null,"website":null,"wheelchair":false,"needsAddr":true},{"id":9821522016,"name":"大吉藥局","lat":24.969759,"lng":121.5451602,"address":"231新北市新店區中正路30號一樓","hasBabyChanging":false,"hasAccessible":false,"source":"OpenStreetMap","updatedAt":"2026-06-10T15:41:05.166Z","facilityType":"pharmacy","facilityLabel":"💊 藥局","phone":"+886 2 2911 0151","website":null,"wheelchair":false,"needsAddr":false},{"id":9821556418,"name":"劉建梅診所","lat":24.9696739,"lng":121.5453724,"address":"231新北市新店區中正路20號一樓","hasBabyChanging":false,"hasAccessible":false,"source":"OpenStreetMap","updatedAt":"2026-06-10T15:41:05.166Z","facilityType":"clinic","facilityLabel":"🩺 診所","phone":null,"website":null,"wheelchair":false,"needsAddr":false},{"id":10249982582,"name":"舒美牙醫診所","lat":24.9808369,"lng":121.5377584,"address":"新北市新店區建國路206號","hasBabyChanging":false,"hasAccessible":false,"source":"OpenStreetMap","updatedAt":"2026-06-10T15:41:05.166Z","facilityType":"dentist","facilityLabel":"🦷 牙醫","phone":null,"website":null,"wheelchair":false,"needsAddr":false},{"id":11368558931,"name":"康裕藥局","lat":24.983044,"lng":121.5425501,"address":"231新北市新店區民權路8號","hasBabyChanging":false,"hasAccessible":false,"source":"OpenStreetMap","updatedAt":"2026-06-10T15:41:05.166Z","facilityType":"pharmacy","facilityLabel":"💊 藥局","phone":"+886 2 29135478","website":null,"wheelchair":false,"needsAddr":false},{"id":12769762246,"name":"康是美","lat":24.9730348,"lng":121.5299549,"address":null,"hasBabyChanging":false,"hasAccessible":false,"source":"OpenStreetMap","updatedAt":"2026-06-10T15:41:05.166Z","facilityType":"pharmacy","facilityLabel":"💊 藥妝","phone":null,"website":null,"wheelchair":false,"needsAddr":true},{"id":12770602031,"name":"欣和診所","lat":24.9855845,"lng":121.516631,"address":"新北市新店區永平里016鄰安和路三段151號四樓","hasBabyChanging":false,"hasAccessible":false,"source":"OpenStreetMap","updatedAt":"2026-06-10T15:41:05.166Z","facilityType":"clinic","facilityLabel":"👂 耳鼻喉科","phone":null,"website":null,"wheelchair":false,"needsAddr":false},{"id":12802291296,"name":"澄牙醫診所","lat":24.9827766,"lng":121.5415215,"address":"231新北市新店區北新路三段158號1;2樓","hasBabyChanging":false,"hasAccessible":false,"source":"OpenStreetMap","updatedAt":"2026-06-10T15:41:05.166Z","facilityType":"dentist","facilityLabel":"🦷 牙醫","phone":"+886 2 29130099","website":null,"wheelchair":false,"needsAddr":false},{"id":13289012559,"name":"大豐藥局","lat":24.980517,"lng":121.5414947,"address":"231新北市新店區大豐路4號","hasBabyChanging":false,"hasAccessible":false,"source":"OpenStreetMap","updatedAt":"2026-06-10T15:41:05.166Z","facilityType":"pharmacy","facilityLabel":"💊 藥局","phone":"+886 2 89113196","website":null,"wheelchair":false,"needsAddr":false},{"id":13511041490,"name":"天祥中醫診所","lat":24.9544486,"lng":121.5372165,"address":"231新北市新店區新店路98號","hasBabyChanging":false,"hasAccessible":false,"source":"OpenStreetMap","updatedAt":"2026-06-10T15:41:05.166Z","facilityType":"clinic","facilityLabel":"🩺 診所","phone":null,"website":null,"wheelchair":false,"needsAddr":false},{"id":13609305379,"name":"耀生中西藥局","lat":24.9797432,"lng":121.5431253,"address":"231新北市新店區文化路21巷6號","hasBabyChanging":false,"hasAccessible":false,"source":"OpenStreetMap","updatedAt":"2026-06-10T15:41:05.166Z","facilityType":"pharmacy","facilityLabel":"💊 藥局","phone":"+886 2 2911 8598","website":null,"wheelchair":false,"needsAddr":false},{"id":13798767996,"name":"國華同仁中醫診所","lat":24.9799217,"lng":121.541908,"address":"231新北市新店區北新路三段23號1;2樓","hasBabyChanging":false,"hasAccessible":false,"source":"OpenStreetMap","updatedAt":"2026-06-10T15:41:05.166Z","facilityType":"clinic","facilityLabel":"🩺 診所","phone":"+886 2 8665 3988","website":null,"wheelchair":false,"needsAddr":false},{"id":329147421,"name":"耕莘醫院安康分院","lat":24.9538369,"lng":121.5040504,"address":null,"hasBabyChanging":false,"hasAccessible":false,"source":"OpenStreetMap","updatedAt":"2026-06-10T15:41:05.166Z","facilityType":"hospital","facilityLabel":"🏥 醫院","phone":null,"website":null,"wheelchair":false,"needsAddr":true},{"id":353361372,"name":"同仁醫院","lat":24.9826305,"lng":121.5378147,"address":null,"hasBabyChanging":false,"hasAccessible":false,"source":"OpenStreetMap","updatedAt":"2026-06-10T15:41:05.166Z","facilityType":"hospital","facilityLabel":"🏥 醫院","phone":null,"website":null,"wheelchair":false,"needsAddr":true},{"id":355440105,"name":"新店區衛生所","lat":24.9672802,"lng":121.5430486,"address":"23147新北市新店區北新路一段88巷11號","hasBabyChanging":false,"hasAccessible":false,"source":"OpenStreetMap","updatedAt":"2026-06-10T15:41:05.166Z","facilityType":"health_center","facilityLabel":"🏥 衛生所","phone":null,"website":null,"wheelchair":false,"needsAddr":false},{"id":1322465711,"name":"豐榮醫院","lat":24.9632964,"lng":121.5114444,"address":null,"hasBabyChanging":false,"hasAccessible":false,"source":"OpenStreetMap","updatedAt":"2026-06-10T15:41:05.166Z","facilityType":"hospital","facilityLabel":"🏥 醫院","phone":null,"website":null,"wheelchair":false,"needsAddr":true},{"id":1327578612,"name":"宏濟神經精神科醫院","lat":24.9588443,"lng":121.5142604,"address":"新北市新店區公崙里022鄰安忠路57巷5號","hasBabyChanging":false,"hasAccessible":false,"source":"OpenStreetMap","updatedAt":"2026-06-10T15:41:05.166Z","facilityType":"hospital","facilityLabel":"🏥 醫院","phone":null,"website":null,"wheelchair":false,"needsAddr":false},{"id":1334664811,"name":"宏慈療養院","lat":24.938628,"lng":121.4883516,"address":"新北市新店區雙城里029鄰安泰路157號二樓","hasBabyChanging":false,"hasAccessible":false,"source":"OpenStreetMap","updatedAt":"2026-06-10T15:41:05.166Z","facilityType":"hospital","facilityLabel":"🏥 醫院","phone":"+886 2 22151177","website":"https://huangtzu.pixnet.net/blog","wheelchair":false,"needsAddr":false},{"id":4615353,"name":"耕莘醫院","lat":24.9765429,"lng":121.5359052,"address":"23148新北市新店區中正路362號","hasBabyChanging":false,"hasAccessible":false,"source":"OpenStreetMap","updatedAt":"2026-06-10T15:41:05.166Z","facilityType":"hospital","facilityLabel":"🏥 醫院","phone":"+886-2-2219-3391","website":"https://www.cth.org.tw/","wheelchair":false,"needsAddr":false},{"id":5257272,"name":"佛教慈濟綜合醫院台北院區","lat":24.986231,"lng":121.5352866,"address":"新北市新店區建國路289號","hasBabyChanging":false,"hasAccessible":false,"source":"OpenStreetMap","updatedAt":"2026-06-10T15:41:05.166Z","facilityType":"hospital","facilityLabel":"🏥 醫院","phone":"+886-2-66289779","website":"http://www.tzuchi.com.tw/tzuchi/default.aspx","wheelchair":false,"needsAddr":false},{"id":18206099,"name":"新北仁康醫院","lat":24.9554691,"lng":121.4998249,"address":null,"hasBabyChanging":false,"hasAccessible":false,"source":"OpenStreetMap","updatedAt":"2026-06-10T15:41:05.166Z","facilityType":"hospital","facilityLabel":"🏥 醫院","phone":null,"website":null,"wheelchair":false,"needsAddr":true}]}